     2.11           OBSERVATION DATA    M (MIXED)           RINEX VERSION / TYPE
teqc  2016Apr1      anonyme             20160926 14:37:52UTCPGM / RUN BY / DATE
BRET                                                        MARKER NAME
10019M001                                                   MARKER NUMBER
Automatic           Lyce J-P. Timbaud                       OBSERVER / AGENCY
1700681             LEICA GR10          2.00/4.007          REC # / TYPE / VERS
11361006            LEIAS10         NONE                    ANT # / TYPE
  4221686.5340   170665.6270  4762123.8180                  APPROX POSITION XYZ
        0.0000        0.0000        0.0000                  ANTENNA: DELTA H/E/N
     1     1                                                WAVELENGTH FACT L1/2
     6    L1    L2    C1    P2    D1    D2                  # / TYPES OF OBSERV
    30.0000                                                 INTERVAL
Linux 2.4.21-27.ELsmp|Opteron|gcc|Linux x86_64|=+           COMMENT
teqc  2016Apr1                          20160915 01:30:46UTCCOMMENT
teqc  2016Apr1      IGN-RGP             20160914 01:04:48UTCCOMMENT
teqc  2016Apr1                          20160914 01:04:48UTCCOMMENT
GR10 V3.01                              2016 09 14 00:59    COMMENT
                                                            COMMENT
                                                            COMMENT
    17                                                      LEAP SECONDS
BIT 2 OF LLI FLAGS DATA COLLECTED UNDER A/S CONDITION       COMMENT
SNR is mapped to RINEX snr flag value [1-9]                 COMMENT
LX:     = 25dBHz -> 1; 26-27dBHz -> 2; 28-31dBHz -> 3       COMMENT
       32-35dBHz -> 4; 36-38dBHz -> 5; 39-41dBHz -> 6       COMMENT
       42-44dBHz -> 7; 45-48dBHz -> 8; >= 49dBHz -> 9       COMMENT
Forced Modulo Decimation to 30 seconds                      COMMENT
teqc edited: all GLONASS satellites excluded                COMMENT
teqc edited: all SBAS satellites excluded                   COMMENT
teqc edited: all Galileo satellites excluded                COMMENT
  2016     9    14     0     0    0.0000000     GPS         TIME OF FIRST OBS
                                                            END OF HEADER
 16  9 14  0  0  0.0000000  0  8G05G13G15G18G20G24G28G30
 118627080.985 8  92436675.60648  22573978.757    22573974.627       -3215.006
     -2505.200
 105727298.226 9  82384898.57148  20119227.637    20119222.977         163.234
       127.196
 111182559.372 9  86635749.75448  21157335.965    21157332.015        1933.492
      1506.618
 129582475.047 7 100973339.00944  24658724.787    24658719.664        2812.406
      2191.488
 112118851.185 9  87365329.99547  21335507.521    21335502.941        -299.059
      -233.033
 123959272.492 7  96591650.73546  23588666.641    23588665.799        3177.483
      2475.964
 112481681.181 9  87648064.49147  21404547.784    21404542.857        -513.425
      -400.070
 120541982.183 8  93928827.99346  22938366.169    22938364.720       -2996.654
     -2335.056
 16  9 14  0  0 30.0000000  0  8G05G13G15G18G20G24G28G30
 118723673.432 8  92511942.41348  22592359.702    22592355.621       -3222.423
     -2510.979
 105722611.139 9  82381246.28948  20118335.722    20118331.065         151.057
       117.706
 111124726.903 9  86590685.49248  21146330.800    21146326.875        1923.859
      1499.111
 129498222.690 7 100907687.79744  24642692.136    24642686.999        2806.166
      2186.624
 112128123.367 9  87372555.05147  21337271.965    21337267.392        -317.177
      -247.150
 123864027.799 7  96517434.11746  23570542.149    23570541.282        3174.180
      2473.387
 112497349.724 9  87660273.74747  21407529.406    21407524.480        -529.211
      -412.373
 120631946.333 8  93998929.90846  22955485.800    22955484.349       -2999.229
     -2337.062
 16  9 14  0  1  0.0000000  0  8G05G13G15G18G20G24G28G30
 118820556.472 8  92587435.67448  22610795.918    22610791.896       -3233.662
     -2519.738
 105718362.674 9  82377935.79948  20117527.273    20117522.621         134.810
       105.046
 111067255.667 9  86545902.71748  21135394.368    21135390.466        1910.197
      1488.465
 129414237.643 7 100842244.91944  24626710.308    24626705.169        2795.458
      2178.281
 112138011.849 9  87380260.35847  21339153.673    21339149.097        -339.351
      -264.429
 123768954.512 7  96443351.06745  23552450.270    23552449.367        3166.769
      2467.615
 112513561.382 9  87672906.22047  21410614.371    21410609.443        -548.943
      -427.748
 120722057.503 8  94069146.39846  22972633.391    22972631.930       -3005.527
     -2341.972
 16  9 14  0  1 30.0000000  0  8G05G13G15G18G20G24G28G30
 118917714.660 8  92663143.33948  22629284.496    22629280.531       -3243.357
     -2527.292
 105714540.797 9  82374957.71148  20116800.004    20116795.364         120.087
        93.574
 111010134.472 9  86501392.70148  21124524.550    21124520.661        1898.025
      1478.981
 129330509.970 7 100777002.56845  24610777.464    24610772.329        2786.802
      2171.534
 112148503.953 9  87388436.02347  21341150.254    21341145.666        -359.996
      -280.517
 123674041.259 7  96369392.69045  23534388.877    23534387.907        3161.007
      2463.122
 112530302.546 9  87685951.29547  21413800.097    21413795.170        -567.027
      -441.839
 120812301.610 8  94139466.47546  22989806.280    22989804.813       -3010.586
     -2345.909
 16  9 14  0  2  0.0000000  0  8G05G13G15G18G20G24G28G30
 119015148.281 8  92739065.61248  22647825.499    22647821.599       -3252.270
     -2534.237
 105711149.555 9  82372315.17848  20116154.682    20116150.055         105.934
        82.545
 110953368.270 9  86457159.30548  21113722.286    21113718.399        1886.348
      1469.881
 129247044.830 7 100711964.82845  24594894.540    24594889.409        2777.646
      2164.402
 112159602.606 9  87397084.32447  21343262.278    21343257.674        -380.021
      -296.120
 123579292.279 7  96295562.30045  23516358.769    23516357.677        3155.725
      2459.005
 112547575.963 9  87699411.10647  21417087.111    21417082.183        -584.636
      -455.561
 120902680.497 8  94209891.57446  23007004.825    23007003.338       -3014.903
     -2349.275
 16  9 14  0  2 30.0000000  0  8G05G13G15G18G20G24G28G30
 119112857.938 8  92815202.99147  22666419.017    22666415.180       -3261.549
     -2541.468
 105708192.601 9  82370011.05548  20115591.999    20115587.382          91.464
        71.271
 110896961.550 9  86413206.01748  21102988.444    21102984.544        1874.223
      1460.433
 129163846.953 7 100647135.26945  24579062.536    24579057.406        2768.964
      2157.633
 112171310.050 9  87406206.99548  21345490.175    21345485.555        -400.396
      -311.997
 123484711.651 7  96221863.09745  23498360.703    23498359.467        3149.947
      2454.505
 112565383.292 9  87713286.95147  21420475.727    21420470.796        -602.480
      -469.466
 120993195.580 8  94280422.76446  23024229.318    23024227.823       -3019.305
     -2352.706
 16  9 14  0  3  0.0000000  0  8G05G13G15G18G20G24G28G30
 119210839.992 8  92891552.62747  22685064.365    22685060.586       -3270.808
     -2548.683
 105705669.394 9  82368044.91748  20115111.852    20115107.240          76.671
        59.743
 110840914.810 9  86369533.24048  21092323.104    21092319.178        1862.001
      1450.910
 129080918.006 7 100582515.34045  24563281.652    24563276.515        2759.643
      2150.370
 112183624.503 9  87415802.67147  21347833.579    21347828.935        -420.746
      -327.854
 123390299.029 7  96148294.85946  23480394.578    23480393.225        3144.184
      2450.014
 112583722.640 9  87727577.37147  21423965.570    21423960.634        -620.407
      -483.433
 121083844.411 8  94351058.20346  23041479.246    23041477.727       -3024.138
     -2356.473
 16  9 14  0  3 30.0000000  0  8G05G13G15G18G20G24G28G30
 119309091.367 8  92968112.13647  22703760.953    22703757.225       -3279.438
     -2555.406
 105703580.370 9  82366417.10848  20114714.323    20114709.714          62.393
        48.618
 110785229.222 9  86326141.88148  21081726.492    21081722.536        1850.167
      1441.689
 128998259.619 7 100518106.20645  24547552.274    24547547.163        2750.691
      2143.396
 112196545.369 9  87425870.86847  21350292.378    21350287.719        -440.854
      -343.523
 123296054.753 6  96074857.82046  23462460.456    23462459.051        3138.560
      2445.634
 112602592.416 9  87742281.09547  21427556.362    21427551.427        -637.836
      -497.016
 121174625.285 8  94421796.52446  23058754.307    23058752.775       -3028.226
     -2359.658
 16  9 14  0  4  0.0000000  0  8G05G13G15G18G20G24G28G30
 119407611.301 8  93044880.91047  22722508.654    22722504.963       -3288.399
     -2562.391
 105701928.497 9  82365129.93448  20114399.983    20114395.374          47.714
        37.180
 110729908.846 9  86283035.09948  21071199.381    21071195.403        1837.855
      1432.095
 128915876.155 7 100453911.29644  24531875.214    24531870.120        2741.567
      2136.284
 112210074.368 9  87436412.92947  21352866.889    21352862.231        -461.166
      -359.351
 123201982.729 7  96001555.00146  23444559.091    23444557.686        3132.832
      2441.171
 112621994.317 9  87757399.47147  21431248.404    21431243.468        -655.621
      -510.873
 121265539.004 8  94492638.37747  23076054.635    23076053.086       -3032.716
     -2363.156
 16  9 14  0  4 30.0000000  0  8G05G13G15G18G20G24G28G30
 119506393.516 8  93121854.04447  22741306.276    22741302.618       -3297.732
     -2569.662
 105700710.603 9  82364180.91448  20114168.237    20114163.631          32.658
        25.447
 110674951.336 9  86240211.05948  21060741.326    21060737.338        1825.165
      1422.206
 128833766.057 7 100389929.41945  24516250.153    24516245.069        2731.752
      2128.640
 112224206.972 9  87447425.32947  21355556.249    21355551.598        -481.861
      -375.478
 123108079.097 7  95928383.38746  23426689.762    23426688.382        3126.639
      2436.344
 112641923.149 9  87772928.43747  21435040.721    21435035.791        -673.768
      -525.014
 121356580.208 8  94563579.55246  23093379.230    23093377.681       -3037.377
     -2366.788
 16  9 14  0  5  0.0000000  0  8G05G13G15G18G20G24G28G30
 119605436.381 8  93199030.29647  22760153.486    22760149.855       -3305.875
     -2576.008
 105699928.583 9  82363571.54548  20114019.429    20114014.820          18.626
        14.514
 110620359.539 9  86197672.00548  21050352.847    21050348.858        1813.525
      1413.137
 128751932.719 7 100326163.20445  24500677.745    24500672.683        2723.096
      2121.896
 112238943.449 9  87458908.29547  21358360.508    21358355.855        -501.358
      -390.669
 123014346.706 7  95855345.20146  23408853.015    23408851.670        3121.491
      2432.332
 112662379.520 9  87788868.47947  21438933.419    21438928.507        -690.753
      -538.248
 121447748.791 8  94634619.98146  23110728.060    23110726.519       -3041.199
     -2369.767
 16  9 14  0  5 30.0000000  0  8G05G13G15G18G20G24G28G30
 119704735.754 8  93276406.40647  22779049.522    22779045.925       -3314.275
     -2582.553
 105699581.159 9  82363300.81348  20113953.329    20113948.719           4.165
         3.245
 110566133.201 9  86155417.70748  21040033.915    21040029.941        1801.315
      1403.622
 128670376.839 7 100262613.15545  24485158.152    24485153.139        2713.829
      2114.675
 112254281.915 9  87470860.32347  21361279.336    21361274.684        -521.389
      -406.277
 122920784.488 7  95782439.59247  23391048.672    23391047.357        3115.790
      2427.888
 112683360.514 9  87805217.31447  21442925.955    21442921.069        -708.149
      -551.804
 121539041.532 8  94705757.13746  23128100.531    23128099.012       -3045.389
     -2373.030
 16  9 14  0  6  0.0000000  0  8G05G13G15G18G20G24G28G30
 119804292.157 8  93353982.81847  22797994.466    22797990.885       -3323.058
     -2589.396
 105699672.392 9  82363371.90248  20113970.692    20113966.084         -10.581
        -8.245
 110512277.527 9  86113452.24948  21029785.502    21029781.550        1788.737
      1393.821
 128589103.737 7 100199283.49044  24469692.333    24469687.354        2704.034
      2107.041
 112270225.018 9  87483283.50847  21364313.213    21364308.559        -541.836
      -422.210
 122827396.365 7  95709669.66447  23373277.459    23373276.145        3109.794
      2423.218
 112704868.586 9  87821976.85047  21447018.803    21447013.941        -725.923
      -565.654
 121630460.496 8  94776992.67546  23145496.997    23145495.499       -3049.620
     -2376.326
 16  9 14  0  6 30.0000000  0  8G05G13G15G18G20G24G28G30
 119904101.211 8  93431756.09547  22816987.498    22816983.922       -3331.070
     -2595.640
 105700201.766 9  82363784.39748  20114071.430    20114066.829         -24.997
       -19.479
 110458792.712 9  86071775.76348  21019607.666    21019603.737        1776.525
      1384.306
 128508114.610 7 100136175.06945  24454280.581    24454275.631        2694.798
      2099.843
 112286770.610 9  87496176.16547  21367461.738    21367457.074        -561.665
      -437.662
 122734182.356 7  95637035.40547  23355539.402    23355538.080        3104.196
      2418.856
 112726901.079 9  87839145.02947  21451211.452    21451206.597        -743.238
      -579.147
 121722002.954 8  94848324.42246  23162916.977    23162915.501       -3053.658
     -2379.475
 16  9 14  0  7  0.0000000  0  8G05G13G15G18G20G24G28G30
 120004160.599 8  93509724.43547  22836028.168    22836024.608       -3339.296
     -2602.050
 105701169.680 9  82364538.61648  20114255.619    20114251.023         -39.537
       -30.809
 110405680.462 9  86030389.59748  21009500.729    21009496.811        1764.234
      1374.728
 128427411.525 7 100073289.55444  24438923.249    24438918.331        2685.483
      2092.583
 112303918.053 9  87509537.80347  21370724.782    21370720.104        -581.515
      -453.130
 122641143.157 7  95564537.35447  23337834.622    23337833.282        3098.528
      2414.438
 112749457.234 9  87856721.27647  21455503.735    21455498.878        -760.524
      -592.615
 121813667.502 8  94919751.31846  23180360.180    23180358.720       -3057.353
     -2382.352
 16  9 14  0  7 30.0000000  0  8G05G13G15G18G20G24G28G30
 120104468.790 8  93587886.63347  22855116.192    22855112.669       -3347.632
     -2608.545
 105702577.704 9  82365635.76348  20114523.571    20114518.983         -54.203
       -42.236
 110352943.034 9  85989295.49748  20999465.130    20999461.211        1751.739
      1364.991
 128346997.669 7 100010629.42544  24423620.951    24423616.055        2675.705
      2084.964
 112321667.613 9  87523368.61947  21374102.408    21374097.726        -601.721
      -468.874
 122548280.931 8  95492177.21746  23320163.516    23320162.150        3092.559
      2409.789
 112772536.627 9  87874705.22747  21459895.593    21459890.738        -777.953
      -606.197
 121905453.804 8  94991273.06447  23197826.570    23197825.121       -3061.527
     -2385.606
 16  9 14  0  8  0.0000000  0  8G05G13G15G18G20G24G28G30
 120205020.246 8  93666238.40148  22874250.500    22874247.016       -3355.838
     -2614.939
 105704423.700 9  82367074.19848  20114874.859    20114870.272         -68.937
       -53.718
 110300579.503 9  85948492.75248  20989500.685    20989496.750        1739.105
      1355.146
 128266872.070 7  99948193.90944  24408373.512    24408368.630        2666.118
      2077.496
 112340016.014 9  87537666.05547  21377593.996    21377589.320        -621.639
      -484.396
 122455593.296 7  95419953.10646  23302525.655    23302524.269        3086.633
      2405.167
 112796135.612 9  87893094.06047  21464386.316    21464381.464        -795.340
      -619.745
 121997357.690 8  95062886.44746  23215315.325    23215313.886       -3065.453
     -2388.667
 16  9 14  0  8 30.0000000  0  8G05G13G15G18G20G24G28G30
 120305816.322 8  93744780.78347  22893431.363    22893427.915       -3364.194
     -2621.450
 105706712.707 9  82368857.82948  20115310.450    20115305.863         -84.009
       -65.462
 110248595.494 9  85907985.73448  20979608.467    20979604.508        1726.262
      1345.140
 128187041.273 7  99885988.08644  24393182.197    24393177.320        2655.796
      2069.452
 112358966.513 9  87552432.66547  21381200.157    21381195.487        -641.908
      -500.188
 122363085.848 7  95347869.39946  23284922.081    23284920.664        3080.460
      2400.359
 112820257.281 9  87911890.17247  21468976.504    21468971.662        -813.029
      -633.529
 122089382.047 8  95134593.71246  23232826.999    23232825.560       -3069.534
     -2391.848
 16  9 14  0  9  0.0000000  0  8G05G13G15G18G20G24G28G30
 120406850.346 8  93823508.58247  22912657.514    22912654.096       -3371.800
     -2627.378
 105709441.085 9  82370983.82548  20115829.651    20115825.063         -98.235
       -76.547
 110196988.760 9  85867772.68648  20969788.052    20969784.066        1713.962
      1335.554
 128107503.387 7  99824010.51244  24378046.625    24378041.740        2646.357
      2062.091
 112378513.852 9  87567664.34447  21384919.904    21384915.238        -661.534
      -515.481
 122270755.119 7  95275923.40346  23267352.127    23267350.678        3074.767
      2395.923
 112844896.174 9  87931089.31447  21473665.117    21473660.294        -829.875
      -646.656
 122181521.422 8  95206390.60146  23250360.557    23250359.118       -3073.279
     -2394.764
 16  9 14  0  9 30.0000000  0  8G05G13G15G18G20G24G28G30
 120508120.747 8  93902420.56848  22931928.652    22931925.257       -3379.653
     -2633.496
 105712610.854 9  82373453.76548  20116432.847    20116428.255        -113.037
       -88.081
 110145762.178 9  85827855.87148  20960039.970    20960035.949        1701.181
      1325.596
 128028262.163 7  99762264.12844  24362967.506    24362962.589        2636.485
      2054.404
 112398659.007 9  87583361.85347  21388753.427    21388748.753        -681.438
      -530.993
 122178603.708 8  95204117.13346  23249816.290    23249814.815        3068.624
      2391.136
 112870052.793 9  87950691.88347  21478452.245    21478447.446        -847.148
      -660.115
 122273775.800 8  95278277.09347  23267916.003    23267914.568       -3077.169
     -2397.793
 16  9 14  0 10  0.0000000  0  8G05G13G15G18G20G24G28G30
 120609626.810 8  93981516.17948  22951244.645    22951241.276       -3387.458
     -2639.579
 105716224.350 9  82376269.46448  20117120.489    20117115.887        -128.108
       -99.825
 110094919.011 9  85788237.81048  20950364.853    20950360.806        1688.161
      1315.449
 127949321.643 7  99700752.01844  24347945.660    24347940.704        2626.205
      2046.391
 112419403.044 9  87599526.03347  21392700.911    21392696.219        -701.646
      -546.738
 122086634.161 7  95132452.57546  23232315.063    23232313.566        3062.568
      2386.418
 112895727.572 9  87970698.21047  21483337.974    21483333.202        -864.685
      -673.781
 122366145.742 8  95350253.64646  23285493.426    23285492.001       -3080.950
     -2400.740
 16  9 14  0 10 30.0000000  0  8G05G13G15G18G20G24G28G30
 120711362.573 8  94060790.77747  22970604.349    22970601.010       -3394.940
     -2645.408
 105720279.015 9  82379428.93748  20117892.083    20117887.466        -142.476
      -111.021
 110044457.315 9  85748917.01048  20940762.309    20940758.250        1675.763
      1305.789
 127870680.337 7  99639473.09544  24332980.744    24332975.720        2616.473
      2038.813
 112440741.481 8  87616153.37247  21396761.511    21396756.793        -721.125
      -561.917
 121994844.101 7  95060927.84846  23214848.023    23214846.498        3056.623
      2381.784
 112921916.218 9  87991104.95947  21488321.490    21488316.738        -881.446
      -686.841
 122458626.526 8  95422316.55146  23303091.950    23303090.544       -3084.247
     -2403.312
 16  9 14  0 11  0.0000000  0  8G05G13G15G18G20G24G28G30
 120813328.367 8  94140244.61448  22990007.829    22990004.522       -3403.033
     -2651.715
 105724778.250 9  82382934.83148  20118748.276    20118743.647        -157.679
      -122.866
 109994382.273 9  85709897.50648  20931233.329    20931229.277        1662.330
      1295.322
 127792343.654 8  99578431.52444  24318073.815    24318068.707        2605.748
      2030.456
 112462677.013 9  87633245.97947  21400935.726    21400930.982        -741.462
      -577.764
 121903237.398 7  94989546.01546  23197415.862    23197414.291        3050.280
      2376.843
 112948620.350 9  88011913.37847  21493403.115    21493398.378        -899.009
      -700.525
 122551220.017 8  95494467.29746  23320711.905    23320710.514       -3088.607
     -2406.709
 16  9 14  0 11 30.0000000  0  8G05G13G15G18G20G24G28G30
 120915521.429 8  94219875.54847  23009454.544    23009451.275       -3410.854
     -2657.810
 105729722.350 9  82386787.37048  20119689.123    20119684.483        -172.853
      -134.690
 109944695.059 9  85671180.19248  20921778.155    20921774.127        1649.241
      1285.123
 127714313.858 8  99517629.05944  24303225.314    24303220.127        2595.456
      2022.431
 112485207.849 8  87650802.47647  21405223.199    21405218.440        -761.522
      -593.394
 121811814.845 7  94918307.72146  23180018.690    23180017.090        3043.795
      2371.792
 112975839.075 9  88033122.78247  21498582.668    21498577.939        -916.366
      -714.052
 122643924.665 8  95566704.65746  23338353.013    23338351.638       -3092.377
     -2409.644
 16  9 14  0 12  0.0000000  0  8G05G13G15G18G20G24G28G30
 121017937.595 8  94299680.32947  23028943.701    23028940.482       -3417.974
     -2663.355
 105735110.840 9  82390986.18348  20120714.533    20120709.887        -187.404
      -146.028
 109895396.129 9  85632765.43348  20912396.877    20912392.874        1636.383
      1275.104
 127636591.668 8  99457066.32444  24288435.318    24288430.049        2585.215
      2014.454
 112508332.433 8  87668821.61247  21409623.670    21409618.911        -781.078
      -608.632
 121720575.849 7  94847212.43346  23162656.459    23162654.871        3037.738
      2367.071
 113003569.818 9  88054731.15347  21503859.662    21503854.940        -933.215
      -727.180
 122736738.006 8  95639026.70646  23356014.808    23356013.451       -3095.969
     -2412.443
 16  9 14  0 12 30.0000000  0  8G05G13G15G18G20G24G28G30
 121120575.122 8  94379657.60847  23048474.964    23048471.795       -3424.939
     -2668.785
 105740944.810 9  82395532.12548  20121824.711    20121820.056        -202.030
      -157.427
 109846487.579 9  85594654.86548  20903089.898    20903085.911        1623.694
      1265.216
 127559180.056 7  99396745.57144  24273704.435    24273699.109        2574.998
      2006.490
 112532049.821 9  87687302.66947  21414136.949    21414132.196        -800.525
      -623.788
 121629522.441 7  94776261.74847  23145329.553    23145327.987        3031.869
      2362.496
 113031811.422 9  88076737.60047  21509233.867    21509229.153        -949.921
      -740.198
 122829659.270 8  95711432.84846  23373697.151    23373695.806       -3099.355
     -2415.084
 16  9 14  0 13  0.0000000  0  8G05G13G15G18G20G24G28G30
 121223428.742 8  94459803.28647  23068047.336    23068044.207       -3432.147
     -2674.401
 105747222.685 9  82400423.97448  20123019.357    20123014.688        -216.778
      -168.918
 109797968.617 9  85556847.88748  20893857.051    20893853.068        1610.691
      1255.084
 127482078.811 8  99336666.66644  24259032.594    24259027.221        2564.574
      1998.369
 112556357.159 9  87706243.44847  21418762.472    21418757.729        -820.103
      -639.041
 121538652.975 7  94705454.40646  23128037.646    23128036.091        3025.828
      2357.790
 113060560.712 9  88099139.65047  21514704.679    21514699.970        -966.889
      -753.420
 122922684.959 8  95783920.36546  23391399.377    23391398.045       -3102.705
     -2417.693
 16  9 14  0 13 30.0000000  0  8G05G13G15G18G20G24G28G30
 121326499.092 8  94540117.83047  23087660.958    23087657.872       -3439.222
     -2679.913
 105753948.101 9  82405664.55648  20124299.170    20124294.488        -231.482
      -180.376
 109749843.948 9  85519348.14948  20884699.241    20884695.261        1597.715
      1244.973
 127405293.184 7  99276833.68844  24244420.806    24244415.396        2554.351
      1990.402
 112581256.405 8  87725645.44747  21423500.635    21423495.907        -839.612
      -654.244
 121447971.434 7  94634793.47346  23110781.519    23110779.975        3019.470
      2352.833
 113089819.409 9  88121938.63347  21520272.432    21520267.733        -983.608
      -766.448
 123015816.820 8  95856490.62246  23409121.815    23409120.488       -3105.994
     -2420.256
 16  9 14  0 14  0.0000000  0  8G05G13G15G18G20G24G28G30
 121429781.562 8  94620597.66947  23107314.943    23107311.902       -3446.529
     -2685.607
 105761119.929 9  82411252.99548  20125663.932    20125659.242        -246.913
      -192.398
 109702113.893 9  85482155.90948  20875616.520    20875612.542        1584.025
      1234.306
 127328823.763 7  99217247.11845  24229869.155    24229863.749        2543.396
      1981.867
 112606745.190 9  87745506.83247  21428350.982    21428346.266        -859.798
      -669.972
 121357477.177 8  94564278.47846  23093561.029    23093559.477        3013.060
      2347.840
 113119584.937 9  88145132.55947  21525936.618    21525931.933       -1000.964
      -779.971
 123109052.151 8  95929141.49046  23426863.967    23426862.644       -3109.965
     -2423.350
 16  9 14  0 14 30.0000000  0  8G05G13G15G18G20G24G28G30
 121533274.709 8  94701241.66547  23127009.034    23127006.034       -3453.092
     -2690.722
 105768739.425 9  82417190.25548  20127113.893    20127109.203        -261.329
      -203.633
 109654780.788 9  85445272.96948  20866609.344    20866605.366        1571.266
      1224.363
 127252673.646 7  99157909.35444  24215378.244    24215372.890        2533.016
      1973.780
 112632823.511 9  87765827.58947  21433313.518    21433308.812        -879.029
      -684.958
 121267172.469 8  94493911.19247  23076376.603    23076375.039        3007.190
      2343.267
 113149856.744 9  88168720.98247  21531697.145    21531692.481       -1017.319
      -792.716
 123202390.627 8  96001872.74046  23444625.748    23444624.418       -3112.778
     -2425.542
 16  9 14  0 15  0.0000000  0  8G05G13G15G18G20G24G28G30
 121636973.256 8  94782045.72647  23146742.210    23146739.235       -3460.097
     -2696.179
 105776804.862 9  82423475.00048  20128648.709    20128644.026        -276.320
      -215.314
 109607843.783 9  85408698.67248  20857677.547    20857673.567        1557.847
      1213.907
 127176842.759 7  99098820.32645  24200948.084    24200942.788        2522.312
      1965.435
 112659488.036 9  87786605.11547  21438387.618    21438382.918        -898.572
      -700.187
 121177055.345 8  94423690.07547  23059227.863    23059226.306        3000.763
      2338.257
 113180631.170 9  88192701.06147  21537553.310    21537548.669       -1034.332
      -805.973
 123295828.542 8  96074681.46046  23462406.455    23462405.130       -3116.243
     -2428.242
 16  9 14  0 15 30.0000000  0  8G05G13G15G18G20G24G28G30
 121740876.288 8  94863009.11547  23166514.318    23166511.352       -3467.249
     -2701.754
 105785318.363 9  82430108.89148  20130268.777    20130264.111        -291.655
      -227.265
 109561305.864 9  85372435.35548  20848821.684    20848817.702        1544.171
      1203.250
 127101334.460 7  99039982.71145  24186579.273    24186574.026        2510.969
      1956.598
 112686738.488 9  87807839.22147  21443573.217    21443568.494        -918.558
      -715.760
 121087128.364 8  94353617.08847  23042115.324    23042113.777        2993.925
      2332.927
 113211908.377 9  88217072.91847  21543505.152    21543500.529       -1051.364
      -819.244
 123389366.127 8  96147567.87346  23480206.103    23480204.761       -3119.999
     -2431.171
 16  9 14  0 16  0.0000000  0  8G05G13G15G18G20G24G28G30
 121844981.376 8  94944129.94447  23186324.890    23186321.924       -3473.412
     -2706.557
 105794280.782 9  82437092.59048  20131974.263    20131969.615        -306.225
      -238.617
 109515169.073 9  85336484.61448  20840042.135    20840038.158        1531.144
      1193.099
 127026152.066 7  98981399.02944  24172272.487    24172267.324        2500.527
      1948.461
 112714574.679 8  87829529.75147  21448870.279    21448865.514        -937.586
      -730.586
 120997392.669 7  94283693.18247  23025039.161    23025037.612        2987.915
      2328.244
 113243687.518 9  88241835.88947  21549552.517    21549547.904       -1067.631
      -831.920
 123483002.763 8  96220531.44946  23498024.605    23498023.257       -3122.764
     -2433.325
 16  9 14  0 16 30.0000000  0  8G05G13G15G18G20G24G28G30
 121949286.354 8  95025406.53247  23206173.502    23206170.540       -3480.405
     -2712.005
 105803692.910 9  82444426.70848  20133765.328    20133760.695        -321.587
      -250.587
 109469435.301 9  85300847.90648  20831339.275    20831335.315        1517.378
      1182.373
 126951297.215 7  98923070.58645  24158028.025    24158022.955        2489.337
      1939.744
 112742995.668 8  87851675.95647  21454278.635    21454273.827        -957.461
      -746.074
 120907849.453 7  94213919.26847  23007999.628    23007998.078        2981.256
      2323.058
 113275967.640 9  88266989.23347  21555695.216    21555690.611       -1084.615
      -845.153
 123576737.317 8  96293571.33246  23515861.722    23515860.357       -3126.467
     -2436.210
 16  9 14  0 17  0.0000000  0  8G05G13G15G18G20G24G28G30
 122053786.142 8  95106834.89847  23226059.200    23226056.256       -3486.522
     -2716.772
 105813553.364 9  82452110.17648  20135641.705    20135637.076        -336.144
      -261.930
 109424104.038 9  85265524.84448  20822713.010    20822709.071        1504.297
      1172.179
 126876770.420 7  98864997.78045  24143845.982    24143841.013        2478.663
      1931.428
 112771998.269 8  87874275.36947  21459797.662    21459792.817        -976.401
      -760.833
 120818497.803 7  94144294.63347  22990996.560    22990995.016        2975.078
      2318.244
 113308745.393 9  88292530.34447  21561932.607    21561928.007       -1100.906
      -857.849
 123670566.674 7  96366685.08446  23533716.867    23533715.499       -3129.131
     -2438.285
 16  9 14  0 17 30.0000000  0  8G05G13G15G18G20G24G28G30
 122158481.468 8  95188415.65247  23245982.089    23245979.161       -3492.801
     -2721.663
 105823865.856 9  82460145.88548  20137604.100    20137599.473        -351.061
      -273.554
 109379180.300 9  85230519.33948  20814164.300    20814160.376        1490.836
      1161.690
 126802577.449 7  98807185.09545  24129727.472    24129722.589        2467.668
      1922.860
 112801584.857 8  87897329.84347  21465427.801    21465422.932        -995.832
      -775.973
 120729342.041 7  94074822.63547  22974030.775    22974029.243        2968.693
      2313.269
 113342022.435 9  88318460.51247  21568265.004    21568260.411       -1117.379
      -870.685
 123764493.029 8  96439874.43346  23551590.443    23551589.075       -3132.181
     -2440.661
 16  9 14  0 18  0.0000000  0  8G05G13G15G18G20G24G28G30
 122263366.857 8  95270144.50147  23265941.152    23265938.238       -3499.119
     -2726.586
 105834627.988 9  82468531.95548  20139652.064    20139647.438        -366.056
      -285.237
 109334662.696 9  85195830.28848  20805692.895    20805688.980        1477.279
      1151.128
 126728717.176 7  98749631.66345  24115672.279    24115667.462        2456.900
      1914.469
 112831751.315 8  87920836.16247  21471168.277    21471163.400       -1015.079
      -790.970
 120640380.289 7  94005501.80547  22957101.908    22957100.394        2962.387
      2308.354
 113375794.837 9  88344776.67647  21574691.665    21574687.074       -1133.680
      -883.386
 123858512.195 8  96513136.08146  23569481.693    23569480.344       -3135.293
     -2443.086
 16  9 14  0 18 30.0000000  0  8G05G13G15G18G20G24G28G30
 122368439.450 8  95352019.21747  23285935.834    23285932.938       -3505.605
     -2731.642
 105845839.716 9  82477268.36148  20141785.587    20141780.957        -381.298
      -297.116
 109290552.283 9  85161458.54048  20797298.975    20797295.060        1463.460
      1140.358
 126655191.537 7  98692338.95945  24101680.802    24101676.041        2445.025
      1905.215
 112862495.947 8  87944793.00447  21477018.771    21477013.902       -1034.596
      -806.178
 120551612.821 7  93936332.37547  22940209.986    22940208.497        2955.625
      2303.086
 113410060.572 9  88371477.25547  21581212.205    21581207.612       -1150.484
      -896.481
 123952622.552 8  96586468.80846  23587390.277    23587388.945       -3138.578
     -2445.646
 16  9 14  0 19  0.0000000  0  8G05G13G15G18G20G24G28G30
 122473697.216 8  95434038.23447  23305965.744    23305962.862       -3511.520
     -2736.249
 105857502.949 9  82486356.58448  20144005.035    20144000.398        -395.981
      -308.557
 109246852.078 9  85127406.43048  20788983.118    20788979.203        1450.131
      1129.973
 126582003.827 7  98635309.59145  24087753.633    24087748.912        2434.266
      1896.829
 112893818.678 8  87969200.31446  21482979.265    21482974.414       -1053.393
      -820.825
 120463041.965 7  93867316.14447  22923355.463    22923354.018        2949.364
      2298.206
 113444819.513 9  88398562.15247  21587826.599    21587822.001       -1166.514
      -908.972
 124046824.163 8  96659872.59746  23605316.268    23605314.965       -3141.235
     -2447.717
 16  9 14  0 19 30.0000000  0  8G05G13G15G18G20G24G28G30
 122579135.719 8  95516198.08847  23326030.045    23326027.170       -3517.510
     -2740.917
 105869615.969 9  82495795.28848  20146310.079    20146305.436        -411.115
      -320.349
 109203561.426 9  85093673.45148  20780745.196    20780741.281        1436.222
      1119.134
 126509154.469 7  98578543.88846  24073890.849    24073886.148        2423.101
      1888.133
 112925716.202 8  87994055.51147  21489049.138    21489044.313       -1072.661
      -835.840
 120374666.399 7  93798452.09147  22906538.100    22906536.701        2942.677
      2292.996
 113480068.120 9  88426028.60547  21594534.180    21594529.572       -1182.979
      -921.801
 124141113.869 8  96733345.08146  23623259.007    23623257.710       -3144.225
     -2450.045
 16  9 14  0 20  0.0000000  0  8G05G13G15G18G20G24G28G30
 122684752.815 8  95598497.10347  23346128.336    23346125.461       -3523.184
     -2745.339
 105882178.977 9  82505584.63548  20148700.750    20148696.104        -425.921
      -331.887
 109160682.147 9  85060261.01948  20772585.554    20772581.641        1422.767
      1108.648
 126436645.471 7  98522043.37245  24060092.859    24060088.168        2411.896
      1879.399
 112958187.841 8  88019358.07546  21495228.256    21495223.466       -1091.519
      -850.535
 120286487.380 7  93729741.16246  22889758.168    22889756.804        2936.334
      2288.052
 113515805.217 9  88453875.69447  21601334.729    21601330.101       -1199.057
      -934.330
 124235490.725 8  96806885.45746  23641218.359    23641217.073       -3147.045
     -2452.242
 16  9 14  0 20 30.0000000  0  8G05G13G15G18G20G24G28G30
 122790549.152 8  95680935.78247  23366260.736    23366257.859       -3529.465
     -2750.234
 105895196.517 9  82515728.17548  20151177.907    20151173.252        -441.453
      -343.990
 109118219.248 9  85027173.04648  20764505.138    20764501.227        1408.521
      1097.549
 126364482.160 7  98465812.22345  24046360.652    24046355.966        2399.604
      1869.821
 112991235.553 8  88045109.53547  21501516.993    21501512.241       -1111.167
      -865.845
 120198509.413 8  93661186.91546  22873016.497    22873015.130        2929.309
      2282.578
 113552033.014 9  88482105.15447  21608228.653    21608223.997       -1215.749
      -947.338
 124329957.008 8  96880495.51746  23659194.752    23659193.461       -3150.427
     -2454.880
 16  9 14  0 21  0.0000000  0  8G05G13G15G18G20G24G28G30
 122896519.953 8  95763510.43246  23386426.321    23386423.424       -3535.199
     -2754.700
 105908667.380 9  82526224.95148  20153741.330    20153736.659        -456.574
      -355.771
 109076172.249 9  84994409.15448  20756503.856    20756499.947        1394.520
      1086.639
 126292665.106 8  98409850.89045  24032694.322    24032689.654        2388.214
      1860.945
 113024855.996 8  88071307.28247  21507914.724    21507910.007       -1130.247
      -880.712
 120110731.562 8  93592788.59646  22856312.928    22856311.535        2922.502
      2277.275
 113588748.305 9  88510714.48447  21615215.344    21615210.655       -1231.966
      -959.972
 124424509.758 8  96954172.94846  23677187.612    23677186.317       -3153.246
     -2457.073
 16  9 14  0 21 30.0000000  0  8G05G13G15G18G20G24G28G30
 123002663.130 8  95846219.38746  23406624.726    23406621.789       -3541.003
     -2759.223
 105922591.685 9  82537075.04448  20156391.052    20156386.363        -471.740
      -367.590
 109034543.219 9  84961970.94148  20748582.115    20748578.207        1380.658
      1075.837
 126221196.729 8  98354161.23345  24019094.363    24019089.721        2376.544
      1851.851
 113059048.294 8  88097950.61347  21514421.301    21514416.622       -1149.092
      -895.396
 120023154.289 8  93524546.55947  22839647.542    22839646.139        2915.902
      2272.132
 113625949.718 9  88539702.59647  21622294.550    21622289.835       -1248.070
      -972.522
 124519148.104 8  97027917.07145  23695196.765    23695195.459       -3156.077
     -2459.281
 16  9 14  0 22  0.0000000  0  9G05G13G15G17G18G20G24G28G30
 123108977.062 8  95929061.41446  23426855.605    23426852.610       -3546.499
     -2763.505
 105936971.343 9  82548279.96948  20159127.417    20159122.708        -486.793
      -379.318
 108993335.186 9  84929860.78348  20740740.483    20740736.563        1366.720
      1064.977
 130620873.114 7 101782479.69845  24856324.352    24856320.284        2858.527
      2227.426
 126150080.617 8  98298746.10445  24005561.412    24005556.800        2364.820
      1842.719
 113093812.582 8  88125039.66947  21521036.719    21521032.075       -1168.165
      -910.259
 119935780.738 8  93456463.31947  22823020.873    22823019.488        2909.252
      2266.951
 113663636.977 9  88569069.29447  21629466.203    21629461.463       -1264.227
      -985.111
 124613872.268 8  97101728.06245  23713222.243    23713220.938       -3158.808
     -2461.411
 16  9 14  0 22 30.0000000  0  9G05G13G15G17G18G20G24G28G30
 123215456.162 8  96012032.14546  23447117.908    23447114.846       -3551.277
     -2767.229
 105951803.565 9  82559837.54248  20161949.899    20161945.178        -501.245
      -390.580
 108952545.810 9  84898076.85548  20732978.525    20732974.572        1353.227
      1054.463
 130535175.969 7 101715702.73145  24840016.298    24840012.694        2855.269
      2224.891
 126079315.903 8  98243604.77445  23992095.346    23992090.761        2353.730
      1834.078
 113129144.224 8  88152570.80847  21527760.109    21527755.506       -1186.538
      -924.574
 119848608.465 8  93388536.90147  22806432.514    22806431.176        2903.154
      2262.199
 113701805.608 9  88598811.09247  21636729.446    21636724.687       -1279.646
      -997.126
 124708677.982 8  97175602.63045  23731263.191    23731261.884       -3160.797
     -2462.958
 16  9 14  0 23  0.0000000  0  9G05G13G15G17G18G20G24G28G30
 123322095.593 8  96095127.78746  23467410.730    23467407.624       -3557.434
     -2772.027
 105967086.632 9  82571746.41848  20164858.176    20164853.456        -517.051
      -402.896
 108912175.036 9  84866619.10848  20725296.233    20725292.234        1338.583
      1043.051
 130449599.327 8 101649019.63945  24823731.716    24823728.273        2850.436
      2221.119
 126008902.340 8  98188737.05345  23978696.118    23978691.534        2341.062
      1824.204
 113165039.314 8  88180540.99247  21534590.713    21534586.164       -1205.984
      -939.729
 119761635.886 8  93320766.08947  22789882.150    22789880.867        2895.652
      2256.354
 113740451.594 9  88628924.85547  21644083.522    21644078.753       -1296.198
     -1010.024
 124803561.872 7  97249538.06646  23749319.031    23749317.746       -3164.414
     -2465.780
 16  9 14  0 23 30.0000000  0  9G05G13G15G17G18G20G24G28G30
 123428898.471 7  96178350.79147  23487734.636    23487731.519       -3562.325
     -2775.838
 105982826.467 9  82584011.22048  20167853.370    20167848.652        -531.754
      -414.354
 108872230.331 9  84835493.37748  20717695.013    20717690.969        1324.902
      1032.393
 130364152.311 8 101582437.56545  24807471.827    24807468.323        2846.517
      2218.064
 125938847.727 8  98134149.05345  23965365.186    23965360.580        2329.649
      1815.313
 113201503.096 8  88208954.31647  21541529.529    21541525.032       -1224.391
      -954.070
 119674870.284 8  93253156.54347  22773371.180    22773369.947        2889.364
      2251.454
 113779579.884 9  88659414.44047  21651529.377    21651524.602       -1311.760
     -1022.149
 124898528.837 7  97323538.28246  23767390.622    23767389.362       -3166.299
     -2467.247
 16  9 14  0 24  0.0000000  0  9G05G13G15G17G18G20G24G28G30
 123535859.303 7  96261696.84747  23508088.612    23508085.506       -3568.008
     -2780.267
 105999021.073 9  82596630.37548  20170935.117    20170930.400        -547.386
      -426.535
 108832709.735 9  84804698.09848  20710174.511    20710170.441        1310.175
      1020.915
 130278834.790 8 101515956.39845  24791236.504    24791232.966        2841.692
      2214.303
 125869151.393 8  98079840.21544  23952102.441    23952097.816        2317.223
      1805.629
 113238530.620 8  88237806.91647  21548575.626    21548571.172       -1243.644
      -969.073
 119588309.200 8  93185706.37547  22756899.114    22756897.924        2881.982
      2245.701
 113819185.651 9  88690276.07947  21659066.099    21659061.315       -1328.116
     -1034.895
 124993574.751 8  97397599.99245  23785477.249    23785476.022       -3169.466
     -2469.714
 16  9 14  0 24 30.0000000  0  9G05G13G15G17G18G20G24G28G30
 123642975.368 8  96345163.88247  23528472.103    23528469.019       -3573.032
     -2784.182
 106015670.817 9  82609604.20848  20174103.456    20174098.728        -562.383
      -438.221
 108793615.369 9  84774234.96248  20702735.101    20702731.018        1296.245
      1010.062
 130193649.939 8 101449578.60945  24775026.436    24775022.793        2837.434
      2210.987
 125799815.813 8  98025812.48945  23938908.334    23938903.678        2305.189
      1796.252
 113276120.601 8  88267097.80447  21555728.759    21555724.324       -1262.272
      -983.589
 119501953.739 8  93118416.42947  22740466.174    22740465.028        2875.177
      2240.397
 113859267.607 9  88721508.77647  21666693.434    21666688.636       -1343.903
     -1047.197
 125088698.712 8  97471722.52845  23803578.736    23803577.528       -3171.999
     -2471.690
 16  9 14  0 25  0.0000000  0  9G05G13G15G17G18G20G24G28G30
 123750241.588 8  96428747.93347  23548884.156    23548881.102       -3577.868
     -2787.950
 106032773.359 9  82622930.85148  20177357.973    20177353.233        -577.550
      -450.038
 108754945.854 9  84744102.86248  20695376.545    20695372.460        1281.986
       998.950
 130108598.336 8 101383304.69445  24758841.672    24758837.945        2832.643
      2207.255
 125730840.086 8  97972065.15244  23925782.710    23925778.029        2293.616
      1787.234
 113314268.990 8  88296823.79847  21562988.181    21562983.753       -1280.807
      -998.031
 119415802.122 8  93051285.29847  22724072.055    22724070.931        2868.375
      2235.098
 113899821.498 9  88753109.21347  21674410.572    21674405.771       -1359.539
     -1059.380
 125183896.938 8  97545902.94345  23821694.360    23821693.133       -3174.225
     -2473.422
 16  9 14  0 25 30.0000000  0  9G05G13G15G17G18G20G24G28G30
 123857660.257 8  96512450.77347  23569325.226    23569322.201       -3582.947
     -2791.908
 106050333.974 9  82636614.44048  20180699.655    20180694.903        -592.837
      -461.951
 108716707.869 9  84714307.01848  20688100.101    20688096.020        1267.567
       987.714
 130023687.885 7 101317140.66845  24742683.804    24742680.074        2827.840
      2203.509
 125662231.567 8  97918603.94244  23912726.963    23912722.258        2280.882
      1777.306
 113352979.399 8  88326987.73947  21570354.554    21570350.116       -1299.616
     -1012.688
 119329860.639 8  92984317.92547  22707717.913    22707716.788        2861.276
      2229.567
 113940850.947 9  88785080.21847  21682218.199    21682213.411       -1375.428
     -1071.762
 125279173.513 7  97620144.40245  23839824.924    23839823.659       -3176.926
     -2475.528
 16  9 14  0 26  0.0000000  0  9G05G13G15G17G18G20G24G28G30
 123965225.441 8  96596267.79447  23589794.168    23589791.167       -3587.889
     -2795.757
 106068350.254 9  82650653.10548  20184128.033    20184123.271        -608.212
      -473.931
 108678899.721 9  84684846.12748  20680905.433    20680901.359        1253.043
       976.397
 129938918.456 7 101251086.61646  24726552.672    24726548.967        2823.228
      2199.917
 125593989.188 7  97865428.06444  23899740.871    23899736.110        2268.692
      1767.812
 113392247.213 8  88357586.02847  21577826.994    21577822.534       -1318.196
     -1027.166
 119244126.971 7  92917512.49447  22691403.303    22691402.184        2854.419
      2224.225
 113982351.202 9  88817418.09047  21690115.413    21690110.650       -1391.158
     -1084.019
 125374524.130 7  97694443.58045  23857969.567    23857968.244       -3179.645
     -2477.645
 16  9 14  0 26 30.0000000  0  9G05G13G15G17G18G20G24G28G30
 124072935.129 8  96680197.40247  23610290.625    23610287.649       -3592.396
     -2799.271
 106086822.269 9  82665046.87148  20187643.146    20187638.382        -623.165
      -485.582
 108641523.007 9  84655721.41848  20673792.866    20673788.799        1238.879
       965.361
 129854293.417 7 101185145.04045  24710449.040    24710445.375        2818.500
      2196.235
 125526115.087 7  97812539.13044  23886824.872    23886820.051        2256.540
      1758.342
 113432071.217 8  88388617.69347  21585405.278    21585400.816       -1336.630
     -1041.529
 119158601.768 7  92850869.49747  22675128.363    22675127.265        2847.375
      2218.735
 114024320.761 9  88850121.64247  21698101.942    21698097.200       -1406.543
     -1096.008
 125469947.938 7  97768799.73745  23876128.180    23876126.831       -3181.923
     -2479.420
 16  9 14  0 27  0.0000000  0  9G05G13G15G17G18G20G24G28G30
 124180785.864 8  96764236.91147  23630813.945    23630810.987       -3597.388
     -2803.161
 106105750.454 9  82679796.09848  20191245.061    20191240.300        -638.641
      -497.642
 108604579.238 9  84626934.06548  20666762.693    20666758.627        1224.251
       953.963
 129769815.545 8 101119318.12846  24694373.400    24694369.765        2813.345
      2192.216
 125458611.521 7  97759938.96344  23873979.361    23873974.469        2243.765
      1748.390
 113472449.703 8  88420081.41847  21593089.077    21593084.623       -1355.223
     -1056.019
 119073286.585 8  92784390.16447  22658893.377    22658892.310        2840.400
      2213.301
 114066757.934 9  88883189.56747  21706177.459    21706172.726       -1422.375
     -1108.343
 125565443.822 7  97843212.08346  23894300.486    23894299.123       -3184.513
     -2481.438
 16  9 14  0 27 30.0000000  0  9G05G13G15G17G18G20G24G28G30
 124288778.067 8  96848386.66447  23651364.188    23651361.244       -3602.000
     -2806.753
 106125137.339 9  82694902.75148  20194934.265    20194929.510        -653.868
      -509.508
 108568072.186 9  84598487.01848  20659815.628    20659811.551        1209.579
       942.530
 129685490.167 7 101053610.06845  24678326.760    24678323.155        2808.153
      2188.175
 125391482.836 7  97707630.86245  23861205.221    23861200.280        2231.357
      1738.719
 113513383.038 8  88451977.52047  21600878.443    21600873.984       -1373.596
     -1070.334
 118988184.323 7  92718076.72447  22642698.925    22642697.893        2833.285
      2207.757
 114109663.157 9  88916622.21247  21714342.040    21714337.310       -1437.959
     -1120.486
 125661012.990 7  97917681.49145  23912486.744    23912485.418       -3186.790
     -2483.211
 16  9 14  0 28  0.0000000  0  9G05G13G15G17G18G20G24G28G30
 124396905.727 8  96932641.94447  23671940.239    23671937.306       -3606.710
     -2810.426
 106144980.027 9  82710364.57448  20198710.208    20198705.464        -669.210
      -521.463
 108531999.978 9  84570378.80448  20652951.321    20652947.224        1195.019
       931.184
 129601316.774 7 100988020.42646  24662309.048    24662305.476        2803.093
      2184.233
 125324727.469 7  97655613.70545  23848502.082    23848497.101        2218.576
      1728.761
 113554866.824 8  88484302.54047  21608772.568    21608768.100       -1392.077
     -1084.735
 118903292.578 8  92651927.34247  22626544.518    22626543.519        2826.144
      2202.190
 114153032.135 9  88950416.22747  21722594.871    21722590.149       -1453.530
     -1132.620
 125756651.223 7  97992204.74645  23930686.109    23930684.819       -3189.088
     -2485.003
 16  9 14  0 28 30.0000000  0  9G05G13G15G17G18G20G24G28G30
 124505165.464 8  97017000.15647  23692541.427    23692538.488       -3610.910
     -2813.698
 106165278.269 9  82726181.37148  20202572.844    20202568.112        -684.399
      -533.299
 108496363.234 9  84542609.91248  20646169.882    20646165.761        1180.488
       919.861
 129517298.526 8 100922551.66745  24646320.868    24646317.349        2797.987
      2180.252
 125258346.946 7  97603888.61645  23835870.289    23835865.284        2206.218
      1719.132
 113596898.699 8  88517054.63247  21616771.002    21616766.528       -1410.309
     -1098.941
 118818611.470 8  92585942.08847  22610430.202    22610429.238        2819.028
      2196.646
 114196862.383 9  88984569.66847  21730935.484    21730930.782       -1468.785
     -1144.507
 125852356.717 8  98066780.40745  23948898.268    23948897.018       -3191.323
     -2486.745
 16  9 14  0 29  0.0000000  0  9G05G13G15G17G18G20G24G28G30
 124613555.936 8  97101460.23647  23713167.497    23713164.549       -3615.146
     -2816.996
 106186034.064 9  82742354.71448  20206522.543    20206517.821        -699.453
      -545.028
 108461165.469 9  84515183.08248  20639471.979    20639467.839        1166.012
       908.581
 129433439.600 7 100857207.06045  24630363.007    24630359.523        2792.719
      2176.145
 125192345.303 7  97552458.76745  23823310.588    23823305.554        2193.724
      1709.394
 113639478.481 8  88550233.66447  21624873.689    21624869.220       -1428.428
     -1113.062
 118734143.943 7  92520123.27547  22594356.519    22594355.588        2811.867
      2191.067
 114241154.200 9  89019082.78247  21739363.925    21739359.237       -1483.991
     -1156.356
 125948130.387 7  98141409.18445  23967123.415    23967122.185       -3193.453
     -2488.407
 16  9 14  0 29 30.0000000  0  9G05G13G15G17G18G20G24G28G30
 124722074.260 7  97186019.94047  23733817.897    23733814.935       -3619.460
     -2820.360
 106207247.029 9  82758884.29748  20210559.236    20210554.519        -714.759
      -556.955
 108426407.516 9  84488098.95948  20632857.769    20632853.624        1151.203
       897.041
 129349742.693 8 100791988.68845  24614435.987    24614432.543        2787.119
      2171.778
 125126723.847 7  97501325.16446  23810823.245    23810818.172        2180.966
      1699.453
 113682604.263 8  88583838.14447  21633080.269    21633075.821       -1446.742
     -1127.333
 118649890.109 7  92454470.96347  22578323.509    22578322.618        2804.739
      2185.512
 114285905.165 9  89053953.66047  21747879.748    21747875.072       -1499.400
     -1168.365
 126043970.445 7  98216089.70945  23985361.194    23985359.964       -3195.791
     -2490.229
 16  9 14  0 30  0.0000000  0  9G05G13G15G17G18G20G24G28G30
 124830717.470 7  97270676.97546  23754492.052    23754489.065       -3623.395
     -2823.427
 106228916.859 9  82775769.87348  20214682.874    20214678.155        -729.900
      -568.753
 108392090.408 9  84461358.35948  20626327.434    20626323.302        1136.659
       885.709
 129266210.451 8 100726898.65045  24598540.293    24598536.881        2781.570
      2167.458
 125061484.352 8  97450489.22145  23798408.562    23798403.466        2168.356
      1689.630
 113726273.999 8  88617866.49547  21641390.349    21641385.925       -1464.565
     -1141.221
 118565850.570 8  92388985.62947  22562331.283    22562330.426        2798.181
      2180.400
 114331112.856 9  89089180.44047  21756482.473    21756477.803       -1514.468
     -1180.104
 126139875.478 8  98290820.85045  24003611.367    24003610.129       -3197.972
     -2491.928
 16  9 14  0 30 30.0000000  0  9G05G13G15G17G18G20G24G28G30
 124939485.393 7  97355431.19446  23775189.922    23775186.913       -3627.360
     -2826.515
 106251046.518 9  82793013.75448  20218894.017    20218889.288        -745.115
      -580.609
 108358217.947 9  84434964.23448  20619881.709    20619877.604        1121.951
       874.248
 129182848.279 7 100661941.14646  24582676.956    24582673.581        2775.986
      2163.107
 124996631.187 8  97399954.27345  23786067.429    23786062.327        2155.614
      1679.697
 113770488.367 8  88652319.24147  21649804.074    21649799.673       -1482.730
     -1155.375
 118482028.616 8  92323669.83747  22546380.465    22546379.634        2790.755
      2174.613
 114376778.626 9  89124764.16047  21765172.373    21765167.708       -1529.555
     -1191.861
 126235846.985 7  98365603.79746  24021874.201    24021872.945       -3199.878
     -2493.414
 16  9 14  0 31  0.0000000  0  9G05G13G15G17G18G20G24G28G30
 125048371.105 7  97440277.18146  23795910.204    23795907.190       -3631.668
     -2829.874
 106273632.090 9  82810612.89148  20223191.922    20223187.181        -760.737
      -592.782
 108324787.497 9  84408914.52948  20613520.097    20613516.021        1106.622
       862.303
 129099654.711 8 100597114.99246  24566845.736    24566842.402        2770.089
      2158.514
 124932162.162 8  97349718.67346  23773799.385    23773794.258        2142.347
      1669.359
 113815241.582 8  88687191.85747  21658320.358    21658315.976       -1501.087
     -1169.679
 118398420.970 8  92258521.04647  22530470.429    22530469.611        2783.212
      2168.738
 114422896.252 9  89160699.97147  21773948.268    21773943.608       -1545.040
     -1203.928
 126331879.925 7  98440434.61545  24040148.731    24040147.478       -3202.394
     -2495.371
 16  9 14  0 31 30.0000000  0  9G05G13G15G17G18G20G24G28G30
 125157376.905 8  97525216.75746  23816653.312    23816650.306       -3635.331
     -2832.728
 106296678.366 9  82828571.02048  20227577.496    20227572.750        -775.800
      -604.520
 108291805.006 9  84383213.88648  20607243.731    20607239.672        1092.053
       850.950
 129016637.492 7 100532426.25846  24551048.082    24551044.783        2764.405
      2154.083
 124868083.747 8  97299787.45545  23761605.666    23761600.515        2129.477
      1659.332
 113860536.698 8  88722486.73947  21666939.765    21666935.398       -1518.730
     -1183.427
 118315033.671 8  92193543.93647  22514602.346    22514601.531        2776.043
      2163.150
 114469468.825 9  89196990.29447  21782810.734    21782806.074       -1559.857
     -1215.474
 126427977.944 7  98515316.11946  24058435.646    24058434.415       -3204.410
     -2496.947
 16  9 14  0 32  0.0000000  0  9G05G13G15G17G18G20G24G28G30
 125266496.284 8  97610244.83746  23837418.018    23837415.038       -3639.183
     -2835.727
 106320182.009 9  82846885.53748  20232050.103    20232045.364        -791.079
      -616.425
 108259268.398 9  84357860.68348  20601052.223    20601048.165        1077.142
       839.332
 128933796.659 8 100467874.98545  24535283.981    24535280.712        2758.481
      2149.467
 124804394.769 8  97250159.68045  23749486.074    23749480.892        2116.421
      1649.160
 113906367.791 8  88758199.27247  21675661.157    21675656.795       -1536.673
     -1197.407
 118231863.575 8  92128736.08647  22498775.598    22498774.770        2768.664
      2157.401
 114516491.082 9  89233631.02447  21791758.774    21791754.103       -1574.847
     -1227.152
 126524136.147 7  98590244.53746  24076733.980    24076732.790       -3206.112
     -2498.272
 16  9 14  0 32 30.0000000  0  9G05G13G15G17G18G20G24G28G30
 125375727.998 8  97695360.44447  23858204.096    23858201.155       -3642.566
     -2838.363
 106344144.584 9  82865557.65348  20236610.051    20236605.325        -806.369
      -628.340
 108227180.324 9  84332856.98948  20594946.070    20594942.005        1062.204
       827.691
 128851136.023 7 100403464.09045  24519554.199    24519550.955        2752.404
      2144.730
 124741098.319 8  97200837.77745  23737441.179    23737435.969        2103.377
      1638.995
 113952734.821 8  88794329.40147  21684484.536    21684480.189       -1554.394
     -1211.217
 118148912.882 8  92064099.20547  22482990.598    22482989.748        2761.452
      2151.783
 114563962.642 9  89270621.85447  21800792.319    21800787.638       -1589.802
     -1238.806
 126620355.118 7  98665220.31245  24095043.845    24095042.702       -3208.365
     -2500.028
 16  9 14  0 33  0.0000000  0  9G05G13G15G17G18G20G24G28G30
 125485067.450 8  97780560.00947  23879010.669    23879007.772       -3646.242
     -2841.229
 106368564.022 9  82884585.77248  20241256.930    20241252.214        -821.467
      -640.104
 108195540.121 9  84308202.29348  20588925.137    20588921.066        1047.285
       816.066
 128768656.801 8 100339194.60845  24503858.895    24503855.668        2746.390
      2140.045
 124678194.309 8  97151821.67445  23725470.970    23725465.738        2090.357
      1628.851
 113999633.939 8  88830874.14647  21693409.158    21693404.830       -1571.964
     -1224.907
 118066180.126 8  91999632.14547  22467247.070    22467246.197        2754.194
      2146.126
 114611879.564 9  89307959.71747  21809910.613    21809905.931       -1604.492
     -1250.254
 126716631.690 7  98740240.94645  24113364.681    24113363.599       -3210.098
     -2501.379
 16  9 14  0 33 30.0000000  0  9G05G13G15G17G18G20G24G28G30
 125594513.625 8  97865842.73247  23899837.556    23899834.703       -3649.693
     -2843.918
 106393442.647 9  82903971.70248  20245991.183    20245986.470        -836.718
      -651.988
 108164351.044 9  84283899.12148  20582990.050    20582985.980        1032.293
       804.384
 128686363.881 7 100275070.27346  24488199.053    24488195.864        2740.222
      2135.240
 124615686.966 8  97103114.65345  23713576.248    23713570.992        2077.101
      1618.519
 114047065.233 8  88867833.59247  21702435.041    21702430.712       -1589.765
     -1238.777
 117983668.902 8  91935337.71247  22451545.693    22451544.802        2746.850
      2140.403
 114660242.123 9  89345644.83447  21819113.707    21819109.028       -1619.301
     -1261.793
 126812966.898 7  98815307.34446  24131696.617    24131695.565       -3211.777
     -2502.682
 16  9 14  0 34  0.0000000  0  9G05G13G15G17G18G20G24G28G30
 125704062.475 7  97951205.44147  23920684.001    23920681.191       -3653.091
     -2846.564
 106418779.039 9  82923714.33448  20250812.537    20250807.826        -852.178
      -664.034
 108133613.022 9  84259947.40948  20577140.801    20577136.740        1017.148
       792.583
 128604258.857 8 100211092.34946  24472574.954    24472571.817        2733.681
      2130.141
 124553576.532 8  97054716.90445  23701757.063    23701751.776        2063.663
      1608.049
 114095025.177 8  88905204.95947  21711561.542    21711557.197       -1607.329
     -1252.464
 117901377.976 8  91871214.92747  22435886.252    22435885.343        2739.273
      2134.499
 114709047.219 9  89383674.78347  21828401.017    21828396.342       -1634.112
     -1273.334
 126909358.400 7  98890417.48245  24150039.375    24150038.377       -3213.848
     -2504.302
 16  9 14  0 34 30.0000000  0  9G05G13G15G17G18G20G24G28G30
 125813713.349 7  98036647.66046  23941549.858    23941547.080       -3656.840
     -2849.486
 106444574.739 9  82943814.86348  20255721.295    20255716.590        -867.632
      -676.077
 108103328.723 9  84236349.24848  20571377.890    20571373.840        1001.788
       780.614
 128522345.582 8 100147263.85345  24456987.333    24456984.247        2727.098
      2125.012
 124491866.173 8  97006630.92645  23690013.977    23690008.688        2050.192
      1597.553
 114143513.650 8  88942988.15347  21720788.627    21720784.267       -1625.258
     -1266.435
 117819309.858 8  91807265.76547  22420269.202    22420268.280        2731.764
      2128.647
 114758294.243 9  89422049.08547  21837772.429    21837767.755       -1649.104
     -1285.017
 127005806.347 7  98965571.74345  24168392.782    24168391.803       -3216.113
     -2506.066
 16  9 14  0 35  0.0000000  0  9G05G13G15G17G18G20G24G28G30
 125923461.535 7  98122165.70747  23962434.249    23962431.488       -3659.857
     -2851.839
 106470828.328 9  82964272.19648  20260717.184    20260712.488        -882.815
      -687.908
 108073497.813 9  84213104.37948  20565701.253    20565697.213         986.692
       768.852
 128440626.107 7 100083586.34546  24441436.607    24441433.575        2720.730
      2120.051
 124430556.186 8  96958856.89045  23678347.093    23678341.820        2036.847
      1587.152
 114192526.837 8  88981180.23147  21730115.555    21730111.179       -1642.640
     -1279.979
 117737463.569 8  91743489.46147  22404694.360    22404693.428        2724.548
      2123.025
 114807979.833 9  89460765.13247  21847227.292    21847222.619       -1663.561
     -1296.281
 127102308.229 8  99040767.93046  24186756.541    24186755.608       -3217.726
     -2507.318
 16  9 14  0 35 30.0000000  0  9G05G13G15G17G18G20G24G28G30
 126033307.266 8  98207759.76446  23983337.217    23983334.457       -3663.489
     -2854.668
 106497543.226 9  82985088.99548  20265800.858    20265796.170        -898.459
      -700.099
 108044124.979 9  84190216.45448  20560111.781    20560107.755         971.164
       756.751
 128359106.521 7 100020064.63446  24425923.886    24425920.901        2713.713
      2114.582
 124369651.972 8  96911399.07345  23666757.395    23666752.138        2023.133
      1576.467
 114242066.251 8  89019782.35547  21739542.619    21739538.225       -1660.118
     -1293.600
 117655843.469 8  91679889.39347  22389162.571    22389161.637        2716.528
      2116.774
 114858105.409 9  89499824.03147  21856765.875    21856761.202       -1678.505
     -1307.927
 127198866.413 7  99116008.03745  24205131.002    24205130.083       -3219.759
     -2508.906
 16  9 14  0 36  0.0000000  0  9G05G13G15G17G18G20G24G28G30
 126143243.924 8  98293424.68946  24004257.496    24004254.716       -3665.779
     -2856.452
 106524714.697 9  83006261.55948  20270971.423    20270966.744        -913.143
      -711.540
 108015206.934 9  84167682.91048  20554608.858    20554604.845         956.483
       745.312
 128277785.084 7  99956697.30745  24410448.874    24410445.948        2707.640
      2109.850
 124309150.673 8  96864255.20645  23655244.366    23655239.153        2010.274
      1566.445
 114292125.735 8  89058789.73546  21749068.641    21749064.223       -1677.006
     -1306.758
 117574445.658 8  91616462.55647  22373673.066    22373672.132        2709.703
      2111.458
 114908664.907 9  89539221.04247  21866387.035    21866382.366       -1692.394
     -1318.748
 127295475.308 8  99191287.64645  24223515.130    24223514.200       -3221.012
     -2509.880
 16  9 14  0 36 30.0000000  0  9G05G13G15G17G18G20G24G28G30
 126253271.897 8  98379160.77147  24025195.172    24025192.351       -3669.208
     -2859.122
 106552345.868 9  83027792.33048  20276229.465    20276224.801        -928.819
      -723.756
 107986748.037 9  84145507.14548  20549193.317    20549189.308         940.897
       733.168
 128196667.902 7  99893489.14446  24395012.727    24395009.839        2700.367
      2104.184
 124249057.064 8  96817429.01945  23643808.916    23643803.741        1996.163
      1555.452
 114342705.698 8  89098202.67547  21758693.706    21758689.271       -1694.774
     -1320.604
 117493274.241 8  91553212.12247  22358226.639    22358225.713        2701.741
      2105.253
 114959659.169 9  89578956.83747  21876090.921    21876086.252       -1707.132
     -1330.231
 127392136.914 7  99266608.32345  24241909.298    24241908.325       -3223.024
     -2511.446
 16  9 14  0 37  0.0000000  0  9G05G13G15G17G18G20G24G28G30
 126363386.706 8  98464964.51347  24046149.391    24046146.520       -3671.729
     -2861.088
 106580435.517 9  83049680.35448  20281574.754    20281570.111        -943.880
      -735.491
 107958747.681 9  84123688.68448  20543865.042    20543861.023         925.832
       721.428
 128115756.094 8  99830441.01346  24379615.667    24379612.813        2693.985
      2099.211
 124189371.596 8  96770920.85845  23632451.133    23632446.000        1983.016
      1545.207
 114393802.626 8  89138018.44446  21768417.136    21768412.696       -1711.542
     -1333.669
 117412328.292 8  91490137.38547  22342823.101    22342822.184        2694.395
      2099.529
 115011084.828 9  89619028.77947  21885876.900    21885872.236       -1721.187
     -1341.185
 127488848.595 7  99341968.01145  24260312.991    24260311.957       -3224.385
     -2512.514
 16  9 14  0 37 30.0000000  0  9G05G13G15G17G18G20G24G28G30
 126473589.138 8  98550836.51746  24067120.293    24067117.379       -3674.544
     -2863.280
 106608986.826 9  83071928.10748  20287007.903    20287003.278        -959.342
      -747.540
 107931210.817 9  84102231.38148  20538624.971    20538620.936         910.218
       709.261
 128035056.419 7  99767558.15846  24364258.998    24364256.174        2686.549
      2093.414
 124130099.452 8  96724734.78245  23621171.995    23621166.917        1969.037
      1534.316
 114445418.096 8  89178238.27946  21778239.231    21778234.783       -1729.149
     -1347.390
 117331612.240 8  91427241.77647  22327463.312    22327462.410        2686.762
      2093.581
 115062943.276 9  89659437.95747  21895745.234    21895740.584       -1735.621
     -1352.432
 127585612.824 7  99417368.66045  24278726.648    24278725.567       -3225.968
     -2513.741
 16  9 14  0 38  0.0000000  0  9G05G13G15G17G18G20G24G28G30
 126583872.103 8  98636771.27947  24088106.511    24088103.565       -3677.331
     -2865.455
 106637995.692 9  83094532.40548  20292528.121    20292523.503        -974.509
      -759.358
 107904134.413 9  84081132.87548  20533472.517    20533468.469         894.844
       697.280
 127954567.204 8  99704839.32146  24348942.357    24348939.553        2679.418
      2087.857
 124071238.517 8  96678869.12245  23609971.112    23609966.102        1955.172
      1523.511
 114497545.841 8  89218857.27946  21788158.809    21788154.361       -1746.003
     -1360.523
 117251122.501 8  91364522.53247  22312146.578    22312145.679        2679.181
      2087.675
 115115228.672 9  89700179.83047  21905694.803    21905690.171       -1749.918
     -1363.573
 127682424.516 7  99492806.28545  24297149.335    24297148.213       -3227.763
     -2515.144
 16  9 14  0 38 30.0000000  0  9G05G13G15G17G18G20G24G28G30
 126694233.045 7  98722766.80046  24109107.560    24109104.588       -3679.558
     -2867.188
 106667462.215 9  83117493.33448  20298135.419    20298130.797        -989.591
      -771.109
 107877519.692 9  84060394.13448  20528407.905    20528403.844         879.593
       685.397
 127874291.631 8  99642286.96246  24333666.377    24333663.583        2672.604
      2082.552
 124012790.465 8  96633325.18845  23598848.803    23598843.855        1941.632
      1512.960
 114550183.900 8  89259873.93146  21798175.480    21798171.038       -1762.864
     -1373.661
 117170859.954 8  91301980.31847  22296873.084    22296872.182        2671.714
      2081.857
 115167939.255 9  89741253.01447  21915725.285    21915720.670       -1763.824
     -1374.408
 127779282.639 8  99568280.07145  24315580.863    24315579.748       -3229.123
     -2516.199
 16  9 14  0 39  0.0000000  0  9G05G13G15G17G18G20G24G28G30
 126804670.792 8  98808822.16246  24130123.220    24130120.223       -3682.365
     -2869.377
 106697387.524 9  83140811.75348  20303830.022    20303825.398       -1005.075
      -783.175
 107851369.114 9  84040017.04848  20523431.622    20523427.557         864.053
       673.287
 127794234.075 7  99579904.47246  24318431.899    24318429.116        2665.057
      2076.669
 123954758.173 8  96588105.22045  23587805.616    23587800.731        1927.772
      1502.159
 114603331.565 8  89301287.68046  21808289.120    21808284.688       -1779.993
     -1387.007
 117090826.507 8  91239616.60547  22281643.208    22281642.294        2664.053
      2075.886
 115221073.928 9  89782656.65947  21925836.467    21925831.866       -1778.141
     -1385.563
 127876187.385 7  99643790.23845  24334021.246    24334020.121       -3230.607
     -2517.360
 16  9 14  0 39 30.0000000  0  9G05G13G15G17G18G20G24G28G30
 126915181.453 8  98894934.36546  24151152.731    24151149.700       -3684.879
     -2871.334
 106727770.545 9  83164486.82348  20309611.728    20309607.103       -1020.308
      -795.045
 107825682.768 9  84020001.71048  20518543.669    20518539.604         848.550
       661.207
 127714396.173 7  99517693.12746  24303239.237    24303236.462        2657.720
      2070.946
 123897142.250 8  96543209.70245  23576841.666    23576836.830        1913.479
      1491.021
 114656985.543 8  89343095.95046  21818499.120    21818494.705       -1796.808
     -1400.111
 117011021.802 8  91177431.12147  22266456.886    22266455.932        2656.402
      2069.924
 115274629.715 9  89824388.44347  21936027.787    21936023.199       -1792.122
     -1396.459
 127973136.647 8  99719335.06645  24352470.131    24352469.028       -3232.180
     -2518.581
 16  9 14  0 40  0.0000000  0  9G05G13G15G17G18G20G24G28G30
 127025765.731 8  98981103.91946  24172196.254    24172193.199       -3687.636
     -2873.482
 106758614.350 9  83188520.93948  20315481.127    20315476.500       -1036.064
      -807.324
 107800465.183 9  84000351.63548  20513744.920    20513740.855         832.528
       648.723
 127634784.073 8  99455657.76346  24288089.521    24288086.735        2649.804
      2064.782
 123839948.118 8  96498642.86245  23565957.980    23565953.182        1899.275
      1479.957
 114711146.713 8  89385299.45146  21828805.629    21828801.223       -1813.970
     -1413.483
 116931450.118 8  91115427.21747  22251314.917    22251313.894        2648.218
      2063.547
 115328608.323 9  89866449.69247  21946299.573    21946294.996       -1806.491
     -1407.656
 128070132.925 7  99794916.51846  24370927.978    24370926.896       -3234.437
     -2520.345
 16  9 14  0 40 30.0000000  0  9G05G13G15G17G18G20G24G28G30
 127136420.472 8  99067328.38846  24193253.165    24193250.101       -3689.713
     -2875.102
 106789919.003 9  83212914.16148  20321438.221    20321433.591       -1051.113
      -819.051
 107775717.374 9  83981067.62648  20509035.562    20509031.491         817.089
       636.693
 127555400.458 8  99393800.42846  24272983.296    24272980.504        2642.350
      2058.974
 123783177.008 8  96454405.62146  23555154.822    23555150.064        1885.433
      1469.167
 114765813.058 8  89427896.60346  21839208.274    21839203.867       -1830.533
     -1426.389
 116852112.369 8  91053605.61447  22236217.458    22236216.362        2640.656
      2057.654
 115383007.686 9  89908838.81247  21956651.420    21956646.849       -1820.234
     -1418.364
 128167175.003 7  99870533.64846  24389394.531    24389393.498       -3235.414
     -2521.105
 16  9 14  0 41  0.0000000  0  9G05G13G15G17G18G20G24G28G30
 127247141.951 8  99153604.87246  24214322.756    24214319.692       -3691.271
     -2876.314
 106821683.194 9  83237665.47048  20327482.756    20327478.124       -1066.004
      -830.652
 107751439.283 9  83962149.63148  20504415.592    20504411.503         801.966
       624.908
 127476247.372 8  99332122.72746  24257920.939    24257918.130        2635.090
      2053.319
 123726829.827 8  96410498.72545  23544432.329    23544427.601        1871.651
      1458.429
 114820981.230 8  89470884.78046  21849706.431    21849702.018       -1846.773
     -1439.044
 116773007.677 8  90991965.61647  22221164.337    22221163.181        2633.479
      2052.064
 115437824.440 9  89951553.17047  21967082.696    21967078.132       -1833.699
     -1428.855
 128264260.795 7  99946184.88645  24407869.325    24407868.366       -3236.354
     -2521.827
 16  9 14  0 41 30.0000000  0  9G05G13G15G17G18G20G24G28G30
 127357925.548 7  99239929.75845  24235404.153    24235401.095       -3693.819
     -2878.301
 106853904.179 9  83262772.71748  20333614.216    20333609.590       -1081.708
      -842.891
 107727629.692 9  83943596.69948  20499884.780    20499880.665         785.677
       612.215
 127397324.711 8  99270624.57645  24242902.433    24242899.607        2626.699
      2046.780
 123670905.787 8  96366921.56145  23533790.352    23533785.637        1856.970
      1446.990
 114876646.401 8  89514260.22546  21860299.171    21860294.761       -1863.879
     -1452.373
 116694134.831 8  90930506.27447  22206155.330    22206154.135        2625.170
      2045.587
 115493054.066 9  89994589.24747  21977592.538    21977587.983       -1847.976
     -1439.981
 128361386.699 6 100021867.30446  24426351.804    24426350.908       -3238.626
     -2523.612
 16  9 14  0 42  0.0000000  0  9G05G13G15G17G18G20G24G28G30
 127468767.428 7  99326300.07346  24256496.620    24256493.561       -3695.749
     -2879.804
 106886581.429 9  83288235.51148  20339832.491    20339827.863       -1096.838
      -854.679
 107704288.977 9  83925409.13048  20495443.186    20495439.047         770.226
       600.176
 127318635.164 8  99209308.08446  24227928.277    24227925.431        2619.041
      2040.813
 123615405.957 8  96323674.95545  23523229.102    23523224.398        1843.002
      1436.105
 114932805.988 8  89558020.93547  21870985.984    21870981.591       -1880.113
     -1465.023
 116615493.598 8  90869227.42047  22191190.383    22191189.164        2617.519
      2039.626
 115548694.169 9  90037945.18147  21988180.486    21988175.937       -1861.546
     -1450.555
 128458551.296 8 100097579.99445  24444841.545    24444840.690       -3239.519
     -2524.295
 16  9 14  0 42 30.0000000  0  9G05G13G15G17G18G20G24G28G30
 127579669.234 7  99412717.05045  24277600.504    24277597.453       -3697.376
     -2881.073
 106919718.829 9  83314056.85048  20346138.346    20346133.712       -1112.044
      -866.528
 107681421.942 9  83907590.65448  20491091.733    20491087.584         754.627
       588.021
 127240185.745 8  99148178.70045  24212999.824    24212996.948        2611.067
      2034.601
 123560335.970 8  96280763.27545  23512749.663    23512744.968        1828.679
      1424.946
 114989461.863 8  89602168.35447  21881767.251    21881762.876       -1896.493
     -1477.787
 116537089.094 8  90808133.02248  22176270.486    22176269.255        2609.760
      2033.578
 115604746.566 9  90081622.38447  21998846.890    21998842.345       -1874.957
     -1461.004
 128555757.560 7 100173325.00746  24463339.368    24463338.534       -3240.771
     -2525.285
 16  9 14  0 43  0.0000000  0  9G05G13G15G17G18G20G24G28G30
 127690624.752 7  99499175.88546  24298714.591    24298711.552       -3699.381
     -2882.633
 106953312.513 9  83340233.73448  20352531.031    20352526.383       -1127.532
      -878.597
 107659026.373 9  83890139.55348  20486829.993    20486825.848         738.496
       575.452
 127161975.612 8  99087235.74145  24198116.933    24198114.024        2602.871
      2028.211
 123505693.604 8  96238184.79846  23502351.600    23502346.914        1814.079
      1413.569
 115046608.054 8  89646697.82447  21892641.825    21892637.481       -1913.128
     -1490.751
 116458918.258 8  90747220.70947  22161395.050    22161393.813        2601.668
      2027.275
 115661205.816 9  90125616.60447  22009590.724    22009586.185       -1888.849
     -1471.830
 128653000.728 7 100249098.96845  24481844.092    24481843.223       -3242.032
     -2526.255
 16  9 14  0 43 30.0000000  0  9G05G13G15G17G18G20G24G28G30
 127801636.265 7  99585678.34846  24319839.331    24319836.311       -3701.114
     -2883.984
 106987368.035 9  83366770.49748  20359011.590    20359006.929       -1142.727
      -890.437
 107637108.971 9  83873061.05448  20482659.241    20482655.107         722.691
       563.137
 127084012.820 8  99026485.55146  24183281.082    24183278.129        2594.782
      2021.912
 123451486.024 8  96195945.12745  23492036.261    23492031.592        1799.787
      1402.433
 115104247.421 8  89691611.59747  21903610.230    21903605.930       -1929.350
     -1503.390
 116380987.002 8  90686495.07747  22146565.211    22146563.965        2593.821
      2021.161
 115718075.090 9  90169930.33547  22020412.577    22020408.043       -1902.202
     -1482.235
 128750285.578 8 100324905.25946  24500356.883    24500355.989       -3243.269
     -2527.224
 16  9 14  0 44  0.0000000  0  9G05G13G15G17G18G20G24G28G30
 127912695.893 7  99672218.27546  24340973.242    24340970.257       -3702.642
     -2885.178
 107021879.506 9  83393662.53748  20365578.904    20365574.247       -1157.953
      -902.302
 107615665.150 9  83856351.57248  20478578.618    20478574.498         706.883
       550.817
 127006294.984 8  98965926.20846  24168491.865    24168488.893        2586.536
      2015.480
 123397709.620 8  96154041.41945  23481802.971    23481798.341        1785.261
      1391.113
 115162372.152 8  89736903.58947  21914670.991    21914666.718       -1945.472
     -1515.953
 116303291.155 8  90625952.86747  22131780.185    22131778.925        2586.093
      2015.137
 115775347.288 9  90214558.02247  22031311.114    22031306.586       -1915.791
     -1492.825
 128847605.369 7 100400738.81945  24518876.288    24518875.399       -3244.669
     -2528.316
 16  9 14  0 44 30.0000000  0  9G05G13G15G17G18G20G24G28G30
 128023805.964 7  99758797.53346  24362116.736    24362113.786       -3704.773
     -2886.838
 107056851.804 9  83420913.67048  20372233.903    20372229.257       -1173.810
      -914.656
 107594701.289 9  83840016.10148  20474589.324    20474585.214         690.481
       538.038
 126928830.293 8  98905564.16046  24153750.786    24153747.796        2577.660
      2008.570
 123344371.336 8  96112479.11145  23471653.033    23471648.444        1770.237
      1379.406
 115220985.599 8  89782576.39647  21925824.761    21925820.501       -1962.216
     -1528.998
 116225836.297 8  90565598.45747  22117041.009    22117039.733        2577.581
      2008.505
 115833025.483 9  90259502.08447  22042286.899    22042282.369       -1929.668
     -1503.636
 128944964.804 7 100476603.30445  24537403.178    24537402.303       -3246.481
     -2529.725
 16  9 14  0 45  0.0000000  0  9G05G13G15G17G18G20G24G28G30
 128134960.550 7  99845411.47646  24383268.708    24383265.794       -3705.873
     -2887.693
 107092281.490 9  83448521.20148  20378975.949    20378971.318       -1188.470
      -926.081
 107574214.384 9  83824052.27448  20470690.804    20470686.700         675.155
       526.095
 126851617.603 8  98845398.44646  24139057.685    24139054.692        2569.587
      2002.277
 123291468.860 8  96071256.39246  23461586.023    23461581.471        1756.217
      1368.481
 115280081.757 8  89828625.32647  21937070.404    21937066.162       -1977.688
     -1541.057
 116148619.549 8  90505429.58947  22102347.144    22102345.851        2570.036
      2002.627
 115891103.323 9  90304757.54847  22053338.742    22053334.210       -1942.363
     -1513.529
 129042358.592 6 100552494.46846  24555936.665    24555935.848       -3246.809
     -2529.987
 16  9 14  0 45 30.0000000  0  9G05G13G15G17G18G20G24G28G30
 128246155.861 7  99932057.15846  24404428.439    24404425.557       -3706.896
     -2888.489
 107128167.144 9  83476484.04348  20385804.762    20385800.142       -1203.631
      -937.895
 107554205.003 9  83808460.54949  20466883.152    20466879.047         659.209
       513.670
 126774658.835 8  98785430.60046  24124412.892    24124409.900        2561.364
      1995.868
 123239003.253 8  96030374.11845  23451602.124    23451597.590        1741.859
      1357.294
 115339656.943 8  89875047.53147  21948407.201    21948402.980       -1993.697
     -1553.531
 116071640.721 8  90445446.10547  22087698.554    22087697.248        2562.126
      1996.461
 115949578.349 9  90350322.50747  22064466.166    22064461.632       -1955.485
     -1523.755
 129139785.284 7 100628411.38145  24574476.303    24574475.529       -3247.814
     -2530.758
 16  9 14  0 46  0.0000000  0  9G05G13G15G17G18G20G24G28G30
 128357388.792 7 100018732.15346  24425595.348    24425592.483       -3708.325
     -2889.605
 107164508.358 9  83504801.86348  20392720.267    20392715.662       -1218.912
      -949.801
 107534673.842 9  83793241.46248  20463166.502    20463162.385         643.173
       501.174
 126697956.716 8  98725662.74746  24109816.930    24109813.940        2552.432
      1988.907
 123186975.588 8  95989833.07245  23441701.584    23441697.066        1727.045
      1345.751
 115399708.814 8  89921841.17147  21959834.708    21959830.520       -2009.562
     -1565.893
 115994900.416 8  90385648.49747  22073095.335    22073094.010        2554.104
      1990.213
 116008448.289 9  90396195.18547  22075668.744    22075664.210       -1968.814
     -1534.143
 129237243.739 6 100704352.92945  24593022.102    24593021.352       -3249.145
     -2531.811
 16  9 14  0 46 30.0000000  0  9G05G13G15G17G18G20G24G28G30
 128468659.507 7 100105436.59446  24446769.465    24446766.596       -3709.383
     -2890.428
 107201307.511 9  83533476.51248  20399722.919    20399718.333       -1234.231
      -961.739
 107515624.123 9  83778397.51748  20459541.472    20459537.337         627.010
       488.579
 126621516.652 7  98666099.09846  24095270.832    24095267.850        2543.864
      1982.233
 123135389.590 8  95949636.18846  23431885.082    23431880.585        1712.292
      1334.254
 115460237.576 8  89969006.41447  21971352.967    21971348.818       -2025.521
     -1578.329
 115918401.984 8  90326039.34247  22058538.156    22058536.818        2546.041
      1983.930
 116067713.667 9  90442376.00447  22086946.566    22086942.031       -1981.901
     -1544.338
 129334735.294 7 100780320.37245  24611574.125    24611573.381       -3250.096
     -2532.538
 16  9 14  0 47  0.0000000  0  8G05G13G15G17G18G20G24G28
 128579965.633 7 100192168.62146  24467950.343    24467947.448       -3710.425
     -2891.241
 107238564.927 9  83562508.25648  20406812.767    20406808.195       -1249.318
      -973.496
 107497057.733 9  83763930.19848  20456008.410    20456004.256         611.064
       476.154
 126545342.364 8  98606742.54746  24080775.300    24080772.339        2534.911
      1975.257
 123084248.107 8  95909785.67046  23422153.171    23422148.698        1697.608
      1322.811
 115521241.472 8  90016541.91247  21982961.637    21982957.500       -2041.033
     -1590.416
 115842146.677 8  90266619.63847  22044027.245    22044025.888        2537.953
      1977.625
 116127373.089 9  90488863.86747  22098299.373    22098294.839       -1994.864
     -1554.439
 16  9 14  0 47 30.0000000  0  8G05G13G15G17G18G20G24G28
 128691303.176 7 100278925.14445  24489137.202    24489134.256       -3711.746
     -2892.269
 107276278.487 9  83591895.43248  20413989.424    20413984.856       -1264.720
      -985.496
 107478973.634 9  83749838.69148  20452567.125    20452562.957         594.791
       463.475
 126469433.855 8  98547593.08447  24066330.345    24066327.415        2525.807
      1968.161
 123033550.557 8  95870281.09246  23412505.725    23412501.270        1682.512
      1311.049
 115582716.117 8  90064444.21847  21994659.906    21994655.760       -2056.908
     -1602.786
 115766133.401 8  90207388.53548  22029562.391    22029561.015        2529.855
      1971.316
 116187422.334 9  90535655.48747  22109726.363    22109721.834       -2008.021
     -1564.690
 16  9 14  0 48  0.0000000  0  8G05G13G15G17G18G20G24G28
 128802669.222 7 100365703.86146  24510329.511    24510326.500       -3713.028
     -2893.271
 107314447.767 9  83621637.70648  20421252.810    20421248.245       -1280.254
      -997.602
 107461372.829 9  83736123.77348  20449217.814    20449213.635         578.267
       450.597
 126393794.974 8  98488653.73746  24051936.683    24051933.777        2516.447
      1960.868
 122983298.508 8  95831123.63946  23402943.076    23402938.643        1667.215
      1299.128
 115644658.910 8  90112711.30947  22006447.260    22006443.105       -2073.006
     -1615.329
 115690362.658 8  90148346.41348  22015143.691    22015142.304        2521.309
      1964.657
 116247859.310 9  90582749.22647  22121227.144    22121222.622       -2021.397
     -1575.115
 16  9 14  0 48 30.0000000  0  8G05G13G15G17G18G20G24G28
 128914062.939 7 100452504.17546  24531527.071    24531523.975       -3712.996
     -2893.243
 107353074.829 9  83651736.70548  20428603.296    20428598.738       -1294.633
     -1008.804
 107444258.439 9  83722787.89248  20445961.057    20445956.870         562.842
       438.579
 126318430.035 8  98429927.84746  24037595.155    24037592.270        2508.081
      1954.350
 122933495.441 8  95792316.06246  23393465.856    23393461.432        1653.063
      1288.103
 115707069.929 8  90161343.25146  22018323.708    22018319.545       -2087.574
     -1626.681
 115614837.698 8  90089495.81847  22000771.755    22000770.365        2513.838
      1958.835
 116308684.309 9  90630145.33147  22132801.756    22132797.240       -2033.476
     -1584.525
 16  9 14  0 49  0.0000000  0  8G05G13G15G17G18G20G24G28
 129025479.202 8 100539322.03246  24552728.944    24552725.772       -3714.478
     -2894.397
 107392156.381 9  83682189.84148  20436040.271    20436035.731       -1310.701
     -1021.326
 107427628.399 9  83709829.40848  20442796.480    20442792.289         545.814
       425.310
 126243339.441 8  98371415.73346  24023305.840    24023302.962        2498.154
      1946.615
 122884140.041 8  95753857.29846  23384073.843    23384069.426        1637.435
      1275.922
 115769943.756 8  90210335.81546  22030288.220    22030284.053       -2103.908
     -1639.410
 115539556.135 8  90030834.88347  21986446.132    21986444.748        2504.915
      1951.883
 116369892.022 9  90677839.64947  22144449.201    22144444.691       -2047.003
     -1595.066
 16  9 14  0 49 30.0000000  0  8G05G13G15G17G18G20G24G28
 129136917.868 7 100626157.36246  24573935.066    24573931.825       -3714.896
     -2894.723
 107431695.163 9  83712999.26948  20443564.243    20443559.727       -1325.549
     -1032.896
 107411486.577 9  83697251.35748  20439724.802    20439720.607         529.969
       412.962
 126168528.603 8  98313121.61146  24009069.767    24009066.878        2488.977
      1939.464
 122835237.077 8  95715751.09346  23374767.922    23374763.506        1622.501
      1264.287
 115833280.528 8  90259689.13446  22042340.812    22042336.629       -2118.911
     -1651.100
 115464521.289 8  89972366.17747  21972167.466    21972166.089        2497.021
      1945.731
 116431483.211 8  90725832.77947  22156169.616    22156165.114       -2059.478
     -1604.788
 16  9 14  0 50  0.0000000  0  8G05G13G15G17G18G20G24G28
 129248376.527 7 100713008.26746  24595144.995    24595141.699       -3715.307
     -2895.043
 107471690.250 9  83744164.25848  20451175.051    20451170.560       -1340.551
     -1044.587
 107395833.776 9  83685054.36348  20436746.177    20436741.982         513.917
       400.454
 126093999.901 8  98255047.33246  23994887.391    23994884.488        2480.014
      1932.479
 122786787.122 8  95677997.87346  23365548.208    23365543.796        1607.683
      1252.739
 115897077.649 8  90309401.17046  22054481.008    22054476.788       -2133.852
     -1662.741
 115389734.021 8  89914090.39647  21957935.900    21957934.523        2488.843
      1939.357
 116493455.768 8  90774123.07347  22167962.607    22167958.119       -2071.778
     -1614.374
 16  9 14  0 50 30.0000000  0  8G05G13G15G17G18G20G24G28
 129359850.646 7 100799871.19845  24616357.876    24616354.546       -3716.238
     -2895.771
 107512139.724 9  83775683.32148  20458872.322    20458867.852       -1356.080
     -1056.687
 107380668.937 9  83673237.60348  20433860.403    20433856.213         497.357
       387.551
 126019754.542 8  98197193.84946  23980758.930    23980756.005        2470.084
      1924.741
 122738789.898 8  95640597.44345  23356414.634    23356410.216        1592.327
      1240.775
 115961330.997 8  90359468.69946  22066708.024    22066703.777       -2149.388
     -1674.848
 115315193.111 8  89856006.58747  21943751.207    21943749.824        2480.447
      1932.816
 116555805.757 9  90822707.49047  22179827.404    22179822.927       -2084.748
     -1624.478
 16  9 14  0 51  0.0000000  0  8G05G13G15G17G18G20G24G28
 129471336.667 7 100886743.41546  24637573.005    24637569.653       -3716.328
     -2895.842
 107553043.178 9  83807556.13648  20466655.984    20466651.533       -1370.883
     -1068.221
 107365992.729 9  83661801.60148  20431067.609    20431063.424         481.259
       375.008
 125945795.068 8  98139563.13946  23966684.878    23966681.919        2460.500
      1917.274
 122691247.166 8  95603551.14445  23347367.564    23347363.129        1577.404
      1229.146
 116026037.746 8  90409889.51446  22079021.316    22079017.063       -2164.226
     -1686.410
 115240899.251 8  89798115.27947  21929613.526    21929612.139        2472.553
      1926.665
 116618530.809 8  90871584.15647  22191763.581    22191759.111       -2096.934
     -1633.974
 16  9 14  0 51 30.0000000  0  8G05G13G15G17G18G20G24G28
 129582835.855 7 100973625.89945  24658790.626    24658787.264       -3716.635
     -2896.079
 107594403.292 9  83839784.78248  20474526.551    20474522.123       -1386.006
     -1080.005
 107351809.451 9  83650749.69048  20428368.628    20428364.448         464.806
       362.186
 125872126.870 8  98082159.37746  23952666.277    23952663.295        2451.001
      1909.872
 122644163.286 8  95566862.40445  23338407.798    23338403.346        1562.133
      1217.247
 116091198.694 8  90460664.25046  22091421.029    22091416.781       -2179.247
     -1698.115
 115166856.408 8  89740419.56647  21915523.620    21915522.225        2464.312
      1920.244
 116681632.035 8  90920753.93847  22203771.346    22203766.879       -2109.305
     -1643.614
 16  9 14  0 52  0.0000000  0  8G05G13G15G17G18G20G24G28
 129694343.580 7 101060515.01746  24680009.868    24680006.522       -3716.766
     -2896.181
 107636217.977 9  83872367.64148  20482483.618    20482479.215       -1401.250
     -1091.883
 107338118.061 9  83640081.07248  20425763.251    20425759.065         448.337
       349.354
 125798752.000 8  98024984.18446  23938703.500    23938700.496        2441.247
      1902.273
 122597538.055 8  95530531.05745  23329535.301    23329530.834        1546.771
      1205.279
 116156809.454 8  90511789.50546  22103906.329    22103902.080       -2194.322
     -1709.861
 115093063.298 8  89682918.47047  21901481.224    21901479.816        2455.912
      1913.699
 116745105.375 8  90970213.68847  22215849.920    22215845.448       -2121.682
     -1653.257
 16  9 14  0 52 30.0000000  0  8G05G13G15G17G18G20G24G28
 129805856.195 7 101147407.94145  24701230.015    24701226.726       -3717.243
     -2896.555
 107678485.005 9  83905302.97548  20490526.766    20490522.383       -1416.438
     -1103.718
 107324917.892 9  83629795.22748  20423251.355    20423247.152         431.727
       336.410
 125725671.483 8  97968038.35946  23924796.737    23924793.720        2431.281
      1894.507
 122551371.173 8  95494556.83945  23320750.039    23320745.569        1531.047
      1193.023
 116222865.751 8  90563261.93546  22116476.426    22116472.163       -2209.301
     -1721.534
 115019518.848 8  89625611.12447  21887486.159    21887484.737        2447.325
      1907.009
 116808946.967 9  91019960.37746  22227998.580    22227994.105       -2134.222
     -1663.029
 16  9 14  0 53  0.0000000  0  8G05G13G15G17G18G20G24G28
 129917374.083 7 101234305.00445  24722451.124    24722447.903       -3717.684
     -2896.895
 107721207.616 9  83938593.30748  20498656.613    20498652.242       -1431.874
     -1115.746
 107312212.903 9  83619895.22948  20420833.692    20420829.471         415.095
       323.451
 125652890.716 8  97911326.09246  23910947.030    23910944.003        2420.773
      1886.317
 122505667.249 8  95458943.40046  23312052.850    23312048.371        1515.486
      1180.897
 116289368.861 8  90615082.51346  22129131.568    22129127.289       -2224.453
     -1733.340
 114946227.296 8  89568500.83947  21873539.226    21873537.791        2438.584
      1900.197
 116873158.164 8  91069995.07847  22240217.569    22240213.090       -2146.623
     -1672.693
 16  9 14  0 53 30.0000000  0  8G05G13G15G17G18G20G24G28
 130028889.030 7 101321199.74846  24743671.685    24743668.540       -3717.127
     -2896.462
 107764380.263 9  83972234.32048  20506872.099    20506867.729       -1446.518
     -1127.156
 107299998.966 9  83610377.87148  20418509.466    20418505.235         398.961
       310.878
 125580407.617 8  97854845.77246  23897153.964    23897150.934        2410.995
      1878.696
 122460422.487 8  95423687.73745  23303443.053    23303438.568        1500.483
      1169.209
 116356310.251 8  90667244.62546  22141870.105    22141865.798       -2238.716
     -1744.453
 114873184.437 8  89511584.34447  21859639.620    21859638.172        2430.678
      1894.035
 116937731.722 8  91120312.13846  22252505.513    22252501.030       -2158.440
     -1681.903
 16  9 14  0 54  0.0000000  0  8G05G13G15G17G18G20G24G28
 130140404.225 7 101408094.71645  24764892.266    24764889.195       -3717.147
     -2896.477
 107808007.606 9  84006229.64748  20515174.109    20515169.731       -1461.836
     -1139.094
 107288282.100 9  83601247.84048  20416279.824    20416275.595         382.284
       297.884
 125508230.173 8  97798603.62846  23883419.052    23883416.018        2400.817
      1870.767
 122415643.783 8  95388795.24145  23294921.948    23294917.451        1484.921
      1157.081
 116423693.086 8  90719750.70546  22154692.663    22154688.328       -2253.513
     -1755.985
 114800396.415 8  89454866.41347  21845788.519    21845787.064        2422.117
      1887.364
 117002670.880 8  91170914.08446  22264863.025    22264858.534       -2170.687
     -1691.444
 16  9 14  0 54 30.0000000  0  8G05G13G15G17G18G20G24G28
 130251914.433 7 101494985.77246  24786111.923    24786108.925       -3716.842
     -2896.241
 107852086.918 9  84040577.15448  20523562.126    20523557.738       -1476.750
     -1150.716
 107277060.550 9  83592503.76949  20414144.432    20414140.215         365.867
       285.090
 125436358.582 8  97742599.80346  23869742.339    23869739.315        2390.726
      1862.902
 122371329.979 8  95354265.00446  23286489.312    23286484.794        1469.587
      1145.133
 116491512.214 8  90772596.76546  22167598.239    22167593.881       -2267.782
     -1767.104
 114727860.792 8  89398345.16147  21831985.451    21831983.985        2413.705
      1880.809
 117067970.658 8  91221797.02346  22277289.165    22277284.667       -2182.524
     -1700.668
 16  9 14  0 55  0.0000000  0  9G05G13G15G17G18G19G20G24G28
 130363418.227 7 101581871.81946  24807330.375    24807327.457       -3716.745
     -2896.167
 107896619.707 9  84075278.02448  20532036.435    20532032.034       -1491.923
     -1162.537
 107266337.027 9  83584147.77948  20412103.804    20412099.598         349.183
       272.090
 125364797.845 8  97686838.21046  23856124.762    23856121.760        2380.054
      1854.587
 122327484.131 8  95320099.41846  23278145.716    23278141.176        1453.516
      1132.610
 129706274.019 7 101069824.32646  24682288.095    24682284.135        3470.277
      2704.112
 116559766.780 8  90825782.12046  22180586.687    22180582.313       -2282.342
     -1778.449
 114655580.494 8  89342022.86447  21818230.975    21818229.488        2405.077
      1874.086
 117133631.094 8  91272961.00346  22289783.929    22289779.418       -2194.603
     -1710.081
 16  9 14  0 55 30.0000000  0  9G05G13G15G17G18G19G20G24G28
 130474912.089 7 101668750.16945  24828546.908    24828544.059       -3716.167
     -2895.715
 107941603.323 9  84110330.18248  20540596.543    20540592.129       -1506.662
     -1174.022
 107256110.368 9  83576178.95248  20410157.734    20410153.532         332.959
       259.448
 125293548.082 8  97631318.94546  23842566.341    23842563.362        2370.139
      1846.862
 122284105.747 8  95286298.07446  23269891.091    23269886.536        1438.419
      1120.846
 129602212.338 6 100988737.26346  24662487.755    24662482.594        3467.657
      2702.069
 116628452.471 8  90879303.43246  22193657.177    22193652.774       -2296.337
     -1789.354
 114583554.649 8  89285898.85047  21804524.919    21804523.399        2396.953
      1867.756
 117199647.445 8  91324402.33546  22302346.410    22302341.882       -2206.030
     -1718.983
 16  9 14  0 56  0.0000000  0  9G05G13G15G17G18G19G20G24G28
 130586391.164 6 101755616.94845  24849760.667    24849757.897       -3716.101
     -2895.665
 107987035.374 9  84145731.75448  20549242.000    20549237.582       -1522.168
     -1186.106
 107246379.385 9  83568596.35949  20408305.998    20408301.794         315.764
       246.049
 125222610.369 8  97576042.81146  23829067.308    23829064.357        2359.156
      1838.304
 122241193.879 8  95252860.25646  23261725.232    23261720.665        1422.328
      1108.307
 129498238.284 7 100907718.51446  24642701.406    24642696.135        3463.951
      2699.181
 116697564.467 8  90933156.91546  22206808.807    22206804.372       -2311.206
     -1800.940
 114511781.091 8  89229971.41748  21790866.879    21790865.320        2387.979
      1860.764
 117266016.457 8  91376118.43346  22314976.025    22314971.489       -2218.411
     -1728.633
 16  9 14  0 56 30.0000000  0  8G13G15G17G18G19G20G24G28
 108032918.398 9  84181484.75748  20557973.255    20557968.832       -1537.045
     -1197.698
 107237147.481 9  83561402.66849  20406549.235    20406545.019         299.322
       233.237
 125151990.698 8  97521014.53346  23815628.765    23815625.842        2348.544
      1830.036
 122198753.296 8  95219789.68446  23253649.045    23253644.472        1406.712
      1096.141
 129394358.685 7 100826773.45145  24622933.591    24622928.490        3460.973
      2696.864
 116767103.437 8  90987343.11146  22220041.683    22220037.221       -2325.174
     -1811.823
 114440264.509 8  89174244.23748  21777257.732    21777256.137        2379.510
      1854.164
 117332738.649 8  91428109.75246  22327672.837    22327668.291       -2229.931
     -1737.608
 16  9 14  0 57  0.0000000  0  8G13G15G17G18G19G20G24G28
 108079255.474 9  84217591.55848  20566790.920    20566786.493       -1552.525
     -1209.761
 107228419.605 9  83554601.72349  20404888.393    20404884.158         282.202
       219.897
 125081695.066 8  97466238.73846  23802251.893    23802249.002        2337.362
      1821.321
 122156788.482 8  95187089.82146  23245663.409    23245658.840        1390.539
      1083.538
 129290580.124 7 100745907.02246  24603185.019    24603179.965        3457.218
      2693.937
 116837069.875 8  91041862.39946  22233355.901    22233351.418       -2339.733
     -1823.170
 114369008.769 8  89118720.29648  21763698.239    21763696.613        2370.456
      1847.108
 117399815.046 8  91480377.07646  22340437.053    22340432.497       -2242.159
     -1747.137
 16  9 14  0 57 30.0000000  0  8G13G15G17G18G19G20G24G28
 108126040.874 9  84254047.70748  20575693.894    20575689.455       -1567.209
     -1221.202
 107220191.000 9  83548189.82149  20403322.562    20403318.306         265.813
       207.127
 125011721.092 8  97411713.59746  23788936.229    23788933.345        2326.804
      1813.097
 122115295.408 8  95154757.57246  23237767.526    23237762.954        1375.063
      1071.479
 129186900.770 7 100665117.98146  24583455.335    24583450.403        3454.147
      2691.548
 116907455.922 8  91096708.64946  22246749.961    22246745.474       -2353.361
     -1833.787
 114298009.228 8  89063396.00648  21750187.492    21750185.818        2362.185
      1840.665
 117467238.541 8  91532914.86746  22353267.320    22353262.754       -2253.388
     -1755.886
 16  9 14  0 58  0.0000000  0  8G13G15G17G18G19G20G24G28
 108173274.612 9  84290853.20348  20584682.193    20584677.741       -1581.880
     -1232.635
 107212462.572 9  83542167.66349  20401851.911    20401847.641         249.289
       194.251
 124942071.446 8  97357441.17446  23775682.303    23775679.416        2316.295
      1804.906
 122074275.615 8  95122794.08745  23229961.729    23229957.155        1359.676
      1059.486
 129083324.255 6 100584408.96946  24563745.306    24563740.540        3450.501
      2688.701
 116978259.359 8  91151880.14446  22260223.436    22260218.944       -2366.967
     -1844.391
 114227267.031 8  89008272.22748  21736725.726    21736724.009        2353.693
      1834.047
 117535007.043 8  91585721.49746  22366163.236    22366158.657       -2264.668
     -1764.676
 16  9 14  0 58 30.0000000  0  8G13G15G17G18G19G20G24G28
 108220960.301 9  84328010.86948  20593756.497    20593752.033       -1596.918
     -1244.352
 107205239.446 9  83536539.25649  20400477.405    20400473.127         232.464
       181.142
 124872753.114 8  97303426.90946  23762491.443    23762488.549        2305.216
      1796.272
 122033734.966 8  95091203.97345  23222247.100    23222242.516        1343.437
      1046.834
 128979858.266 7 100503786.14746  24544056.227    24544051.600        3447.139
      2686.081
 117049481.940 8  91207378.24946  22273776.663    22273772.173       -2380.820
     -1855.184
 114156787.204 8  88953352.90447  21723313.871    21723312.111        2345.119
      1827.366
 117603123.112 8  91638798.95846  22379125.291    22379120.702       -2276.117
     -1773.598
 16  9 14  0 59  0.0000000  0  8G13G15G17G18G19G20G24G28
 108269092.183 9  84365516.21348  20602915.709    20602911.237       -1611.553
     -1255.755
 107198516.995 9  83531300.97449  20399198.175    20399193.899         215.931
       168.258
 124803763.973 8  97249669.16646  23749363.229    23749360.324        2294.452
      1787.885
 121993669.766 8  95059984.34745  23214622.940    23214618.347        1327.753
      1034.613
 128876500.975 7 100423248.03945  24524387.841    24524383.322        3443.759
      2683.446
 117121115.811 8  91263196.81746  22287408.161    22287403.695       -2394.398
     -1865.766
 114086565.067 8  88898634.36348  21709951.058    21709949.265        2336.777
      1820.866
 117671579.216 8  91692141.37746  22392152.051    22392147.459       -2287.248
     -1782.271
 16  9 14  0 59 30.0000000  0  8G13G15G17G18G19G20G24G28
 108317670.466 9  84403369.41748  20612159.859    20612155.377       -1626.812
     -1267.646
 107192296.486 9  83526453.81849  20398014.458    20398010.188         198.889
       154.979
 124735107.460 8  97196170.61546  23736298.315    23736295.393        2282.878
      1778.866
 121954081.427 8  95029136.29045  23207089.534    23207084.924        1311.517
      1021.960
 128773256.255 7 100342797.60045  24504740.976    24504736.475        3439.499
      2680.131
 117193158.816 8  91319334.21546  22301117.488    22301113.047       -2408.293
     -1876.592
 114016602.609 8  88844118.17348  21696637.656    21696635.835        2327.642
      1813.747
 117740373.419 8  91745747.25746  22405243.138    22405238.544       -2298.838
     -1791.302
                            4  1
RINEX FILE SPLICE; other post-header comments skipped       COMMENT
 16  9 14  1  0  0.0000000  0  8G13G15G17G18G19G20G24G28
 108366695.651 9  84441570.84348  20621489.060    20621484.580       -1641.650
     -1279.208
 107186579.987 9  83521999.39149  20396926.657    20396922.393         182.205
       141.978
 124666786.823 8  97142933.77547  23723297.329    23723294.389        2271.750
      1770.196
 121914972.252 8  94998661.61345  23199647.308    23199642.668        1295.663
      1009.608
 128670128.646 7 100262438.42246  24485116.419    24485111.893        3435.650
      2677.131
 117265609.386 8  91375789.18246  22314904.386    22314899.964       -2421.664
     -1887.013
 113946900.933 8  88789805.19748  21683373.870    21683372.023        2318.974
      1806.994
 117809505.102 8  91799616.10046  22418398.457    22418393.858       -2310.044
     -1800.033
 16  9 14  1  0 30.0000000  0  8G13G15G17G18G19G20G24G28
 108416169.093 9  84480121.56348  20630903.556    20630899.090       -1656.897
     -1291.089
 107181370.164 9  83517939.78849  20395935.265    20395930.998         164.939
       128.524
 124598807.006 8  97089962.52046  23710361.197    23710358.233        2260.035
      1761.067
 121876345.358 8  94968562.74745  23192296.853    23192292.181        1279.202
       996.781
 128567123.684 7 100182174.83045  24465515.217    24465510.692        3431.180
      2673.644
 117338466.414 8  91432560.88046  22328768.630    22328764.212       -2435.439
     -1897.746
 113877463.135 8  88735697.83248  21670160.300    21670158.431        2309.937
      1799.952
 117878974.012 9  91853747.71846  22431617.951    22431613.344       -2321.440
     -1808.914
 16  9 14  1  1  0.0000000  0  8G13G15G17G18G19G20G24G28
 108466089.032 9  84519020.20048  20640403.015    20640398.571       -1671.367
     -1302.364
 107176666.066 9  83514274.26249  20395040.108    20395035.837         148.372
       115.615
 124531169.276 8  97037257.81946  23697490.170    23697487.175        2248.999
      1752.470
 121838200.837 8  94938839.73345  23185038.210    23185033.508        1263.356
       984.436
 128464243.382 7 100102008.36746  24445937.739    24445933.221        3427.297
      2670.622
 117411726.399 8  91489646.56646  22342709.562    22342705.150       -2448.686
     -1908.067
 113808288.720 8  88681795.70748  21656996.840    21656994.956        2301.318
      1793.236
 117948776.620 8  91908139.36046  22444900.953    22444896.332       -2332.211
     -1817.308
 16  9 14  1  1 30.0000000  0  8G13G15G17G18G19G20G24G28
 108516455.370 9  84558266.68148  20649987.420    20649982.997       -1686.338
     -1314.029
 107172468.917 9  83511003.75449  20394241.425    20394237.156         131.449
       102.428
 124463876.771 8  96984822.11646  23684684.842    23684681.807        2237.212
      1743.282
 121800540.066 8  94909493.67145  23177871.620    23177866.894        1247.351
       971.963
 128361491.109 7 100021941.68745  24426384.604    24426380.140        3422.815
      2667.122
 117485386.607 8  91547044.11246  22356726.661    22356722.261       -2462.083
     -1918.505
 113739378.339 9  88628099.32748  21643883.615    21643881.725        2292.652
      1786.482
 118018910.904 8  91962789.44346  22458247.079    22458242.445       -2343.282
     -1825.935
 16  9 14  1  2  0.0000000  0  8G13G15G17G18G19G20G24G28
 108567266.505 9  84597859.76148  20659656.464    20659652.054       -1701.348
     -1325.726
 107168778.421 9  83508128.04149  20393539.149    20393534.891         114.312
        89.073
 124396931.243 8  96932656.79846  23671945.528    23671942.459        2225.601
      1734.234
 121763363.178 8  94880524.66045  23170797.115    23170792.369        1230.814
       959.076
 128258869.733 7  99941976.97046  24406856.409    24406851.945        3418.361
      2663.659
 117559443.648 8  91604750.87846  22370819.279    22370814.887       -2475.403
     -1928.886
 113670732.090 8  88574608.75548  21630820.659    21630818.766        2283.494
      1779.347
 118089374.021 8  92017695.77747  22471655.764    22471651.127       -2354.412
     -1834.606
 16  9 14  1  2 30.0000000  0  8G13G15G17G18G19G20G24G28
 108618521.583 9  84637798.76448  20669409.992    20669405.589       -1716.147
     -1337.258
 107165594.573 9  83505647.11049  20392933.286    20392929.043          97.533
        76.000
 124330334.475 8  96880763.22946  23659272.586    23659269.472        2213.851
      1725.077
 121726671.412 8  94851933.64845  23163814.940    23163810.175        1214.789
       946.587
 128156381.982 7  99862116.38545  24387353.641    24387349.161        3413.872
      2660.159
 117633894.303 8  91662764.34046  22384986.803    22384982.427       -2488.462
     -1939.064
 113602350.420 8  88521324.36248  21617808.038    21617806.142        2274.863
      1772.622
 118160163.580 8  92072856.46346  22485126.574    22485121.948       -2365.286
     -1843.081
 16  9 14  1  3  0.0000000  0  8G13G15G17G18G19G20G24G28
 108670222.990 9  84678085.55848  20679248.450    20679244.052       -1730.646
     -1348.557
 107162921.179 9  83503563.94448  20392424.551    20392420.316          80.786
        62.951
 124264092.827 8  96829146.39646  23646667.207    23646664.035        2202.316
      1716.094
 121690468.582 8  94823723.66145  23156925.780    23156920.985        1198.650
       934.015
 128054034.623 7  99782365.20045  24367877.576    24367873.075        3409.218
      2656.534
 117708738.872 8  91721084.75946  22399229.261    22399224.927       -2501.139
     -1948.939
 113534236.944 8  88468248.93248  21604846.461    21604844.561        2266.242
      1765.904
 118231280.122 8  92128271.93646  22498659.606    22498655.003       -2375.757
     -1851.240
 16  9 14  1  3 30.0000000  0  8G13G15G17G18G19G20G24G28
 108722366.478 9  84718716.83848  20689171.028    20689166.633       -1745.547
     -1360.167
 107160755.374 9  83501876.29449  20392012.415    20392008.185          63.646
        49.595
 124198205.395 8  96777805.57646  23634129.229    23634126.012        2190.311
      1706.737
 121654752.539 8  94795892.97045  23150129.259    23150124.436        1182.538
       921.460
 127951827.328 7  99702723.21446  24348428.120    24348423.611        3404.450
      2652.822
 117783971.334 8  91779707.43846  22413545.519    22413541.234       -2514.291
     -1959.187
 113466388.724 8  88415380.20148  21591935.349    21591933.446        2257.120
      1758.795
 118302718.141 8  92183937.92946  22512253.799    22512249.216       -2386.688
     -1859.757
 16  9 14  1  4  0.0000000  0  8G13G15G17G18G19G20G24G28
 108774950.276 9  84759691.20948  20699177.395    20699173.012       -1760.413
     -1371.752
 107159096.496 9  83500583.66349  20391696.736    20391692.507          46.600
        36.312
 124132673.321 8  96726741.64346  23621658.886    23621655.633        2178.101
      1697.222
 121619522.729 8  94768441.16645  23143425.258    23143420.405        1166.025
       908.591
 127849762.476 7  99623192.14846  24329005.839    24329001.346        3399.528
      2648.985
 117859587.390 8  91838629.02046  22427934.767    22427930.532       -2527.080
     -1969.153
 113398805.621 8  88362718.05548  21579074.679    21579072.784        2248.258
      1751.889
 118374474.160 8  92239851.71346  22525908.507    22525903.940       -2397.396
     -1868.101
 16  9 14  1  4 30.0000000  0  8G13G15G17G18G19G20G24G28
 108827977.785 9  84801011.32848  20709268.199    20709263.834       -1774.802
     -1382.962
 107157948.975 9  83499689.49149  20391478.363    20391474.143          29.888
        23.290
 124067502.962 8  96675959.57646  23609257.366    23609254.086        2166.479
      1688.166
 121584784.524 8  94741372.43145  23136814.809    23136809.925        1149.894
       896.021
 127747847.099 7  99543777.56046  24309612.006    24309607.510        3394.742
      2645.255
 117935588.157 8  91897850.39046  22442397.217    22442393.020       -2539.527
     -1978.852
 113331492.022 8  88310265.90848  21566265.296    21566263.419        2239.328
      1744.932
 118446550.033 8  92296014.71446  22539624.099    22539619.548       -2407.639
     -1876.083
 16  9 14  1  5  0.0000000  0  8G13G15G17G18G19G20G24G28
 108881447.414 9  84842675.95548  20719443.140    20719438.791       -1789.771
     -1394.628
 107157312.595 9  83499193.60349  20391357.261    20391353.059          12.651
         9.857
 124002696.417 8  96625460.99846  23596925.077    23596921.777        2154.210
      1678.607
 121550538.099 8  94714686.89945  23130297.941    23130293.029        1133.337
       883.119
 127646084.128 7  99464481.77946  24290247.127    24290242.617        3389.333
      2641.038
 118011970.292 8  91957368.91446  22456932.250    22456928.097       -2552.434
     -1988.910
 113264448.360 8  88258024.10748  21553507.275    21553505.434        2230.317
      1737.910
 118518942.789 8  92352424.65246  22553399.984    22553395.434       -2418.359
     -1884.437
 16  9 14  1  5 30.0000000  0  8G13G15G17G18G19G20G24G28
 108935359.309 9  84884685.22048  20729702.239    20729697.892       -1804.252
     -1405.910
 107157188.837 9  83499097.16549  20391333.704    20391329.518          -4.236
        -3.301
 123938256.641 8  96575248.20646  23584662.584    23584659.279        2142.083
      1669.157
 121516785.172 8  94688385.92745  23123874.965    23123870.030        1117.121
       870.484
 127544477.728 7  99385307.96346  24270912.060    24270907.544        3384.393
      2637.191
 118088731.722 8  92017182.99146  22471539.467    22471535.351       -2564.815
     -1998.558
 113197675.830 8  88205993.57648  21540800.841    21540799.049        2221.402
      1730.964
 118591650.950 8  92409080.36646  22567235.885    22567231.331       -2428.604
     -1892.418
 16  9 14  1  6  0.0000000  0  9G10G13G15G17G18G19G20G24G28
 130015338.033 6 101310640.20044  24741094.220    24741094.950        2689.765
      2095.921
 108989707.411 9  84927034.37248  20740044.356    20740040.013       -1819.079
     -1417.465
 107157572.615 9  83499396.20949  20391406.737    20391402.560         -21.431
       -16.699
 123874181.290 8  96525319.37746  23572469.438    23572466.135        2129.502
      1659.352
 121483521.504 8  94662466.18845  23117545.095    23117540.136        1100.509
       857.541
 127443025.708 7  99306254.50145  24251606.337    24251601.790        3379.086
      2633.059
 118165864.111 8  92077286.14146  22486217.270    22486213.183       -2577.477
     -2008.424
 113131169.478 8  88154170.46348  21528145.046    21528143.310        2212.149
      1723.752
 118664666.657 8  92465975.70346  22581130.326    22581125.772       -2439.270
     -1900.732
 16  9 14  1  6 30.0000000  0  9G10G13G15G17G18G19G20G24G28
 129934833.951 7 101247909.67746  24725776.963    24725775.086        2677.572
      2086.419
 109044496.690 9  84969727.29848  20750470.421    20750466.089       -1833.209
     -1428.476
 107158470.148 9  83500095.58449  20391577.540    20391573.365         -37.978
       -29.593
 123810478.552 8  96475680.90946  23560347.184    23560343.885        2117.536
      1650.028
 121450753.641 8  94636932.79645  23111309.574    23111304.572        1084.481
       845.052
 127341737.361 7  99227328.48845  24232331.830    24232327.263        3374.193
      2629.241
 118243370.384 8  92137680.62346  22500966.242    22500962.172       -2589.194
     -2017.556
 113064935.999 8  88102559.97048  21515541.193    21515539.502        2203.635
      1717.117
 118737993.664 8  92523113.63546  22595083.988    22595079.426       -2448.877
     -1908.217
 16  9 14  1  7  0.0000000  0  9G10G13G15G17G18G19G20G24G28
 129854710.961 7 101185476.29546  24710530.571    24710528.699        2664.722
      2076.407
 109099724.416 9  85012761.87647  20760979.907    20760975.595       -1847.976
     -1439.982
 107159880.040 9  83501194.19149  20391845.852    20391841.676         -55.257
       -43.059
 123747148.687 8  96426332.99346  23548295.880    23548292.587        2104.884
      1640.172
 121418480.506 8  94611784.89045  23105168.213    23105163.163        1067.776
       832.033
 127240613.886 7  99148531.03246  24213088.627    24213084.024        3368.291
      2624.646
 118321245.648 8  92198362.64146  22515785.434    22515781.366       -2601.678
     -2027.281
 112998974.006 8  88051161.02648  21502989.009    21502987.347        2194.452
      1709.963
 118811627.807 8  92580490.88546  22609096.102    22609091.539       -2459.272
     -1916.317
 16  9 14  1  7 30.0000000  0  9G10G13G15G17G18G19G20G24G28
 129774974.687 7 101123344.08445  24695357.505    24695355.641        2651.723
      2066.273
 109155392.878 9  85056139.88548  20771573.252    20771568.967       -1862.591
     -1451.370
 107161805.223 9  83502694.34349  20392212.206    20392208.023         -72.479
       -56.478
 123684197.288 8  96377279.97946  23536316.598    23536313.305        2092.355
      1630.406
 121386705.884 8  94587025.44545  23099121.711    23099116.611        1051.076
       819.021
 127139661.607 7  99069866.93946  24193878.021    24193873.409        3362.484
      2620.119
 118399490.105 8  92259332.36246  22530674.874    22530670.782       -2613.949
     -2036.842
 112933286.790 8  87999976.19548  21490489.119    21490487.478        2185.396
      1702.906
 118885569.574 8  92638107.85146  22623166.749    22623162.186       -2469.518
     -1924.300
 16  9 14  1  8  0.0000000  0  9G10G13G15G17G18G19G20G24G28
 129695624.025 7 101061512.41646  24680257.659    24680255.635        2638.642
      2056.087
 109211497.865 9  85099858.03748  20782249.675    20782245.418       -1877.382
     -1462.896
 107164243.049 9  83504593.94849  20392676.120    20392671.932         -89.674
       -69.875
 123621623.329 8  96328521.08946  23524409.130    23524405.818        2079.646
      1620.506
 121355427.855 8  94562652.96745  23093169.689    23093164.545        1034.441
       806.059
 127038880.676 7  98991336.35146  24174700.022    24174695.411        3356.539
      2615.484
 118478097.450 8  92320584.82146  22545633.392    22545629.279       -2626.143
     -2046.345
 112867872.017 8  87949003.66148  21478041.072    21478039.450        2176.223
      1695.759
 118959813.659 8  92695960.37446  22637294.939    22637290.379       -2479.684
     -1932.222
 16  9 14  1  8 30.0000000  0  9G10G13G15G17G18G19G20G24G28
 129616659.442 8 100999981.54746  24665231.250    24665229.234        2625.582
      2045.905
 109268036.484 9  85143914.09548  20793008.618    20793004.373       -1891.916
     -1474.221
 107167191.413 9  83506891.36249  20393237.192    20393233.002        -106.864
       -83.271
 123559427.228 8  96280056.62346  23512573.581    23512570.240        2066.763
      1610.467
 121324644.706 8  94538666.09145  23087311.843    23087306.670        1017.647
       792.972
 126938272.215 7  98912940.17946  24155554.838    24155550.217        3350.693
      2610.930
 118557062.338 8  92382115.86946  22560659.951    22560655.835       -2638.213
     -2055.753
 112802728.188 8  87898242.24648  21465644.591    21465642.979        2166.791
      1688.409
 119034355.399 8  92754044.85146  22651479.761    22651475.201       -2489.706
     -1940.031
 16  9 14  1  9  0.0000000  0  9G10G13G15G17G18G19G20G24G28
 129538088.469 7 100938757.39845  24650279.765    24650277.697        2612.773
      2035.927
 109325013.160 9  85188311.48748  20803850.937    20803846.693       -1906.240
     -1485.382
 107170656.665 9  83509591.55649  20393896.614    20393892.423        -123.836
       -96.496
 123497616.851 8  96231892.71446  23500811.449    23500808.060        2054.124
      1600.617
 121294362.348 8  94515069.44745  23081549.289    23081544.092        1001.168
       780.132
 126837844.932 7  98834685.16346  24136444.152    24136439.503        3344.432
      2606.051
 118636387.508 8  92443927.67246  22575755.050    22575750.947       -2649.782
     -2064.766
 112737861.115 8  87847696.48148  21453300.777    21453299.167        2157.865
      1681.454
 119109197.900 8  92812363.68546  22665721.820    22665717.261       -2499.501
     -1947.663
 16  9 14  1  9 30.0000000  0  9G10G13G15G17G18G19G20G24G28
 129459909.950 8 100877839.08446  24635402.899    24635400.743        2599.265
      2025.399
 109382423.359 9  85233046.68848  20814775.756    20814771.506       -1921.096
     -1496.958
 107174635.029 9  83512691.56849  20394653.680    20394649.501        -141.363
      -110.153
 123436190.878 8  96184028.36147  23489122.458    23489119.007        2040.891
      1590.307
 121264578.158 8  94491860.98545  23075881.536    23075876.317         984.365
       767.039
 126737598.612 7  98756571.19746  24117367.879    24117363.189        3338.301
      2601.278
 118716066.222 8  92506014.97946  22590917.412    22590913.314       -2661.870
     -2074.185
 112673267.835 8  87797364.05548  21441009.072    21441007.454        2148.400
      1674.078
 119184335.180 8  92870912.21346  22680019.979    22680015.422       -2509.703
     -1955.611
 16  9 14  1 10  0.0000000  0  9G10G13G15G17G18G19G20G24G28
 129382127.650 7 100817229.51245  24620601.472    24620599.225        2585.941
      2015.019
 109440267.915 9  85278120.35648  20825783.223    20825778.967       -1935.596
     -1508.257
 107179128.129 9  83516192.68149  20395508.689    20395504.527        -158.544
      -123.541
 123375153.200 8  96136466.55847  23477507.372    23477503.875        2027.788
      1580.096
 121235294.722 8  94469042.71746  23070309.082    23070303.839         967.565
       753.946
 126637538.104 7  98678601.96646  24098327.008    24098322.287        3332.200
      2596.520
 118796096.896 8  92568376.52346  22606146.749    22606142.657       -2673.683
     -2083.389
 112608950.720 8  87747246.83548  21428769.916    21428768.279        2139.080
      1666.816
 119259766.532 8  92929689.89446  22694374.097    22694369.533       -2519.439
     -1963.198
 16  9 14  1 10 30.0000000  0  9G10G13G15G17G18G19G20G24G28
 129304746.133 8 100756932.16746  24605876.315    24605873.969        2572.686
      2004.688
 109498547.942 9  85323533.35048  20836873.552    20836869.298       -1950.077
     -1519.540
 107184138.614 9  83520096.95049  20396462.152    20396458.010        -175.739
      -136.939
 123314508.094 8  96089210.66647  23465966.979    23465963.447        2014.804
      1569.979
 121206514.611 8  94446616.66145  23064832.407    23064827.134         950.882
       740.947
 126537668.591 7  98600781.60746  24079322.452    24079317.700        3325.692
      2591.449
 118876479.017 8  92631011.91545  22621442.949    22621438.879       -2685.295
     -2092.438
 112544911.959 9  87697346.51648  21416583.734    21416582.073        2129.927
      1659.685
 119335492.187 9  92988696.89846  22708784.226    22708779.649       -2529.155
     -1970.770
 16  9 14  1 11  0.0000000  0  9G10G13G15G17G18G19G20G24G28
 129227765.337 7 100696947.17445  24591227.357    24591224.931        2558.876
      1993.933
 109557259.894 9  85369282.89847  20848046.079    20848041.835       -1964.712
     -1530.944
 107189664.307 9  83524402.68149  20397513.659    20397509.536        -193.223
      -150.562
 123254255.799 8  96042260.86047  23454501.332    23454497.792        2001.403
      1559.538
 121178236.120 8  94424581.46146  23059451.204    23059445.916         933.939
       727.743
 126437991.336 7  98523111.01846  24060354.515    24060349.730        3318.938
      2586.188
 118957207.061 8  92693916.86846  22636804.966    22636800.920       -2697.005
     -2101.562
 112481150.220 9  87647662.06148  21404450.270    21404448.591        2120.342
      1652.216
 119411507.121 8  93047929.31646  22723249.409    22723244.806       -2539.038
     -1978.470
 16  9 14  1 11 30.0000000  0 10G10G12G13G15G17G18G19G20G24G28
 129151187.378 8 100637276.02945  24576655.054    24576652.630        2545.647
      1983.615
 128698813.465 6 100284777.19144  24490568.682    24490565.241        3992.243
      3110.834
 109616402.922 9  85415368.35048  20859300.638    20859296.407       -1978.802
     -1541.924
 107195705.280 9  83529109.93349  20398663.221    20398659.111        -210.103
      -163.715
 123194398.496 8  95995618.81447  23443110.864    23443107.345        1988.395
      1549.399
 121150460.215 8  94402937.90245  23054165.627    23054160.323         917.497
       714.935
 126338509.699 7  98445592.87646  24041423.777    24041418.961        3312.687
      2581.312
 119038277.936 7  92757088.94746  22652232.238    22652228.218       -2708.130
     -2110.230
 112417665.613 9  87598193.54048  21392369.556    21392367.865        2111.410
      1645.256
 119487808.739 8  93107385.11646  22737769.154    22737764.522       -2548.273
     -1985.666
 16  9 14  1 12  0.0000000  0 10G10G12G13G15G17G18G19G20G24G28
 129075017.045 7 100577922.46546  24562160.371    24562157.895        2532.475
      1973.357
 128579094.758 5 100191489.85044  24467787.151    24467783.833        3989.322
      3108.563
 109675978.855 9  85461791.13647  20870637.574    20870633.354       -1992.934
     -1552.936
 107202264.232 9  83534220.79549  20399911.357    20399907.259        -227.157
      -177.006
 123134940.739 8  95949288.11547  23431796.416    23431792.916        1975.312
      1539.206
 121123189.587 8  94381688.06646  23048976.204    23048970.880         900.691
       701.839
 126239229.089 7  98368231.38246  24022531.288    24022526.445        3306.145
      2576.220
 119119691.113 8  92820527.76646  22667724.639    22667720.631       -2719.239
     -2118.888
 112354461.363 9  87548943.48548  21380342.189    21380340.485        2102.252
      1638.118
 119564397.149 8  93167064.39546  22752343.468    22752338.805       -2557.541
     -1992.889
 16  9 14  1 12 30.0000000  0  9G10G13G15G17G18G19G20G24G28
 128999253.485 8 100518885.98546  24547742.984    24547740.532        2518.398
      1962.388
 109735983.448 9  85508547.94647  20882056.083    20882051.870       -2007.564
     -1564.337
 107209338.164 9  83539732.94549  20401257.485    20401253.388        -244.677
      -190.656
 123075882.020 8  95903268.37147  23420557.890    23420554.416        1961.636
      1528.548
 121096422.010 8  94360830.22446  23043882.507    23043877.157         883.538
       688.473
 126140149.827 7  98291026.77145  24003677.128    24003672.260        3299.049
      2570.690
 119201440.224 8  92884228.36246  22683280.960    22683276.949       -2730.862
     -2127.945
 112291535.185 9  87499910.11648  21368367.736    21368366.013        2092.637
      1630.627
 119641267.130 8  93226963.08546  22766971.351    22766966.660       -2567.375
     -2000.553
 16  9 14  1 13  0.0000000  0 10G10G12G13G15G17G18G19G20G24G28
 128923901.569 6 100460170.10545  24533404.057    24533401.652        2504.569
      1951.614
 128339912.972 6 100005112.08245  24422275.389    24422270.733        3983.183
      3103.781
 109796418.006 9  85555639.79947  20893556.409    20893552.198       -2021.755
     -1575.394
 107216929.993 9  83545648.65449  20402702.160    20402698.062        -261.823
      -204.018
 123017227.035 8  95857563.21947  23409396.194    23409392.756        1948.295
      1518.155
 121070160.858 8  94340366.99146  23038885.194    23038879.818         866.686
       675.341
 126041277.649 7  98213983.52946  23984862.360    23984857.474        3292.147
      2565.309
 119283524.824 8  92948190.38445  22698901.133    22698897.096       -2742.027
     -2136.645
 112228889.962 8  87451095.66548  21356446.750    21356445.009        2083.290
      1623.343
 119718418.679 8  93287081.18146  22781652.802    22781648.092       -2576.602
     -2007.740
 16  9 14  1 13 30.0000000  0 10G10G12G13G15G17G18G19G20G24G28
 128848964.442 8 100401777.57046  24519143.923    24519141.576        2490.889
      1940.953
 128220468.698 7  99912038.62445  24399545.944    24399541.665        3980.113
      3101.388
 109857282.825 9  85603066.90848  20905138.620    20905134.411       -2036.084
     -1586.560
 107225040.964 9  83551968.88549  20404245.623    20404241.525        -279.113
      -217.491
 122958979.042 8  95812175.19747  23398311.952    23398308.540        1934.658
      1507.526
 121044407.393 8  94320299.36046  23033984.496    23033979.101         849.799
       662.180
 125942617.201 7  98137105.26046  23966087.891    23966082.985        3285.145
      2559.854
 119365942.955 8  93012412.27645  22714584.805    22714580.732       -2752.888
     -2145.109
 112166527.182 8  87402501.30548  21344579.500    21344577.742        2073.969
      1616.079
 119795850.670 8  93347417.78146  22796387.625    22796382.908       -2585.879
     -2014.972
 16  9 14  1 14  0.0000000  0 10G10G12G13G15G17G18G19G20G24G28
 128774441.896 7 100343708.03146  24504962.747    24504960.467        2477.163
      1930.257
 128101119.015 7  99819038.88346  24376834.435    24376830.382        3976.500
      3098.571
 109918573.988 9  85650826.24447  20916801.949    20916797.740       -2050.271
     -1597.613
 107233668.266 9  83558691.45449  20405887.332    20405883.239        -296.216
      -230.818
 122901137.739 8  95767104.09147  23387305.090    23387301.689        1921.142
      1496.995
 121019159.588 8  94300625.75046  23029180.026    23029174.617         833.078
       649.151
 125844169.117 7  98060392.50946  23947353.791    23947348.860        3277.931
      2554.231
 119448689.067 8  93076889.74746  22730330.877    22730326.766       -2763.647
     -2153.492
 112104445.065 8  87354125.64448  21332765.652    21332763.889        2064.707
      1608.863
 119873558.180 8  93407969.09846  22811174.850    22811170.129       -2594.838
     -2021.952
 16  9 14  1 14 30.0000000  0 10G10G12G13G15G17G18G19G20G24G28
 128700337.701 7 100285964.51446  24490861.129    24490858.909        2463.216
      1919.393
 127981867.475 8  99726115.60746  24354141.593    24354137.694        3973.228
      3096.021
 109980292.751 9  85698918.76847  20928546.650    20928542.446       -2064.446
     -1608.660
 107242813.654 9  83565817.72549  20407627.627    20407623.542        -313.512
      -244.295
 122843706.952 8  95722352.86047  23376376.348    23376372.946        1907.335
      1486.235
 120994419.851 8  94281348.03346  23024472.246    23024466.826         816.205
       636.004
 125745938.410 7  97983849.11146  23928661.075    23928656.140        3270.725
      2548.620
 119531761.711 8  93141621.65946  22746139.098    22746134.948       -2774.544
     -2161.985
 112042645.415 8  87305970.09048  21321005.547    21321003.791        2055.334
      1601.561
 119951540.568 8  93468734.59546  22826014.387    22826009.669       -2603.910
     -2029.021
 16  9 14  1 15  0.0000000  0 10G10G12G13G15G17G18G19G20G24G28
 128626652.484 7 100228547.41946  24476839.286    24476837.152        2449.162
      1908.436
 127862714.313 8  99633268.97746  24331467.495    24331463.657        3970.059
      3093.552
 110042435.936 9  85747342.00948  20940372.113    20940367.923       -2078.608
     -1619.695
 107252475.823 9  83573346.67949  20409466.269    20409462.190        -330.766
      -257.739
 122786687.273 8  95677921.97347  23365525.838    23365522.433        1893.680
      1475.596
 120970187.106 8  94262465.36246  23019860.953    23019855.531         799.220
       622.768
 125647926.507 7  97907476.19146  23910010.010    23910005.099        3263.312
      2542.842
 119615155.855 8  93206604.07646  22762008.520    22762004.344       -2785.188
     -2170.278
 111981127.505 8  87258034.06948  21309299.055    21309297.317        2045.774
      1594.110
 120029793.690 8  93529711.03746  22840905.456    22840900.750       -2612.938
     -2036.057
 16  9 14  1 15 30.0000000  0 10G10G12G13G15G17G18G19G20G24G28
 128553392.560 7 100171461.75246  24462898.345    24462896.282        2435.066
      1897.454
 127743665.748 8  99540503.85246  24308813.303    24308809.497        3966.749
      3090.973
 110105006.932 9  85796098.59548  20952278.991    20952274.825       -2092.646
     -1630.635
 107262658.691 9  83581281.37149  20411404.001    20411399.929        -347.904
      -271.096
 122730085.168 8  95633816.45947  23354754.798    23354751.387        1880.010
      1464.943
 120946466.194 8  94243981.53046  23015347.045    23015341.630         782.307
       609.588
 125550140.888 7  97831279.64446  23891401.977    23891397.080        3255.708
      2536.917
 119698872.695 8  93271837.95945  22777939.336    22777935.133       -2795.690
     -2178.461
 111919895.737 8  87210321.01748  21297647.009    21297645.293        2036.483
      1586.871
 120108319.333 8  93590899.85646  22855848.369    22855843.675       -2621.896
     -2043.036
 16  9 14  1 16  0.0000000  0 10G10G12G13G15G17G18G19G20G24G28
 128480556.211 7 100114706.13446  24449038.021    24449036.036        2420.468
      1886.074
 127624720.075 8  99447818.91647  24286178.673    24286174.895        3962.668
      3087.793
 110168000.508 9  85845184.49148  20964266.266    20964262.121       -2107.065
     -1641.870
 107273358.545 9  83589618.92049  20413440.101    20413436.041        -365.597
      -284.881
 122673898.663 8  95590034.79747  23344062.831    23344059.422        1865.689
      1453.785
 120923253.220 8  94225893.49946  23010929.776    23010924.384         764.926
       596.045
 125452581.092 7  97755259.04246  23872836.940    23872832.058        3248.130
      2531.014
 119782905.279 8  93337317.89046  22793930.225    22793925.981       -2806.651
     -2187.002
 111858947.092 8  87162828.57948  21286048.838    21286047.142        2026.524
      1579.110
 120187111.351 8  93652296.23246  22870841.977    22870837.301       -2631.087
     -2050.197
 16  9 14  1 16 30.0000000  0 10G10G12G13G15G17G18G19G20G24G28
 128408149.447 7 100058285.27746  24435259.430    24435257.534        2406.425
      1875.134
 127505883.061 7  99355218.66347  24263564.705    24263560.965        3959.312
      3085.179
 110231419.177 9  85894601.61148  20976334.453    20976330.331       -2120.874
     -1652.630
 107284579.257 9  83598362.32449  20415575.323    20415571.280        -382.646
      -298.166
 122618133.858 8  95546581.72747  23333451.113    23333447.713        1851.987
      1443.107
 120900552.676 8  94208204.75346  23006610.004    23006604.661         748.291
       583.084
 125355254.085 7  97679419.83147  23854316.200    23854311.330        3240.422
      2525.005
 119867254.589 8  93403044.60746  22809981.406    22809977.113       -2816.834
     -2194.936
 111798285.874 8  87115560.11048  21274505.358    21274503.684        2017.308
      1571.930
 120266171.158 8  93713901.26446  22885886.553    22885881.902       -2639.591
     -2056.824
 16  9 14  1 17  0.0000000  0 10G10G12G13G15G17G18G19G20G24G28
 128336169.537 7 100002197.04446  24421562.053    24421560.219        2391.853
      1863.780
 127387151.559 7  99262700.64046  24240970.800    24240967.108        3955.525
      3082.229
 110295257.306 9  85944345.59348  20988482.459    20988478.356       -2135.276
     -1663.853
 107296316.035 9  83607507.85649  20417808.753    20417804.721        -400.128
      -311.788
 122562788.292 8  95503455.34347  23322919.173    23322915.787        1837.512
      1431.828
 120878360.201 8  94190911.91146  23002386.890    23002381.617         730.856
       569.498
 125258158.466 7  97603760.91946  23835839.498    23835834.636        3232.301
      2518.677
 119951912.372 8  93469011.69946  22826091.282    22826086.950       -2827.249
     -2203.053
 111737907.479 8  87068512.02248  21263015.699    21263014.041        2007.562
      1564.335
 120345491.635 8  93775709.43246  22900980.722    22900976.089       -2648.654
     -2063.887
 16  9 14  1 17 30.0000000  0 10G10G12G13G15G17G18G19G20G24G28
 128264624.459 7  99946447.63946  24407947.437    24407945.646        2377.158
      1852.334
 127268533.813 6  99170271.25146  24218398.543    24218394.906        3951.806
      3079.331
 110359519.679 9  85994420.15148  21000711.200    21000707.120       -2149.343
     -1674.812
 107308574.677 9  83617060.03349  20420141.498    20420137.472        -417.457
      -325.291
 122507869.572 8  95460661.56547  23312468.458    23312465.094        1823.309
      1420.762
 120856682.018 8  94174019.81146  22998261.635    22998256.450         713.907
       556.290
 125161303.307 7  97528289.37247  23817408.570    23817403.709        3224.405
      2512.526
 120036881.175 8  93535221.12046  22842260.363    22842256.002       -2837.571
     -2211.095
 111677818.243 8  87021689.24148  21251581.081    21251579.428        1997.986
      1556.873
 120425076.123 8  93837723.31146  22916125.140    22916120.528       -2657.341
     -2070.655
 16  9 14  1 18  0.0000000  0 10G10G12G13G15G17G18G19G20G24G28
 128193512.970 7  99891036.08145  24394415.343    24394413.590        2362.848
      1841.181
 127150028.126 6  99077929.22645  24195847.548    24195843.976        3948.055
      3076.410
 110424201.541 9  86044821.58848  21013019.760    21013015.701       -2163.286
     -1685.677
 107321351.746 9  83627016.18949  20422572.895    20422568.861        -434.848
      -338.842
 122453376.533 8  95418199.48247  23302098.755    23302095.403        1809.030
      1409.636
 120835515.463 8  94157526.39546  22994233.722    22994228.632         696.701
       542.887
 125064688.487 8  97453005.12346  23799023.359    23799018.522        3216.037
      2506.003
 120122154.775 8  93601668.06546  22858487.430    22858483.044       -2847.779
     -2219.050
 111618015.734 9  86975089.89148  21240201.025    21240199.358        1988.332
      1549.351
 120504918.970 8  93899938.51846  22931318.716    22931314.118       -2666.056
     -2077.445
 16  9 14  1 18 30.0000000  0 10G10G12G13G15G17G18G19G20G24G28
 128122839.459 7  99835965.81946  24380966.580    24380964.847        2348.829
      1830.255
 127031638.919 5  98985677.94545  24173318.684    24173315.212        3944.446
      3073.603
 110489304.362 9  86095551.04548  21025408.420    21025404.382       -2176.762
     -1696.179
 107334649.643 9  83637378.18249  20425103.404    20425099.360        -451.666
      -351.948
 122399313.600 8  95376072.54447  23291810.908    23291807.553        1795.275
      1398.916
 120814863.008 8  94141433.57546  22990303.638    22990298.645         680.083
       529.935
 124968319.760 8  97377912.63146  23780684.982    23780680.157        3208.516
      2500.143
 120207732.202 8  93668351.78545  22874772.299    22874767.866       -2857.330
     -2226.490
 111558502.358 9  86928715.84248  21228875.994    21228874.302        1979.351
      1542.351
 120585020.012 8  93962354.91646  22946561.428    22946556.840       -2673.996
     -2083.633
 16  9 14  1 19  0.0000000  0 10G10G12G13G15G17G18G19G20G24G28
 128052602.610 7  99781235.81245  24367600.920    24367599.182        2333.777
      1818.528
 126913364.947 6  98893516.41344  24150811.732    24150808.385        3940.276
      3070.341
 110554823.401 9  86146604.82548  21037876.285    21037872.269       -2191.266
     -1707.480
 107348464.416 9  83648142.93848  20427732.267    20427728.215        -469.443
      -365.800
 122345679.250 8  95334279.58247  23281604.602    23281601.234        1780.415
      1387.338
 120794721.296 8  94125738.73446  22986470.752    22986465.845         662.672
       516.368
 124872196.627 8  97303011.50746  23762393.353    23762388.535        3199.673
      2493.253
 120293606.776 8  93735267.02145  22891113.731    22891109.253       -2867.665
     -2234.545
 111499275.365 9  86882564.94148  21217605.474    21217603.751        1969.121
      1534.380
 120665373.569 8  94024968.08046  22961852.195    22961847.615       -2683.016
     -2090.661
 16  9 14  1 19 30.0000000  0 10G10G12G13G15G17G18G19G20G24G28
 127982807.410 7  99726849.96946  24354319.282    24354317.527        2319.209
      1807.179
 126795210.922 6  98801448.31644  24128327.645    24128324.358        3936.641
      3067.511
 110620760.438 9  86197984.31248  21050423.701    21050419.703       -2204.778
     -1718.010
 107362798.894 9  83659312.65148  20430460.031    20430455.973        -486.396
      -379.010
 122292478.771 8  95292824.69147  23271480.861    23271477.495        1766.261
      1376.310
 120775093.930 8  94110444.68546  22982735.751    22982730.913         645.750
       503.182
 124776325.447 8  97228306.72647  23744149.657    23744144.849        3191.524
      2486.902
 120379778.437 8  93802413.74546  22907511.693    22907507.192       -2877.261
     -2242.021
 111440338.234 9  86836639.91448  21206390.112    21206388.354        1959.854
      1527.159
 120745980.211 8  94087778.44646  22977191.133    22977186.559       -2690.999
     -2096.883
 16  9 14  1 20  0.0000000  0 10G10G12G13G15G17G18G19G20G24G28
 127913454.533 7  99672808.72646  24341121.875    24341120.118        2304.008
      1795.328
 126677177.562 7  98709474.22545  24105866.588    24105863.292        3932.193
      3064.046
 110687112.710 9  86249687.36448  21063050.132    21063046.141       -2219.037
     -1729.121
 107377651.779 9  83670886.31949  20433286.447    20433282.381        -504.203
      -392.886
 122239712.687 8  95251708.27547  23261439.790    23261436.426        1751.134
      1364.519
 120755979.758 8  94095550.52346  22979098.414    22979093.637         628.268
       489.560
 124680707.908 8  97153799.59047  23725954.227    23725949.437        3182.689
      2480.020
 120466242.531 8  93869788.34645  22923965.297    22923960.777       -2887.368
     -2249.897
 111381690.042 9  86790940.02848  21195229.740    21195227.946        1949.714
      1519.258
 120826835.945 8  94150782.90846  22992577.479    22992572.906       -2699.672
     -2103.641
 16  9 14  1 20 30.0000000  0 10G10G12G13G15G17G18G19G20G24G28
 127844546.990 7  99619114.54446  24328009.184    24328007.414        2289.321
      1783.885
 126559267.864 8  98617596.53245  24083429.086    24083425.760        3928.248
      3060.974
 110753880.111 9  86301713.89448  21075755.560    21075751.570       -2232.572
     -1739.667
 107393023.725 9  83682864.44549  20436211.646    20436207.571        -521.131
      -406.076
 122187383.982 8  95210932.67547  23251481.947    23251478.585        1736.921
      1353.445
 120737380.038 8  94081057.22046  22975558.984    22975554.265         611.447
       476.451
 124585348.508 8  97079493.55447  23707807.965    23707803.180        3174.303
      2473.483
 120552996.819 8  93937389.06346  22940474.124    22940469.587       -2896.694
     -2257.165
 111323332.069 9  86745466.28548  21184124.598    21184122.772        1940.331
      1511.947
 120907939.464 8  94213980.45146  23008010.980    23008006.405       -2707.502
     -2109.741
 16  9 14  1 21  0.0000000  0 10G10G12G13G15G17G18G19G20G24G28
 127776089.656 7  99565771.16745  24314982.170    24314980.393        2274.312
      1772.191
 126441486.134 8  98525818.54445  24061015.982    24061012.625        3924.073
      3057.719
 110821064.013 9  86354064.96847  21088540.251    21088536.259       -2246.425
     -1750.462
 107408917.603 9  83695249.27949  20439236.165    20439232.074        -538.504
      -419.613
 122135497.133 8  95170501.39747  23241608.170    23241604.806        1722.193
      1341.968
 120719297.506 8  94066966.92546  22972117.970    22972113.294         594.151
       462.973
 124490252.950 8  97005393.16846  23689711.868    23689707.084        3165.539
      2466.656
 120640040.748 8  94005215.47645  22957038.064    22957033.507       -2906.355
     -2264.693
 111265267.526 9  86700221.19348  21173075.290    21173073.442        1930.658
      1504.409
 120989291.133 8  94277371.33846  23023491.720    23023487.145       -2715.854
     -2116.252
 16  9 14  1 21 30.0000000  0 10G10G12G13G15G17G18G19G20G24G28
 127708081.276 7  99512777.61646  24302040.596    24302038.817        2259.562
      1760.694
 126323831.405 8  98434139.51646  24038627.071    24038623.672        3919.742
      3054.344
 110888660.404 9  86406737.45847  21101403.443    21101399.448       -2260.046
     -1761.076
 107425330.374 9  83708038.43948  20442359.435    20442355.324        -555.757
      -433.059
 122084051.437 8  95130413.86046  23231818.356    23231814.994        1707.528
      1330.542
 120701729.654 8  94053277.67246  22968774.904    22968770.266         576.936
       449.560
 124395421.975 8  96931498.93146  23671666.132    23671661.344        3156.699
      2459.768
 120727368.360 8  94073262.94646  22973655.987    22973651.402       -2915.595
     -2271.893
 111207494.481 9  86655203.23148  21162081.455    21162079.595        1920.982
      1496.869
 121070885.617 8  94340951.47146  23039018.635    23039014.051       -2723.829
     -2122.465
 16  9 14  1 22  0.0000000  0 10G10G12G13G15G17G18G19G20G24G28
 127640524.642 7  99460136.08746  24289184.985    24289183.201        2244.137
      1748.682
 126206306.268 8  98342561.49346  24016262.812    24016259.363        3915.013
      3050.662
 110956668.283 9  86459730.59247  21114344.939    21114340.935       -2273.980
     -1771.934
 107442262.122 9  83721232.00548  20445581.458    20445577.318        -573.178
      -446.631
 122033049.242 8  95090671.90747  23222112.948    23222109.579        1692.451
      1318.793
 120684677.172 8  94039990.01146  22965529.913    22965525.300         559.679
       436.114
 124300859.225 7  96857813.66746  23653671.464    23653666.680        3147.418
      2452.535
 120814976.801 8  94141529.24146  22990327.355    22990322.748       -2924.863
     -2279.115
 111150013.266 9  86610412.68148  21151143.141    21151141.272        1911.094
      1489.164
 121152721.449 8  94404719.64646  23054591.490    23054586.910       -2732.162
     -2128.957
 16  9 14  1 22 30.0000000  0 10G10G12G13G15G17G18G19G20G24G28
 127573423.890 8  99407849.78346  24276416.139    24276414.360        2229.366
      1737.167
 126088915.005 7  98251087.80146  23993924.021    23993920.533        3911.061
      3047.580
 111025089.110 9  86513045.50447  21127365.023    21127361.005       -2287.271
     -1782.290
 107459714.786 9  83734831.46448  20448902.617    20448898.451        -590.132
      -459.843
 121982494.878 8  95051278.92547  23212492.753    23212489.370        1677.937
      1307.484
 120668142.266 8  94027105.65446  22962383.426    22962378.820         542.726
       422.903
 124206569.845 8  96784341.45146  23635728.778    23635724.005        3138.542
      2445.615
 120902865.209 8  94210013.67246  23007052.024    23007047.410       -2934.040
     -2286.267
 111092826.998 9  86565851.95448  21140260.951    21140259.083        1901.706
      1481.850
 121234798.043 8  94468675.41946  23070210.161    23070205.589       -2739.525
     -2134.695
 16  9 14  1 23  0.0000000  0 10G10G12G13G15G17G18G19G20G24G28
 127506780.179 7  99355919.59046  24263734.297    24263732.525        2213.812
      1725.046
 125971658.815 8  98159719.34546  23971610.941    23971607.430        3905.976
      3043.616
 111093920.573 9  86566680.40247  21140463.242    21140459.202       -2301.238
     -1793.174
 107477687.365 9  83748836.06748  20452322.700    20452318.509        -607.744
      -473.567
 121932389.345 8  95012235.66646  23202957.983    23202954.586        1662.608
      1295.538
 120652124.768 8  94014624.47345  22959335.418    22959330.799         525.276
       409.305
 124112556.456 7  96711084.29046  23617838.607    23617833.855        3129.145
      2438.296
 120991029.530 8  94278713.12846  23023829.169    23023824.549       -2943.432
     -2293.584
 111035935.156 9  86521520.65948  21129434.780    21129432.917        1891.452
      1473.858
 121317112.217 8  94532816.33246  23085874.024    23085869.468       -2747.798
     -2141.141
 16  9 14  1 23 30.0000000  0 10G10G12G13G15G17G18G19G20G24G28
 127440595.929 7  99304347.45946  24251139.850    24251138.067        2198.557
      1713.162
 125854540.132 7  98068458.04146  23949324.019    23949320.492        3901.925
      3040.461
 111163161.733 9  86620634.52847  21153639.429    21153635.377       -2314.895
     -1803.814
 107496180.189 9  83763246.05049  20455841.783    20455837.578        -625.133
      -487.116
 121882735.232 8  94973544.17647  23193509.112    23193505.680        1647.689
      1283.916
 120636625.038 8  94002546.73746  22956385.957    22956381.320         508.134
       395.946
 124018822.793 8  96638045.08646  23600001.668    23599996.935        3119.740
      2430.966
 121079467.200 8  94347625.58646  23040658.329    23040653.700       -2952.400
     -2300.571
 110979338.592 9  86477419.45148  21118664.792    21118662.949        1881.645
      1466.217
 121399662.352 8  94597141.11346  23101582.783    23101578.244       -2755.559
     -2147.188
 16  9 14  1 24  0.0000000  0 10G10G12G13G15G17G18G19G20G24G28
 127374871.637 7  99253133.72546  24238632.939    24238631.160        2183.166
      1701.167
 125737559.035 7  97977303.99146  23927063.243    23927059.695        3897.074
      3036.683
 111232809.821 9  86674905.74147  21166893.045    21166888.988       -2328.394
     -1814.333
 107515191.452 9  83778060.00749  20459459.523    20459455.315        -642.453
      -500.613
 121833532.603 8  94935204.49247  23184146.158    23184142.684        1632.506
      1272.083
 120621641.873 8  93990871.53945  22953534.784    22953530.114         490.761
       382.409
 123925370.527 8  96565225.15546  23582218.276    23582213.567        3110.399
      2423.687
 121168173.292 8  94416747.18746  23057538.578    23057533.935       -2961.392
     -2307.579
 110923036.355 9  86433547.59248  21107950.810    21107948.992        1871.709
      1458.474
 121482444.280 8  94661646.50046  23117335.655    23117331.142       -2763.339
     -2153.252
 16  9 14  1 24 30.0000000  0 10G10G12G13G15G17G18G19G20G24G28
 127309611.503 7  99202281.67346  24226214.350    24226212.574        2167.607
      1689.046
 125620720.206 7  97886260.80146  23904829.544    23904825.980        3892.464
      3033.091
 111302865.737 9  86729494.74547  21180224.253    21180220.195       -2341.928
     -1824.879
 107534723.173 9  83793279.52449  20463176.294    20463172.090        -659.621
      -513.990
 121784785.898 8  94897220.06747  23174869.967    23174866.450        1617.248
      1260.193
 120607177.335 8  93979600.47146  22950782.299    22950777.590         473.583
       369.025
 123832205.446 8  96492629.00446  23564489.532    23564484.836        3100.714
      2416.141
 121257146.581 8  94486077.00146  23074469.661    23074465.011       -2970.054
     -2314.329
 110867031.162 9  86389907.19448  21097293.355    21097291.570        1862.025
      1450.930
 121565458.091 8  94726332.58346  23133132.650    23133128.157       -2770.879
     -2159.126
 16  9 14  1 25  0.0000000  0 10G10G12G13G15G17G18G19G20G24G28
 127244816.430 7  99151792.00146  24213884.254    24213882.496        2152.381
      1677.182
 125504024.379 7  97795329.04546  23882623.063    23882619.483        3887.725
      3029.397
 111373327.278 9  86784399.82447  21193632.634    21193628.578       -2355.330
     -1835.322
 107554773.969 9  83808903.51249  20466991.845    20466987.643        -676.859
      -527.423
 121736495.659 8  94859591.33647  23165680.631    23165677.079        1602.264
      1248.518
 120593230.721 8  93968732.98146  22948128.371    22948123.622         456.480
       355.700
 123739329.667 8  96420258.28446  23546815.844    23546811.157        3091.291
      2408.799
 121346383.292 8  94555612.08045  23091450.859    23091446.210       -2978.678
     -2321.047
 110811322.278 9  86346497.67848  21086692.291    21086690.541        1852.225
      1443.292
 121648700.075 8  94791196.45945  23148973.070    23148968.587       -2778.332
     -2164.936
 16  9 14  1 25 30.0000000  0 10G10G12G13G15G17G18G19G20G24G28
 127180488.626 7  99101666.44246  24201643.075    24201641.326        2136.427
      1664.749
 125387473.872 7  97704510.47245  23860444.280    23860440.694        3882.515
      3025.337
 111444193.407 9  86839620.17647  21207117.994    21207113.944       -2368.969
     -1845.949
 107575343.909 9  83824932.03549  20470906.182    20470901.978        -694.369
      -541.066
 121688664.163 8  94822320.06547  23156578.587    23156575.014        1586.612
      1236.321
 120579802.765 8  93958269.61845  22945573.151    22945568.379         438.898
       341.997
 123646746.466 8  96348115.55246  23529197.831    23529193.141        3081.181
      2400.920
 121435880.298 8  94625350.01545  23108481.569    23108476.909       -2987.582
     -2327.985
 110755911.274 9  86303320.29348  21076147.903    21076146.178        1841.947
      1435.286
 121732168.592 8  94856236.86345  23164856.590    23164852.116       -2786.276
     -2171.124
 16  9 14  1 26  0.0000000  0 10G10G12G13G15G17G18G19G20G24G28
 127116633.960 7  99051909.56346  24189491.928    24189490.194        2120.777
      1652.553
 125271074.576 8  97613809.72946  23838294.274    23838290.669        3877.606
      3021.511
 111515466.678 9  86895157.75547  21220680.854    21220676.830       -2382.544
     -1856.528
 107596436.526 9  83841367.82848  20474919.990    20474915.785        -711.785
      -554.637
 121641297.491 8  94785411.01547  23147564.972    23147561.399        1571.298
      1224.391
 120566897.021 8  93948213.19645  22943117.275    22943112.482         421.481
       328.427
 123554462.953 8  96276206.33446  23511636.854    23511632.167        3071.139
      2393.095
 121525638.007 8  94695291.08245  23125561.902    23125557.223       -2996.228
     -2334.722
 110700801.573 9  86260377.67148  21065660.870    21065659.167        1831.993
      1427.528
 121815864.911 8  94921454.77845  23180783.462    23180778.986       -2793.521
     -2176.768
 16  9 14  1 26 30.0000000  0 10G10G12G13G15G17G18G19G20G24G28
 127053247.559 7  99002517.55246  24177429.889    24177428.191        2105.021
      1640.272
 125154821.673 8  97523223.08945  23816172.097    23816168.465        3872.534
      3017.561
 111587138.995 9  86951006.28647  21234319.656    21234315.659       -2395.822
     -1866.876
 107618044.677 9  83858205.33648  20479031.898    20479027.694        -729.045
      -568.087
 121594390.330 8  94748859.99047  23138638.823    23138635.272        1555.753
      1212.276
 120554506.861 8  93938558.51245  22940759.516    22940754.716         404.291
       315.031
 123462475.993 8  96204528.20246  23494132.308    23494127.620        3061.238
      2385.382
 121615647.671 8  94765428.46445  23142690.184    23142685.491       -3004.569
     -2341.223
 110645987.861 9  86217665.68748  21055230.170    21055228.476        1822.132
      1419.842
 121899780.131 8  94986843.23745  23196752.013    23196747.548       -2800.940
     -2182.552
 16  9 14  1 27  0.0000000  0 10G10G12G13G15G17G18G19G20G24G28
 126990337.893 7  98953497.06446  24165458.525    24165456.870        2089.260
      1627.997
 125038723.546 8  97432757.01245  23794079.405    23794075.752        3867.544
      3013.670
 111659215.548 9  87007169.82147  21248035.385    21248031.405       -2408.990
     -1877.135
 107640174.696 9  83875449.50449  20483243.101    20483238.898        -746.066
      -581.350
 121547951.366 8  94712673.80547  23129801.762    23129798.228        1540.526
      1200.411
 120542638.852 8  93929310.71746  22938501.096    22938496.299         387.240
       301.745
 123370795.270 8  96133088.71246  23476686.019    23476681.337        3051.154
      2377.524
 121705911.342 8  94835763.78845  23159866.799    23159862.101       -3012.644
     -2347.514
 110591476.548 9  86175189.35848  21044857.005    21044855.308        1812.246
      1412.142
 121983918.599 8  95052405.68645  23212763.028    23212758.554       -2807.927
     -2187.996
 16  9 14  1 27 30.0000000  0 10G10G12G13G15G17G18G19G20G24G28
 126927901.763 7  98904845.50746  24153577.312    24153575.700        2072.822
      1615.187
 124922777.197 8  97342409.11044  23772015.667    23772011.981        3861.954
      3009.312
 111731689.992 9  87063643.37447  21261826.854    21261822.896       -2422.790
     -1887.888
 107662821.218 9  83893096.13149  20487552.595    20487548.405        -763.778
      -595.152
 121501977.210 8  94676849.81047  23121053.145    23121049.629        1524.382
      1187.830
 120531287.905 8  93920465.79446  22936341.086    22936336.318         369.344
       287.800
 123279418.892 8  96061886.34646  23459297.675    23459293.003        3040.396
      2369.140
 121796421.054 7  94906290.81446  23177090.247    23177085.558       -3021.533
     -2354.442
 110537263.421 9  86132945.37148  21034540.599    21034538.900        1801.774
      1403.981
 122068272.788 8  95118136.22545  23228815.096    23228810.618       -2815.670
     -2194.026
 16  9 14  1 28  0.0000000  0 10G10G12G13G15G17G18G19G20G24G28
 126865944.981 7  98856567.51646  24141787.279    24141785.692        2057.225
      1603.033
 124806988.647 8  97252184.27645  23749981.875    23749978.106        3857.048
      3005.491
 111804565.113 9  87120429.16147  21275694.559    21275690.615       -2435.843
     -1898.061
 107685987.630 9  83911147.87449  20491961.012    20491956.840        -780.854
      -608.458
 121456473.632 8  94641392.50747  23112394.065    23112390.560        1508.786
      1175.679
 120520458.067 8  93912026.96846  22934280.208    22934275.467         352.127
       274.385
 123188354.188 8  95990926.86746  23441968.631    23441963.957        3030.269
      2361.250
 121887177.710 7  94977010.26845  23194360.673    23194356.003       -3029.348
     -2360.532
 110483352.509 9  86090936.88048  21024281.702    21024280.001        1792.030
      1396.388
 122152844.305 8  95184036.10245  23244908.528    23244904.041       -2822.559
     -2199.396
 16  9 14  1 28 30.0000000  0 10G10G12G13G15G17G18G19G20G24G28
 126804467.543 7  98808663.00646  24130088.481    24130086.934        2041.316
      1590.636
 124691357.984 8  97162082.44045  23727978.149    23727974.302        3851.636
      3001.273
 111877837.565 9  87177524.56247  21289637.872    21289633.934       -2449.078
     -1908.372
 107709671.407 9  83929602.75949  20496467.884    20496463.732        -798.146
      -621.932
 121411440.532 8  94606301.81147  23103824.515    23103821.019        1493.194
      1163.530
 120510147.580 8  93903992.79546  22932318.175    22932313.477         334.943
       260.992
 123097602.361 8  95920211.17047  23424699.137    23424694.475        3019.683
      2353.000
 121978176.327 7  95047918.26945  23211677.126    23211672.465       -3037.261
     -2366.697
 110429742.555 9  86049162.89948  21014080.078    21014078.377        1781.922
      1388.511
 122237629.068 8  95250102.14145  23261042.540    23261038.054       -2829.795
     -2205.037
 16  9 14  1 29  0.0000000  0 10G10G12G13G15G17G18G19G20G24G28
 126743472.197 7  98761134.19446  24118481.407    24118479.877        2024.830
      1577.792
 124575887.920 8  97072105.78046  23706004.952    23706001.019        3846.273
      2997.098
 111951506.378 9  87234928.80947  21303656.614    21303652.682       -2462.433
     -1918.778
 107733873.560 9  83948461.58249  20501073.397    20501069.265        -815.578
      -635.515
 121366880.537 8  94571579.76247  23095345.000    23095341.508        1477.254
      1151.108
 120500356.989 8  93896363.77246  22930455.047    22930450.389         317.529
       247.427
 123007167.715 8  95849742.63547  23407489.995    23407485.355        3009.030
      2344.699
 122069414.355 7  95119012.82445  23229039.132    23229034.469       -3045.181
     -2372.869
 110376435.223 9  86007624.73248  21003936.033    21003934.332        1771.633
      1380.493
 122322625.412 8  95316333.06445  23277216.799    23277212.308       -2836.808
     -2210.498
 16  9 14  1 29 30.0000000  0 10G10G12G13G15G17G18G19G20G24G28
 126682960.045 7  98713981.86646  24106966.327    24106964.792        2009.205
      1565.617
 124460579.646 8  96982255.20746  23684062.513    23684058.514        3840.978
      2992.973
 112025569.737 9  87292640.49447  21317750.435    21317746.506       -2475.105
     -1928.654
 107758593.084 9  83967723.53448  20505777.375    20505773.270        -832.443
      -648.658
 121322794.720 8  94537227.21847  23086955.705    23086952.216        1461.771
      1139.045
 120491086.111 8  93889139.69045  22928690.836    22928686.222         300.654
       234.275
 122917052.667 8  95779523.14147  23390341.664    23390337.051        2998.556
      2336.536
 122160888.148 8  95190291.09046  23246446.005    23246441.350       -3052.877
     -2378.865
 110323430.145 9  85966322.07848  20993849.508    20993847.804        1761.950
      1372.948
 122407830.399 8  95382726.56145  23293430.766    23293426.272       -2843.393
     -2215.631
 16  9 14  1 30  0.0000000  0 10G10G12G13G15G17G18G19G20G24G28
 126622934.665 7  98667208.84946  24095543.880    24095542.326        1992.617
      1552.690
 124345436.533 8  96892533.32946  23662151.497    23662147.453        3835.341
      2988.578
 112100028.487 9  87350660.28147  21331919.489    21331915.557       -2488.544
     -1939.125
 107783831.051 9  83987389.47448  20510580.001    20510575.928        -849.912
      -662.270
 121279186.563 8  94503246.86047  23078657.321    23078653.829        1445.526
      1126.385
 120482335.972 8  93882321.38646  22927025.712    22927021.137         282.984
       220.505
 122827262.238 8  95709556.58747  23373255.115    23373250.529        2987.493
      2327.917
 122252595.769 8  95261751.55146  23263897.381    23263892.742       -3060.762
     -2385.013
 110270729.304 9  85925256.49048  20983820.882    20983819.166        1751.597
      1364.880
 122493243.639 8  95449282.33445  23309684.360    23309679.862       -2850.554
     -2221.211
 16  9 14  1 30 30.0000000  0 10G10G12G13G15G17G18G19G20G24G28
 126563396.795 7  98620815.68546  24084214.228    24084212.655        1975.933
      1539.691
 124230459.877 8  96802941.13446  23640272.177    23640268.096        3829.663
      2984.154
 112174879.861 9  87408986.01347  21346163.250    21346159.309       -2501.806
     -1949.459
 107809585.807 9  84007458.10548  20515480.963    20515476.920        -867.339
      -675.849
 121236056.847 8  94469639.32047  23070449.980    23070446.484        1429.474
      1113.877
 120474105.562 8  93875908.07545  22925459.484    22925454.931         265.503
       206.884
 122737798.551 8  95639844.64647  23356230.732    23356226.182        2976.362
      2319.244
 122344533.421 8  95333391.24945  23281392.536    23281387.924       -3068.680
     -2391.180
 110218332.830 9  85884428.07348  20973850.175    20973848.449        1741.190
      1356.772
 122578861.725 8  95515997.71345  23325976.950    23325972.444       -2857.454
     -2226.588
 16  9 14  1 31  0.0000000  0 10G10G12G13G15G17G18G19G20G24G28
 126504349.091 8  98574804.48346  24072977.844    24072976.249        1959.666
      1527.013
 124115653.104 8  96713481.33446  23618425.173    23618421.049        3823.458
      2979.319
 112250123.248 9  87467617.20147  21360481.609    21360477.662       -2515.056
     -1959.784
 107835857.702 9  84027929.70348  20520480.325    20520476.305        -884.819
      -689.470
 121193408.119 8  94436406.58047  23062334.168    23062330.673        1413.190
      1101.188
 120466395.776 8  93869900.44245  22923992.337    22923987.789         247.839
       193.120
 122648665.748 8  95570390.53746  23339269.310    23339264.802        2964.971
      2310.367
 122436698.648 8  95405208.30346  23298930.987    23298926.395       -3076.414
     -2397.206
 110166241.311 9  85843837.28948  20963937.493    20963935.761        1730.931
      1348.778
 122664683.283 8  95582871.66145  23342308.247    23342303.729       -2864.448
     -2232.037
 16  9 14  1 31 30.0000000  0 10G10G12G13G15G17G18G19G20G24G28
 126445794.117 8  98529177.23946  24061835.208    24061833.581        1943.355
      1514.301
 124001018.450 7  96624155.65146  23596610.915    23596606.762        3818.076
      2975.123
 112325758.057 9  87526553.39747  21374874.440    21374870.498       -2527.712
     -1969.646
 107862647.203 9  84048804.63348  20525578.179    20525574.177        -901.613
      -702.557
 121151242.661 8  94403550.41147  23054310.320    23054306.833        1397.435
      1088.910
 120459207.205 8  93864298.94845  22922624.389    22922619.831         230.865
       179.896
 122559867.798 8  95501197.33947  23322371.620    23322367.138        2954.391
      2302.124
 122529088.932 8  95477200.72446  23316512.273    23316507.698       -3083.436
     -2402.677
 110114456.329 9  85803485.36548  20954083.135    20954081.408        1721.008
      1341.045
 122750706.718 8  95649902.90745  23358677.969    23358673.432       -2870.822
     -2237.005
 16  9 14  1 32  0.0000000  0 10G10G12G13G15G17G18G19G20G24G28
 126387732.786 8  98483934.65346  24050786.502    24050784.837        1926.436
      1501.119
 123886557.048 7  96534964.97346  23574829.616    23574825.447        3812.072
      2970.447
 112401781.772 9  87585792.62347  21389341.276    21389337.357       -2541.087
     -1980.067
 107889952.851 9  84070081.75348  20530774.253    20530770.270        -919.264
      -716.309
 121109561.422 8  94371071.54747  23046378.622    23046375.145        1380.742
      1075.904
 120452538.823 8  93859102.79745  22921355.446    22921350.853         213.111
       166.062
 122471407.382 8  95432267.15946  23305538.154    23305533.700        2942.639
      2292.964
 122621700.319 8  95549365.43346  23334135.637    23334131.075       -3091.150
     -2408.688
 110062977.665 9  85763372.12848  20944287.065    20944285.346        1710.475
      1332.838
 122836928.941 8  95717089.05745  23375085.518    23375080.969       -2877.822
     -2242.458
 16  9 14  1 32 30.0000000  0 10G10G12G13G15G17G18G19G20G24G28
 126330166.747 8  98439077.97746  24039832.067    24039830.387        1910.378
      1488.603
 123772270.734 7  96445910.74746  23553081.611    23553077.437        3806.353
      2965.991
 112478193.251 9  87645334.00547  21403881.895    21403878.009       -2553.744
     -1989.931
 107917774.322 9  84091760.82248  20536068.479    20536064.520        -936.201
      -729.507
 121068365.893 8  94338971.16147  23038539.352    23038535.877        1364.767
      1063.456
 120446390.505 8  93854311.89245  22920185.483    22920180.832         196.117
       152.818
 122383287.208 8  95363602.11946  23288769.422    23288764.985        2931.585
      2284.354
 122714529.393 8  95621699.74646  23351800.444    23351795.912       -3098.131
     -2414.128
 110011805.520 9  85723497.74248  20934549.320    20934547.608        1700.357
      1324.955
 122923347.516 8  95784428.21245  23391530.426    23391525.860       -2884.059
     -2247.317
 16  9 14  1 33  0.0000000  0 10G10G12G13G15G17G18G19G20G24G28
 126273099.193 8  98394609.76146  24028972.458    24028970.762        1893.932
      1475.791
 123658162.867 8  96356995.53746  23531367.584    23531363.424        3800.740
      2961.616
 112554992.271 9  87705177.37847  21418496.256    21418492.400       -2566.522
     -1999.888
 107946112.419 9  84113842.44748  20541461.025    20541457.098        -953.146
      -742.711
 121027659.285 8  94307251.74047  23030793.135    23030789.659        1348.645
      1050.894
 120440763.379 8  93849927.09845  22919114.720    22919109.996         178.929
       139.426
 122295512.133 8  95295205.96746  23272066.373    23272061.953        2920.069
      2275.382
 122807574.297 7  95694202.24646  23369506.321    23369501.820       -3105.089
     -2419.551
 109960942.076 9  85683863.88748  20924870.332    20924868.621        1690.265
      1317.090
 123009961.623 8  95851919.69645  23408012.569    23408008.002       -2890.439
     -2252.290
 16  9 14  1 33 30.0000000  0 10G10G12G13G15G17G18G19G20G24G28
 126216531.773 7  98350531.24046  24018208.037    24018206.323        1877.364
      1462.883
 123544235.262 8  96268220.76946  23509687.882    23509683.725        3794.439
      2956.705
 112632177.349 9  87765321.57947  21433184.091    21433180.253       -2579.313
     -2009.854
 107974966.418 9  84136326.07349  20546951.754    20546947.858        -970.481
      -756.220
 120987443.053 8  94275914.44747  23023140.221    23023136.743        1332.214
      1038.090
 120435657.292 8  93845948.31145  22918143.111    22918138.307         161.463
       125.815
 122208085.243 8  95227081.13446  23255429.583    23255425.172        2908.338
      2266.239
 122900832.127 7  95766870.65646  23387252.719    23387248.263       -3112.042
     -2424.969
 109910387.691 9  85644470.86548  20915250.155    20915248.429        1679.926
      1309.034
 123096768.952 8  95919561.77045  23424531.454    23424526.883       -2896.976
     -2257.385
 16  9 14  1 34  0.0000000  0 10G10G12G13G15G17G18G19G20G24G28
 126160466.186 8  98306843.76546  24007539.097    24007537.374        1860.207
      1449.510
 123430489.730 8  96179587.89146  23488042.822    23488038.656        3788.232
      2951.869
 112709747.077 9  87825765.50847  21447945.128    21447941.295       -2592.404
     -2020.056
 108004335.973 9  84159211.42248  20552540.604    20552536.737        -987.944
      -769.827
 120947718.792 8  94244960.48847  23015580.945    23015577.456        1315.609
      1025.150
 120431071.738 8  93842375.13345  22917270.558    22917265.674         143.909
       112.134
 122121009.825 8  95159230.15946  23238859.688    23238855.285        2896.331
      2256.881
 122994299.486 7  95839702.34646  23405038.974    23405034.568       -3119.245
     -2430.581
 109860142.718 9  85605318.93748  20905688.861    20905687.114        1669.380
      1300.815
 123183767.239 8  95987352.61446  23441086.697    23441082.135       -2903.282
     -2262.301
 16  9 14  1 34 30.0000000  0 10G10G12G13G15G17G18G19G20G24G28
 126104903.303 8  98263548.01146  23996965.812    23996964.096        1843.422
      1436.432
 123316927.827 8  96091098.08346  23466432.728    23466428.554        3781.897
      2946.933
 112787699.193 9  87886507.40147  21462778.935    21462775.101       -2605.132
     -2029.974
 108034219.521 9  84182497.29148  20558227.264    20558223.412       -1005.005
      -783.122
 120908487.424 8  94214390.60247  23008115.464    23008111.959        1299.157
      1012.331
 120427005.835 8  93839206.88345  22916496.890    22916491.934         126.555
        98.612
 122034288.221 8  95091654.90646  23222357.098    23222352.687        2884.370
      2247.561
 123087972.214 7  95912694.06045  23422864.308    23422859.945       -3126.238
     -2436.031
 109810206.491 9  85566407.59648  20896186.316    20896184.548        1659.079
      1292.789
 123270953.380 8  96055289.89446  23457677.641    23457673.077       -2909.622
     -2267.236
 16  9 14  1 35  0.0000000  0 10G10G12G13G15G17G18G19G20G24G28
 126049845.248 8  98220645.63246  23986488.593    23986486.875        1826.746
      1423.440
 123203551.801 8  96002753.11946  23444858.006    23444853.816        3775.984
      2942.325
 112866032.649 9  87947546.43546  21477685.306    21477681.473       -2617.615
     -2039.701
 108064616.942 9  84206183.58148  20564011.711    20564007.861       -1022.027
      -796.386
 120869750.913 8  94184206.34047  23000744.127    23000740.617        1282.812
       999.596
 120423459.800 8  93836443.73345  22915822.136    22915817.134         109.418
        85.260
 121947924.084 8  95024358.19646  23205922.532    23205918.109        2872.580
      2238.376
 123181847.480 7  95985843.60745  23440728.177    23440723.850       -3132.751
     -2441.105
 109760580.932 9  85527738.33348  20886742.883    20886741.104        1648.810
      1284.786
 123358325.633 8  96123372.14545  23474304.036    23474299.489       -2915.627
     -2271.917
 16  9 14  1 35 30.0000000  0 10G10G12G13G15G17G18G19G20G24G28
 125995294.010 8  98178138.13546  23976107.860    23976106.129        1809.493
      1409.990
 123090364.062 8  95914554.88946  23423319.095    23423314.899        3769.330
      2937.140
 112944746.099 8  88008881.57447  21492663.974    21492660.146       -2630.528
     -2049.764
 108095527.831 9  84230269.99248  20569893.854    20569889.997       -1039.311
      -809.853
 120831510.669 8  94154408.76647  22993467.239    22993463.735        1265.932
       986.440
 120420434.006 8  93834085.95946  22915246.377    22915241.355          91.872
        71.587
 121861920.819 8  94957342.69246  23189556.631    23189552.191        2860.339
      2228.836
 123275922.694 7  96059148.96445  23458630.096    23458625.798       -3139.749
     -2446.561
 109711266.218 9  85489311.28948  20877358.596    20877356.815        1638.195
      1276.516
 123445882.107 8  96191597.95446  23490965.481    23490960.941       -2922.119
     -2276.979
 16  9 14  1 36  0.0000000  0 10G10G12G13G15G17G18G19G20G24G28
 125941251.722 8  98136027.26946  23965823.956    23965822.189        1792.503
      1396.756
 122977366.582 8  95826504.92946  23401816.362    23401812.179        3763.113
      2932.297
 113023838.616 8  88070512.07846  21507714.775    21507710.960       -2643.033
     -2059.508
 108126952.339 9  84254756.61348  20575873.747    20575869.883       -1056.514
      -823.257
 120793769.209 8  94124999.84847  22986285.274    22986281.773        1249.189
       973.393
 120417927.804 8  93832133.07445  22914769.478    22914764.448          74.432
        57.997
 121776282.281 8  94890611.38247  23173260.142    23173255.670        2848.006
      2219.227
 123370195.182 7  96132608.05845  23476569.539    23476565.258       -3146.055
     -2451.471
 109662263.674 9  85451127.49148  20868033.709    20868031.940        1627.785
      1268.404
 123533620.960 8  96259965.87745  23507661.630    23507657.102       -2927.849
     -2281.440
 16  9 14  1 36 30.0000000  0 10G10G12G13G15G17G18G19G20G24G28
 125887722.202 8  98094315.94446  23955637.649    23955635.853        1775.852
      1383.780
 122864563.825 7  95738606.69546  23380350.682    23380346.525        3756.788
      2927.368
 113103311.014 9  88132438.61447  21522837.840    21522834.040       -2655.288
     -2069.055
 108158891.687 9  84279644.41948  20581951.606    20581947.731       -1073.119
      -836.196
 120756530.470 8  94095982.68747  22979198.951    22979195.442        1233.080
       960.842
 120415943.507 8  93830586.87345  22914391.876    22914386.851          57.495
        44.800
 121691013.836 8  94824168.46046  23157034.080    23157029.581        2836.324
      2210.122
 123464663.869 7  96206219.98045  23494546.345    23494542.111       -3152.116
     -2456.196
 109613575.350 9  85413188.55048  20858768.605    20858766.855        1617.849
      1260.661
 123621542.280 8  96328476.00345  23524392.486    23524387.953       -2933.578
     -2285.905
 16  9 14  1 37  0.0000000  0 10G10G12G13G15G17G18G19G20G24G28
 125834702.173 8  98053001.63846  23945548.296    23945546.446        1758.175
      1370.006
 122751953.021 7  95650858.02946  23358921.532    23358917.410        3749.692
      2921.839
 113183156.774 9  88194656.06547  21538031.976    21538028.182       -2668.384
     -2079.261
 108191340.727 9  84304929.37348  20588126.469    20588122.584       -1090.710
      -849.904
 120719790.791 8  94067354.38847  22972207.605    22972204.097        1215.723
       947.317
 120414476.052 8  93829443.39746  22914112.604    22914107.622          39.660
        30.905
 121606113.715 8  94758012.53447  23140878.118    23140873.583        2823.232
      2199.921
 123559320.650 7  96279978.48045  23512558.923    23512554.747       -3159.020
     -2461.576
 109565197.081 9  85375491.20148  20849562.506    20849560.781        1606.781
      1252.038
 123709638.977 8  96397122.77345  23541156.729    23541152.191       -2940.007
     -2290.912
 16  9 14  1 37 30.0000000  0 10G10G12G13G15G17G18G19G20G24G28
 125782196.221 8  98012087.89746  23935556.783    23935554.881        1741.646
      1357.124
 122639538.642 8  95563262.41346  23337529.769    23337525.682        3743.934
      2917.352
 113263377.342 9  88257165.58647  21553297.438    21553293.640       -2680.182
     -2088.454
 108224301.797 9  84330613.30748  20594398.767    20594394.877       -1107.068
      -862.651
 120683554.625 9  94039118.43247  22965312.085    22965308.569        1199.505
       934.680
 120413527.941 8  93828704.58746  22913932.154    22913927.246          22.976
        17.902
 121521588.043 8  94692148.42147  23124793.390    23124788.798        2811.379
      2190.687
 123654165.133 7  96353883.26745  23530607.207    23530603.080       -3164.340
     -2465.720
 109517132.890 9  85338038.59548  20840416.169    20840414.476        1597.015
      1244.429
 123797911.912 8  96465906.85844  23557954.523    23557949.979       -2945.346
     -2295.074
 16  9 14  1 38  0.0000000  0 10G10G12G13G15G17G18G19G20G24G28
 125730208.347 8  97971577.85346  23925663.847    23925661.904        1723.999
      1343.375
 122527325.408 8  95475823.54246  23316176.279    23316172.222        3736.637
      2911.665
 113343973.748 9  88319967.94947  21568634.446    21568630.639       -2693.208
     -2098.606
 108257776.552 9  84356697.51748  20600768.806    20600764.918       -1124.822
      -876.485
 120647825.731 8  94011277.75847  22958513.097    22958509.564        1182.064
       921.089
 120413101.030 8  93828371.91245  22913850.877    22913846.040           5.187
         4.040
 121437442.368 8  94626580.37547  23108781.001    23108776.370        2798.072
      2180.315
 123749196.577 8  96427933.73344  23548691.074    23548686.978       -3171.248
     -2471.104
 109469385.110 9  85300832.53248  20831330.053    20831328.401        1585.805
      1235.691
 123886360.998 8  96534828.20245  23574785.848    23574781.287       -2951.511
     -2299.881
 16  9 14  1 38 30.0000000  0 10G10G12G13G15G17G18G19G20G24G28
 125678735.650 7  97931469.24446  23915868.944    23915866.963        1706.646
      1329.853
 122415310.709 8  95388539.37947  23294860.559    23294856.538        3729.926
      2906.437
 113424939.758 9  88383058.33747  21584041.779    21584037.954       -2705.489
     -2108.174
 108291759.384 9  84383177.63848  20607235.521    20607231.634       -1141.769
      -889.690
 120612601.218 8  93983830.12647  22951810.064    22951806.528        1165.251
       907.988
 120413190.476 8  93828441.60846  22913867.851    22913863.077         -12.065
        -9.402
 121353675.616 8  94561307.60147  23092840.718    23092836.029        2785.377
      2170.425
 123844407.302 8  96502123.92645  23566809.042    23566804.944       -3177.025
     -2475.605
 109421949.999 9  85263870.12748  20822303.422    20822301.813        1575.420
      1227.601
 123974979.447 8  96603881.55045  23591649.379    23591644.796       -2957.210
     -2304.320
 16  9 14  1 39  0.0000000  0 10G10G12G13G15G17G18G19G20G24G28
 125627784.458 7  97891767.03746  23906173.248    23906171.226        1689.621
      1316.589
 122303501.324 8  95301415.22447  23273583.888    23273579.907        3723.207
      2901.201
 113506278.808 9  88446439.38647  21599520.115    21599516.287       -2717.844
     -2117.803
 108326254.961 9  84410057.30248  20613799.811    20613795.920       -1158.612
      -902.816
 120577887.368 9  93956780.37347  22945204.237    22945200.704        1148.335
       894.806
 120413800.874 8  93828917.22145  22913983.981    22913979.265         -29.343
       -22.865
 121270295.513 8  94496336.11747  23076974.011    23076969.256        2772.515
      2160.401
 123939799.176 8  96576455.24645  23584961.508    23584957.413       -3182.971
     -2480.238
 109374833.130 9  85227155.68348  20813337.368    20813335.805        1564.969
      1219.455
 124063769.989 8  96673068.98245  23608545.677    23608541.065       -2962.933
     -2308.779
 16  9 14  1 39 30.0000000  0 10G10G12G13G15G17G18G19G20G24G28
 125577353.871 7  97852470.44347  23896576.642    23896574.616        1672.028
      1302.879
 122191896.381 8  95214450.33147  23252346.165    23252342.230        3716.373
      2895.874
 113587987.118 9  88510108.18547  21615068.712    21615064.881       -2730.155
     -2127.395
 108361259.693 9  84437333.71148  20620460.997    20620457.097       -1175.735
      -916.157
 120543682.757 8  93930127.44647  22938695.315    22938691.761        1131.261
       881.503
 120414929.249 8  93829796.45145  22914198.693    22914194.019         -46.628
       -36.335
 121187302.806 8  94431666.49447  23061181.027    23061176.217        2759.548
      2150.298
 124035366.525 8  96650923.30745  23603147.365    23603143.274       -3188.884
     -2484.846
 109328032.081 9  85190687.32948  20804431.422    20804429.897        1554.330
      1211.166
 124152728.128 8  96742386.99445  23625473.882    23625469.251       -2968.626
     -2313.214
 16  9 14  1 40  0.0000000  0 10G10G12G13G15G17G18G19G20G24G28
 125527446.844 7  97813581.86346  23887079.609    23887077.608        1654.424
      1289.162
 122080499.863 8  95127647.85247  23231148.114    23231144.209        3709.243
      2890.320
 113670064.245 9  88574064.37747  21630687.491    21630683.658       -2742.435
     -2136.963
 108396774.431 9  84465007.52348  20627219.240    20627215.332       -1192.901
      -929.533
 120509990.830 8  93903874.03147  22932283.928    22932280.363        1114.046
       868.088
 120416576.650 8  93831080.12645  22914512.178    22914507.535         -63.849
       -49.753
 121104702.222 8  94367302.42547  23045462.657    23045457.797        2746.318
      2139.988
 124131107.391 7  96725526.56545  23621366.241    23621362.169       -3194.812
     -2489.466
 109281548.631 9  85154466.45748  20795585.916    20795584.416        1543.622
      1202.821
 124241853.257 8  96811835.15445  23642433.842    23642429.174       -2973.900
     -2317.324
 16  9 14  1 40 30.0000000  0 10G10G12G13G15G17G18G19G20G24G28
 125478062.115 7  97775100.25346  23877681.968    23877680.024        1637.241
      1275.774
 121969310.554 8  95041006.84647  23209989.495    23209985.603        3702.587
      2885.133
 113752505.739 9  88638304.48147  21646375.613    21646371.788       -2754.372
     -2146.265
 108432795.797 9  84493076.10548  20634073.887    20634069.978       -1209.396
      -942.387
 120476810.019 8  93878018.88447  22925969.802    22925966.241        1097.147
       854.922
 120418739.580 8  93832765.50845  22914923.779    22914919.154         -80.965
       -63.089
 121022494.103 8  94303244.17347  23029818.960    23029814.079        2733.500
      2130.002
 124227015.956 7  96800260.49946  23639617.012    23639612.973       -3200.084
     -2493.572
 109235380.861 9  85118491.57748  20786800.475    20786798.990        1533.462
      1194.906
 124331140.222 8  96881409.39644  23659424.618    23659419.934       -2979.056
     -2321.343
 16  9 14  1 41  0.0000000  0 10G10G12G13G15G17G18G19G20G24G28
 125429205.514 7  97737030.19746  23868384.780    23868382.925        1619.246
      1261.751
 121858334.739 8  94954532.20947  23188871.503    23188867.611        3694.936
      2879.173
 113835314.616 9  88702830.86947  21662133.634    21662129.826       -2767.000
     -2156.104
 108469327.403 9  84521542.29048  20641025.613    20641021.707       -1226.860
      -955.995
 120444145.895 8  93852566.33247  22919754.024    22919750.465        1079.561
       841.216
 120421422.174 8  93834855.83245  22915434.271    22915429.635         -98.648
       -76.869
 120940685.731 8  94239497.41047  23014251.326    23014246.445        2719.588
      2119.159
 124323093.556 7  96875126.15445  23657899.937    23657895.933       -3205.817
     -2498.040
 109189533.976 9  85082766.74148  20778076.093    20778074.621        1522.283
      1186.196
 124420591.133 8  96951111.40345  23676446.573    23676441.860       -2984.992
     -2325.969
 16  9 14  1 41 30.0000000  0 10G10G12G13G15G17G18G19G20G24G28
 125380875.455 7  97699370.40747  23859187.806    23859186.063        1602.169
      1248.443
 121747571.495 8  94868223.21347  23167793.955    23167790.065        3688.438
      2874.108
 113918486.199 9  88767639.87347  21677960.682    21677956.900       -2778.493
     -2165.061
 108506365.193 9  84550402.89048  20648073.672    20648069.769       -1243.148
      -968.687
 120411996.655 8  93827515.00147  22913636.210    22913632.642        1062.892
       828.229
 120424620.632 8  93837348.12245  22916042.941    22916038.278        -115.385
       -89.912
 120859277.373 8  94176062.36047  22998759.791    22998754.927        2706.771
      2109.174
 124419333.464 7  96950118.29146  23676213.735    23676209.778       -3210.689
     -2501.835
 109144005.135 9  85047289.72748  20769412.233    20769410.776        1512.187
      1178.328
 124510200.960 8  97020937.21144  23693498.790    23693494.065       -2989.734
     -2329.663
 16  9 14  1 42  0.0000000  0 10G10G12G13G15G17G18G19G20G24G28
 125333075.003 7  97662123.33447  23850091.603    23850089.954        1584.297
      1234.518
 121637024.309 8  94782082.56147  23146757.529    23146753.644        3681.211
      2868.477
 114002020.608 9  88832731.60847  21693856.767    21693853.010       -2790.609
     -2174.501
 108543910.111 9  84579658.65948  20655218.240    20655214.336       -1260.079
      -981.880
 120380365.483 8  93802867.35947  22907616.968    22907613.401        1045.683
       814.817
 120428336.116 8  93840243.30045  22916749.986    22916745.289        -132.581
      -103.311
 120778273.665 8  94112942.61147  22983345.260    22983340.440        2693.414
      2098.766
 124515734.588 6  97025235.98946  23694558.252    23694554.380       -3216.170
     -2506.109
 109098795.980 9  85012061.82548  20760809.208    20760807.767        1501.606
      1170.083
 124599969.142 8  97090886.46644  23710581.103    23710576.335       -2994.980
     -2333.752
 16  9 14  1 42 30.0000000  0 10G10G12G13G15G17G18G19G20G24G28
 125285804.052 7  97625288.81247  23841096.211    23841094.648        1566.698
      1220.805
 121526693.137 8  94696110.22946  23125762.211    23125758.329        3673.607
      2862.551
 114085914.493 9  88898103.44847  21709821.263    21709817.530       -2802.743
     -2183.956
 108581959.553 9  84609307.55848  20662458.827    20662454.921       -1277.061
      -995.112
 120349251.823 8  93778622.95947  22901696.226    22901692.660        1028.047
       801.077
 120432566.267 8  93843539.51545  22917554.963    22917550.237        -149.974
      -116.860
 120697675.893 8  94050139.17346  22968007.974    22968003.200        2679.586
      2087.989
 124612292.005 6  97100475.49646  23712932.476    23712928.708       -3221.191
     -2510.021
 109053905.894 9  84977082.53948  20752266.912    20752265.486        1490.779
      1161.646
 124689891.495 8  97160955.80045  23727692.790    23727688.011       -3000.202
     -2337.820
 16  9 14  1 43  0.0000000  0 10G10G12G13G15G17G18G19G20G24G28
 125239067.708 7  97588870.86847  23832202.558    23832201.087        1548.832
      1206.880
 121416584.189 8  94610311.02146  23104809.210    23104805.328        3666.275
      2856.836
 114170169.920 8  88963757.00047  21725854.559    21725850.849       -2814.653
     -2193.238
 108620516.450 9  84639351.87948  20669795.983    20669792.073       -1293.786
     -1008.146
 120318660.672 8  93754785.72147  22895874.907    22895871.343        1010.855
       787.679
 120437314.412 8  93847239.34845  22918458.514    22918453.770        -166.836
      -130.004
 120617491.076 8  93987657.50947  22952749.284    22952744.549        2665.910
      2077.333
 124709006.422 6  97175837.30945  23731336.590    23731332.940       -3226.466
     -2514.134
 109009339.512 9  84942355.48848  20743786.225    20743784.801        1480.092
      1153.318
 124779969.895 8  97231146.73645  23744834.169    23744829.365       -3005.172
     -2341.698
 16  9 14  1 43 30.0000000  0 10G10G12G13G15G17G18G19G20G24G28
 125192860.575 7  97552865.34747  23823409.591    23823408.179        1531.120
      1193.082
 121306692.356 7  94524681.03946  23083897.481    23083893.577        3659.104
      2851.252
 114254778.802 8  89029685.97747  21741955.103    21741951.419       -2826.599
     -2202.545
 108659573.505 9  84669785.94448  20677228.304    20677224.397       -1310.527
     -1021.190
 120288587.082 8  93731351.79147  22890152.068    22890148.496         993.346
       774.036
 120442573.539 8  93851337.37945  22919459.272    22919454.515        -184.171
      -143.508
 120537716.111 8  93925495.22746  22937568.583    22937563.874        2651.880
      2066.400
 124805867.687 7  97251313.60246  23749768.619    23749765.060       -3231.358
     -2517.943
 108965090.342 9  84907875.62848  20735365.892    20735364.463        1469.278
      1144.893
 124870195.867 8  97301452.70744  23762003.591    23761998.761       -3010.193
     -2345.607
 16  9 14  1 44  0.0000000  0 10G10G12G13G15G17G18G19G20G24G28
 125147189.498 7  97517277.49947  23814718.683    23814717.300        1512.755
      1178.771
 121197024.927 7  94439225.92446  23063028.431    23063024.514        3651.416
      2845.262
 114339744.693 8  89095893.14647  21758123.575    21758119.921       -2838.517
     -2211.831
 108699135.128 9  84700613.17448  20684756.638    20684752.739       -1327.529
     -1034.438
 120259037.145 8  93708325.88147  22884528.898    22884525.309         975.801
       760.364
 120448348.423 8  93855837.25845  22920558.198    22920553.453        -201.456
      -156.980
 120458359.232 8  93863658.70647  22922467.465    22922462.763        2637.855
      2055.473
 124902878.099 7  97326906.10646  23768229.061    23768225.561       -3236.598
     -2522.022
 108921163.664 9  84873647.05148  20727006.928    20727005.500        1458.416
      1136.429
 124960572.235 8  97371875.87145  23779201.629    23779196.776       -3015.510
     -2349.743
 16  9 14  1 44 30.0000000  0 10G10G12G13G15G17G18G19G20G24G28
 125102056.495 8  97482108.92647  23806130.172    23806128.810        1495.228
      1165.113
 121087584.564 8  94353947.74646  23042202.577    23042198.658        3643.910
      2839.412
 114425066.469 8  89162377.62646  21774359.765    21774356.140       -2850.247
     -2220.973
 108739201.189 9  84731833.47248  20692380.958    20692377.073       -1344.286
     -1047.496
 120230013.103 8  93685709.78947  22879005.778    22879002.151         958.471
       746.863
 120454638.830 8  93860738.87845  22921755.191    22921750.457        -218.567
      -170.312
 120379423.659 8  93802150.51546  22907446.499    22907441.770        2623.815
      2044.533
 125000035.459 7  97402613.12145  23786717.488    23786714.020       -3241.533
     -2525.869
 108877560.955 9  84839670.92548  20718709.601    20718708.175        1447.636
      1128.028
 125051097.680 8  97442415.14844  23796428.074    23796423.213       -3020.448
     -2353.596
 16  9 14  1 45  0.0000000  0 10G10G12G13G15G17G18G19G20G24G28
 125057461.407 8  97447359.49547  23797644.040    23797642.705        1477.141
      1151.019
 120978371.755 8  94268846.85846  23021420.054    23021416.130        3636.334
      2833.507
 114510741.377 8  89229137.28346  21790663.147    21790659.542       -2862.129
     -2230.231
 108779769.230 9  84763444.92048  20700100.799    20700096.929       -1361.017
     -1060.532
 120201514.607 8  93663503.19246  22873582.678    22873579.016         940.847
       733.127
 120461442.553 8  93866040.45846  22923049.887    22923045.169        -235.746
      -183.699
 120300911.054 8  93740971.87046  22892506.059    22892501.293        2609.752
      2033.573
 125097334.877 7  97478430.81044  23805232.972    23805229.533       -3245.887
     -2529.265
 108834281.595 9  84805946.74848  20710473.814    20710472.388        1436.908
      1119.667
 125141768.519 8  97513067.77945  23813682.130    23813677.248       -3024.984
     -2357.125
 16  9 14  1 45 30.0000000  0 10G10G12G13G15G17G18G19G20G24G28
 125013406.968 8  97413031.36147  23789260.791    23789259.467        1459.271
      1137.094
 120869389.921 8  94183925.94046  23000681.508    23000677.575        3628.620
      2827.497
 114596768.982 8  89296171.74446  21807033.666    21807030.076       -2873.742
     -2239.281
 108820839.936 9  84795448.05748  20707916.296    20707912.432       -1377.687
     -1073.522
 120173544.426 8  93641708.25747  22868260.118    22868256.423         923.340
       719.484
 120468760.277 8  93871742.56846  22924442.391    22924437.688        -252.808
      -196.994
 120222826.261 8  93680126.59746  22877647.024    22877642.198        2595.484
      2022.455
 125194774.577 7  97554357.87245  23823775.103    23823771.674       -3250.514
     -2532.867
 108791327.339 9  84772475.90448  20702299.891    20702298.461        1426.186
      1111.313
 125232584.334 8  97583833.25345  23830963.872    23830959.009       -3029.858
     -2360.932
 16  9 14  1 46  0.0000000  0 10G10G12G13G15G17G18G19G20G24G28
 124969894.100 8  97379125.23847  23780980.604    23780979.276        1441.270
      1123.067
 120760640.430 8  94099186.08346  22979987.170    22979983.226        3620.986
      2821.547
 114683147.406 8  89363479.60046  21823470.927    21823467.329       -2885.201
     -2248.210
 108862411.891 9  84827841.78448  20715827.178    20715823.312       -1394.160
     -1086.359
 120146103.248 8  93620325.56047  22863038.192    22863034.473         905.823
       705.836
 120476591.062 8  93877844.48346  22925932.522    22925927.827        -269.593
      -210.073
 120145172.353 8  93619617.07946  22862869.984    22862865.091        2581.223
      2011.342
 125292351.140 7  97630391.57444  23842343.285    23842339.860       -3254.900
     -2536.285
 108748698.195 9  84739258.39548  20694187.838    20694186.400        1415.403
      1102.912
 125323542.364 7  97654709.68945  23848272.569    23848267.676       -3034.443
     -2364.507
 16  9 14  1 46 30.0000000  0 10G10G12G13G15G17G18G19G20G24G28
 124926923.394 8  97345641.55546  23772803.601    23772802.268        1423.392
      1109.136
 120652124.397 8  94014628.16647  22959337.242    22959333.281        3613.543
      2815.749
 114769874.173 9  89431058.89346  21839974.487    21839970.858       -2896.547
     -2257.050
 108904483.256 9  84860624.64748  20723833.110    20723829.241       -1410.543
     -1099.126
 120119190.963 8  93599354.96547  22857916.935    22857913.199         888.506
       692.344
 120484933.287 8  93884344.89546  22927520.000    22927515.330        -286.440
      -223.202
 120067950.899 8  93559444.54846  22848175.222    22848170.266        2566.938
      2000.214
 125390060.603 7  97706528.82644  23860936.763    23860933.351       -3258.803
     -2539.325
 108706394.066 9  84706294.14348  20686137.643    20686136.191        1404.845
      1094.685
 125414639.665 7  97725694.61145  23865607.787    23865602.891       -3038.660
     -2367.786
 16  9 14  1 47  0.0000000  0 10G10G12G13G15G17G18G19G20G24G28
 124884497.543 8  97312582.47547  23764730.238    23764728.889        1404.898
      1094.728
 120543845.277 8  93930254.83047  22938732.414    22938728.447        3605.343
      2809.357
 114856948.818 8  89498909.24146  21856544.270    21856540.605       -2908.308
     -2266.216
 108947054.756 9  84893797.23048  20731934.213    20731930.340       -1427.438
     -1112.291
 120092810.549 8  93578798.82347  22852896.890    22852893.131         870.376
       678.217
 120493788.355 8  93891244.93446  22929205.067    22929200.431        -303.661
      -236.618
 119991166.523 8  93499612.58347  22833563.634    22833558.632        2552.162
      1988.699
 125487901.397 7  97782768.43445  23879555.225    23879551.806       -3263.660
     -2543.111
 108664416.654 9  84673584.47948  20678149.619    20678148.151        1393.792
      1086.072
 125505875.657 7  97796787.57344  23882969.424    23882964.547       -3043.545
     -2371.591
 16  9 14  1 47 30.0000000  0 10G10G12G13G15G17G18G19G20G24G28
 124842616.400 8  97279947.81846  23756760.550    23756759.169        1387.024
      1080.798
 120435803.311 8  93846066.29547  22918172.714    22918168.729        3597.351
      2803.131
 114944368.582 9  89567028.52346  21873179.725    21873176.022       -2919.633
     -2275.039
 108990123.986 9  84927357.65548  20740130.029    20740126.157       -1443.817
     -1125.053
 120066961.804 8  93558656.96447  22847978.011    22847974.241         852.846
       664.556
 120503153.167 8  93898542.17846  22930987.144    22930982.542        -320.518
      -249.754
 119914820.671 8  93440122.31947  22819035.488    22819030.448        2537.631
      1977.375
 125585868.905 7  97859106.77745  23898197.805    23898194.379       -3267.618
     -2546.193
 108622765.140 9  84641128.75848  20670223.619    20670222.131        1383.026
      1077.684
 125597246.643 8  97867985.71745  23900356.751    23900351.885       -3047.941
     -2375.020
 16  9 14  1 48  0.0000000  0 10G10G12G13G15G17G18G19G20G24G28
 124801281.321 8  97247738.64547  23748894.789    23748893.369        1368.231
      1066.152
 120328000.612 8  93762064.19847  22897658.551    22897654.543        3589.177
      2796.762
 115032131.950 8  89635415.54247  21889880.573    21889876.841       -2931.440
     -2284.240
 109033689.938 9  84961305.13248  20748420.367    20748416.508       -1460.642
     -1138.162
 120041645.795 8  93538930.20647  22843160.536    22843156.750         834.667
       650.391
 120513027.439 8  93906236.39146  22932866.193    22932861.622        -337.827
      -263.243
 119838916.729 8  93380976.41747  22804591.411    22804586.352        2522.595
      1965.658
 125683960.143 7  97935541.52445  23916863.937    23916860.503       -3271.666
     -2549.351
 108581440.261 9  84608927.55248  20662359.783    20662358.275        1371.883
      1069.000
 125688750.581 7  97939287.44745  23917769.398    23917764.560       -3052.772
     -2378.789
 16  9 14  1 48 30.0000000  0 10G10G12G13G15G17G18G19G20G24G28
 124760494.358 8  97215956.60246  23741133.301    23741131.832        1350.605
      1052.420
 120220440.034 8  93678250.77147  22877190.451    22877186.422        3581.219
      2790.561
 115120237.714 9  89704069.36646  21906646.578    21906642.821       -2942.608
     -2292.942
 109077752.575 9  84995639.64148  20756805.214    20756801.371       -1477.049
     -1150.947
 120016864.608 8  93519620.23347  22838444.794    22838441.004         817.046
       636.660
 120523411.269 8  93914327.67046  22934842.219    22934837.664        -354.628
      -276.335
 119763458.400 8  93322177.73347  22790232.137    22790227.074        2507.689
      1954.044
 125782172.754 7  98012070.82445  23935553.176    23935549.752       -3276.055
     -2552.772
 108540443.210 9  84576981.78948  20654558.332    20654556.806        1361.073
      1060.576
 125780387.015 7  98010692.47845  23935207.218    23935202.368       -3056.914
     -2382.018
 16  9 14  1 49  0.0000000  0 10G10G12G13G15G17G18G19G20G24G28
 124720257.066 8  97184602.85846  23733476.420    23733474.906        1332.072
      1037.978
 120113123.557 8  93594627.56747  22856768.789    22856764.748        3573.104
      2784.237
 115208685.014 9  89772989.32046  21923477.572    21923473.798       -2954.018
     -2301.833
 109122310.856 9  85030360.37848  20765284.368    20765280.543       -1493.632
     -1163.869
 119992619.811 9  93500728.18747  22833831.152    22833827.376         799.110
       622.686
 120534304.179 8  93922815.64545  22936915.124    22936910.563        -371.715
      -289.649
 119688449.264 8  93263729.07247  22775958.334    22775953.276        2492.683
      1942.351
 125880504.171 6  98088692.71345  23954265.004    23954261.601       -3279.790
     -2555.681
 108499774.992 9  84545292.27148  20646819.446    20646817.896        1349.982
      1051.935
 125872153.865 8  98082199.12745  23952669.856    23952665.020       -3061.158
     -2385.317
 16  9 14  1 49 30.0000000  0 10G10G12G13G15G17G18G19G20G24G28
 124680572.675 8  97153679.95446  23725924.747    23725923.193        1313.694
      1023.659
 120006055.441 8  93511197.89747  22836394.384    22836390.342        3564.785
      2777.757
 115297473.909 8  89842175.46446  21940373.550    21940369.766       -2965.177
     -2310.527
 109167366.595 9  85065468.73648  20773858.191    20773854.388       -1509.994
     -1176.619
 119968913.931 8  93482256.09647  22829320.060    22829316.285         781.288
       608.796
 120545707.496 8  93931701.34045  22939085.159    22939080.569        -388.491
      -302.720
 119613894.486 8  93205634.47547  22761770.980    22761765.932        2477.647
      1930.635
 125978953.086 6  98165406.11645  23972999.219    23972995.856       -3283.231
     -2558.365
 108459438.152 9  84513860.96548  20639143.617    20639142.049        1339.171
      1043.510
 125964051.027 8  98153807.24845  23970157.351    23970152.532       -3065.237
     -2388.500
 16  9 14  1 50  0.0000000  0 10G10G12G13G15G17G18G19G20G24G28
 124641438.397 8  97123185.70546  23718477.758    23718476.155        1295.590
      1009.550
 119899233.753 8  93427960.25847  22816066.860    22816062.824        3556.787
      2771.523
 115386598.911 8  89911623.49946  21957333.481    21957329.705       -2976.268
     -2319.170
 109212914.670 9  85100960.72848  20782525.705    20782521.928       -1526.293
     -1189.318
 119945744.227 9  93464201.81047  22824910.988    22824907.225         763.523
       594.953
 120557616.447 8  93940981.02145  22941351.420    22941346.796        -405.333
      -315.844
 119539792.792 8  93147892.92247  22747669.856    22747664.821        2462.552
      1918.873
 126077512.571 5  98242205.65445  23991754.472    23991751.181       -3287.241
     -2561.491
 108419429.467 9  84482685.37048  20631530.222    20631528.644        1328.322
      1035.056
 126056072.479 8  98225512.30244  23987668.436    23987663.624       -3069.319
     -2391.680
 16  9 14  1 50 30.0000000  0 10G10G12G13G15G17G18G19G20G24G28
 124602857.790 8  97093122.87846  23711136.118    23711134.476        1277.142
       995.175
 119792662.640 8  93344917.87446  22795787.012    22795782.993        3548.394
      2764.982
 115476060.651 8  89981333.92746  21974357.481    21974353.725       -2987.406
     -2327.850
 109258955.672 9  85136836.81548  20791287.025    20791283.273       -1542.628
     -1202.048
 119923114.292 8  93446568.09847  22820604.665    22820600.895         745.667
       581.040
 120570032.556 8  93950655.90346  22943714.179    22943709.505        -421.884
      -328.742
 119466149.690 8  93090508.71947  22733655.999    22733650.980        2447.432
      1907.090
 126176182.139 6  98319091.00746  24010530.636    24010527.415       -3290.450
     -2563.985
 108379751.382 9  84451767.39248  20623979.726    20623978.147        1317.437
      1026.575
 126148218.708 8  98297314.54345  24005203.301    24005198.503       -3073.304
     -2394.784
 16  9 14  1 51  0.0000000  0 10G10G12G13G15G17G18G19G20G24G28
 124564828.533 8  97063489.67846  23703899.393    23703897.727        1258.304
       980.495
 119686340.531 8  93262069.47547  22775554.582    22775550.578        3539.866
      2758.337
 115565853.823 8  90051302.62446  21991444.537    21991440.810       -2998.741
     -2336.682
 109305486.071 9  85173094.25548  20800141.471    20800137.742       -1559.304
     -1215.043
 119901021.545 8  93429353.01147  22816400.531    22816396.735         727.352
       566.769
 120582951.464 8  93960722.57946  22946172.610    22946167.882        -439.071
      -342.133
 119392964.505 8  93033481.32347  22719729.298    22719724.298        2431.710
      1894.837
 126274954.824 7  98396056.70145  24029326.452    24029323.280       -3294.232
     -2566.936
 108340401.075 9  84421104.81548  20616491.607    20616490.023        1306.110
      1017.748
 126240484.178 7  98369209.72844  24022760.838    24022756.044       -3077.598
     -2398.129
 16  9 14  1 51 30.0000000  0 10G10G12G13G15G17G18G19G20G24G28
 124527356.638 8  97034290.79746  23696768.730    23696767.035        1240.174
       966.368
 119580274.044 8  93179420.29347  22755370.783    22755366.771        3531.424
      2751.760
 115655981.796 8  90121532.20146  22008595.307    22008591.609       -3009.677
     -2345.205
 109352509.222 9  85209735.65448  20809089.688    20809085.975       -1575.482
     -1227.649
 119879471.900 9  93412561.08747  22812299.772    22812295.954         709.394
       552.774
 120596377.265 8  93971184.22646  22948727.492    22948722.715        -455.882
      -355.232
 119320245.075 8  92976816.86947  22705891.230    22705886.230        2416.278
      1882.814
 126373832.597 7  98473104.31445  24048142.265    24048139.100       -3297.451
     -2569.442
 108301384.420 9  84390702.22748  20609066.980    20609065.375        1295.070
      1009.146
 126332871.937 8  98441200.19745  24040341.641    24040336.849       -3081.423
     -2401.107
 16  9 14  1 52  0.0000000  0 10G10G12G13G15G17G18G19G20G24G28
 124490442.510 8  97005526.52746  23689744.208    23689742.486        1221.510
       951.825
 119474464.501 8  93096971.30346  22735235.902    22735231.877        3523.051
      2745.235
 115746442.158 8  90192020.79146  22025809.318    22025805.649       -3020.526
     -2353.656
 109400023.426 9  85246759.69648  20818131.353    20818127.648       -1591.722
     -1240.303
 119858465.582 8  93396192.55347  22808302.397    22808298.546         691.361
       538.724
 120610307.949 8  93982039.29246  22951378.437    22951373.621        -472.397
      -368.102
 119247993.973 8  92920517.33747  22692142.296    22692137.301        2400.873
      1870.811
 126472811.729 7  98550230.94245  24066977.365    24066974.166       -3300.584
     -2571.882
 108262701.066 9  84360559.35848  20601705.774    20601704.138        1284.247
      1000.712
 126425379.201 8  98513283.72644  24057945.239    24057940.478       -3085.320
     -2404.143
 16  9 14  1 52 30.0000000  0 10G10G12G13G15G17G18G19G20G24G28
 124454084.796 8  96977195.82446  23682825.571    23682823.848        1202.562
       937.062
 119368911.288 8  93014722.04246  22715149.808    22715145.750        3514.108
      2738.267
 115837230.539 8  90262764.96146  22043085.762    22043082.127       -3031.904
     -2362.523
 109448025.041 9  85284163.54348  20827265.770    20827262.060       -1608.335
     -1253.248
 119838001.202 8  93380246.31247  22804408.139    22804404.273         672.943
       524.372
 120624740.589 8  93993285.49246  22954124.893    22954120.055        -489.552
      -381.469
 119176211.605 8  92864583.04747  22678482.569    22678477.575        2384.799
      1858.285
 126571886.880 7  98627432.34946  24085830.788    24085827.551       -3304.066
     -2574.599
 108224348.993 9  84330674.63448  20594407.607    20594405.930        1272.720
       991.730
 126518001.269 7  98585456.80545  24075570.614    24075565.835       -3089.302
     -2407.252
 16  9 14  1 53  0.0000000  0 10G10G12G13G15G17G18G19G20G24G28
 124418288.655 8  96949302.71546  23676013.797    23676012.093        1183.812
       922.450
 119263620.368 8  92932677.17346  22695113.618    22695109.525        3505.167
      2731.299
 115928349.451 8  90333766.69946  22060425.098    22060421.500       -3042.894
     -2371.087
 109496517.323 9  85321949.72048  20836493.566    20836489.840       -1624.549
     -1265.883
 119818083.771 8  93364726.25547  22800617.965    22800614.101         654.749
       510.195
 120639678.311 8  94004925.25146  22956967.472    22956962.633        -506.356
      -394.563
 119104904.796 8  92809019.32947  22664913.335    22664908.334        2368.870
      1845.872
 126671058.856 7  98704709.20346  24104702.650    24104699.369       -3307.349
     -2577.155
 108186332.910 9  84301051.71448  20587173.380    20587171.664        1261.620
       983.080
 126610740.327 8  98657720.95744  24093218.310    24093213.573       -3093.308
     -2410.367
 16  9 14  1 53 30.0000000  0 10G10G12G13G15G17G18G19G20G24G28
 124383052.121 8  96921845.68646  23669308.491    23669306.816        1165.511
       908.190
 119158590.507 8  92850835.74347  22675127.095    22675122.967        3496.944
      2724.893
 116019794.205 8  90405022.32946  22077826.453    22077822.896       -3053.222
     -2379.135
 109545496.355 9  85360115.19248  20845813.982    20845810.224       -1640.450
     -1278.273
 119798711.046 9  93349630.64747  22796931.442    22796927.584         636.920
       496.303
 120655116.948 8  94016955.34646  22959905.368    22959900.529        -522.599
      -407.221
 119034073.634 8  92753826.22647  22651434.621    22651429.623        2353.509
      1833.902
 126770321.860 7  98782057.00845  24123591.817    24123588.491       -3309.941
     -2579.175
 108148650.109 9  84271688.50148  20580002.574    20580000.820        1250.738
       974.602
 126703591.769 8  98730072.74545  24110887.349    24110882.598       -3096.581
     -2412.924
 16  9 14  1 54  0.0000000  0 10G10G12G13G15G17G18G19G20G24G28
 124348376.898 8  96894826.00946  23662710.035    23662708.395        1146.840
       893.640
 119053824.572 8  92769199.98347  22655190.778    22655186.633        3488.055
      2717.966
 116111563.864 8  90476531.13747  22095289.634    22095286.115       -3064.173
     -2387.668
 109594961.158 9  85398659.18648  20855226.830    20855223.039       -1656.631
     -1290.881
 119779884.561 8  93334960.67147  22793348.879    22793345.026         618.708
       482.110
 120671056.443 8  94029375.71546  22962938.580    22962933.747        -539.352
      -420.274
 118963721.726 8  92699006.58847  22638047.076    22638042.086        2337.312
      1821.281
 126869673.205 7  98859473.65245  24142497.785    24142494.422       -3312.895
     -2581.474
 108111301.821 9  84242585.93948  20572895.434    20572893.650        1239.668
       965.976
 126796554.253 8  98802511.04844  24128577.517    24128572.795       -3100.331
     -2415.837
 16  9 14  1 54 30.0000000  0 10G10G12G13G15G17G18G19G20G24G28
 124314265.244 8  96868245.49346  23656218.815    23656217.210        1128.186
       879.104
 118949325.693 8  92687772.30547  22635305.279    22635301.142        3479.350
      2711.182
 116203657.735 8  90548292.58346  22112814.514    22112811.027       -3074.675
     -2395.852
 109644912.002 9  85437581.90748  20864732.167    20864728.350       -1672.642
     -1303.357
 119761606.633 8  93320718.16147  22789870.686    22789866.838         600.600
       468.001
 120687497.079 8  94042186.57746  22966067.161    22966062.347        -555.943
      -433.206
 118893853.037 8  92644563.46747  22624751.486    22624746.517        2321.324
      1808.825
 126969111.344 7  98936957.88645  24161420.290    24161416.913       -3315.529
     -2583.531
 108074289.794 9  84213745.40048  20565852.284    20565850.468        1228.607
       957.356
 126889627.093 8  98875035.27345  24146288.741    24146284.022       -3103.659
     -2418.438
 16  9 14  1 55  0.0000000  0 10G10G12G13G15G17G18G19G20G24G28
 124280716.682 8  96842103.77146  23649834.732    23649833.164        1109.145
       864.269
 118845094.088 8  92606552.90547  22615470.632    22615466.502        3470.099
      2703.976
 116296072.768 8  90620304.28546  22130400.511    22130397.058       -3085.683
     -2404.427
 109695346.348 9  85476881.39248  20874329.500    20874325.667       -1689.094
     -1316.176
 119743876.420 8  93306902.42647  22786496.729    22786492.882         581.984
       453.495
 120704436.281 8  94055385.93545  22969290.609    22969285.822        -572.888
      -446.406
 118824469.177 8  92590498.14147  22611548.148    22611543.197        2304.714
      1795.883
 127068631.502 7  99014506.08645  24180358.357    24180354.959       -3318.573
     -2585.900
 108037613.535 9  84185166.49348  20558873.035    20558871.187        1217.072
       948.369
 126982806.394 7  98947642.57944  24164020.133    24164015.401       -3107.670
     -2421.558
 16  9 14  1 55 30.0000000  0 10G10G12G13G15G17G18G19G20G24G28
 124247731.926 8  96816401.36846  23643557.953    23643556.426        1089.831
       849.219
 118741131.700 8  92525543.25147  22595687.238    22595683.128        3460.687
      2696.638
 116388806.936 8  90692564.66646  22148047.240    22148043.821       -3096.717
     -2413.026
 109746262.894 9  85516556.60248  20884018.603    20884014.768       -1705.439
     -1328.914
 119726694.684 8  93293514.08447  22783227.138    22783223.287         563.182
       438.844
 120721872.830 8  94068972.86946  22972608.664    22972603.907        -589.797
      -459.578
 118755572.522 8  92536812.45247  22598437.523    22598432.580        2288.133
      1782.961
 127168230.760 7  99092115.89944  24199311.488    24199308.079       -3321.627
     -2588.280
 108001272.892 9  84156849.10348  20551957.651    20551955.778        1205.498
       939.349
 127076090.318 8  99020331.33244  24181771.476    24181766.746       -3111.476
     -2424.523
 16  9 14  1 56  0.0000000  0 10G10G12G13G15G17G18G19G20G24G28
 124215315.890 8  96791142.10946  23637389.408    23637387.926        1071.072
       834.602
 118637444.012 8  92444747.70147  22575956.063    22575951.966        3451.778
      2689.700
 116481862.416 8  90765075.41546  22165755.123    22165751.731       -3107.080
     -2421.103
 109797664.120 9  85556609.48648  20893799.939    20893796.107       -1721.357
     -1341.318
 119710066.110 9  93280556.76347  22780062.813    22780058.958         545.147
       424.791
 120739809.756 8  94082949.64746  22976021.964    22976017.261        -606.220
      -472.383
 118687170.122 8  92483511.89447  22585420.962    22585416.012        2271.870
      1770.289
 127267909.646 6  99169787.77644  24218279.749    24218276.331       -3323.720
     -2589.909
 107965272.693 9  84128797.00248  20545107.040    20545105.156        1194.390
       930.693
 127169481.077 7  99093103.31545  24199543.172    24199538.441       -3114.828
     -2427.142
 16  9 14  1 56 30.0000000  0 10G10G12G13G15G17G18G19G20G24G28
 124183463.044 7  96766321.71447  23631328.022    23631326.578        1052.002
       819.741
 118534026.646 8  92364162.75647  22556276.335    22556272.280        3442.366
      2682.364
 116575230.967 8  90837830.11746  22183522.586    22183519.206       -3117.870
     -2429.509
 109849542.763 9  85597034.39548  20903672.123    20903668.289       -1737.545
     -1353.932
 119693984.989 8  93268026.03847  22777002.659    22776998.790         526.479
       410.244
 120758239.034 8  94097310.12445  22979528.906    22979524.246        -622.802
      -485.297
 118619258.444 8  92430593.73747  22572497.778    22572492.804        2255.183
      1757.287
 127367659.227 6  99247514.73245  24237261.449    24237258.016       -3326.251
     -2591.885
 107929606.786 9  84101005.38848  20538320.035    20538318.162        1182.903
       921.743
 127262969.821 7  99165951.72644  24217333.454    24217328.716       -3118.136
     -2429.714
 16  9 14  1 57  0.0000000  0 10G10G12G13G15G17G18G19G20G24G28
 124152179.319 7  96741944.77746  23625374.939    23625373.522        1033.202
       805.092
 118430886.154 8  92283793.59147  22536649.266    22536645.259        3433.148
      2675.182
 116668915.790 8  90910831.25546  22201350.242    22201346.874       -3128.301
     -2437.638
 109901902.509 9  85637834.18748  20913635.867    20913632.026       -1753.527
     -1366.386
 119678457.127 8  93255926.42647  22774047.790    22774043.910         508.241
       396.032
 120777164.992 8  94112057.59345  22983130.378    22983125.759        -639.317
      -498.172
 118551844.926 8  92378063.74747  22559669.408    22559664.399        2238.658
      1744.410
 127467481.411 6  99325298.28044  24256256.948    24256253.488       -3328.930
     -2593.972
 107894280.738 9  84073478.60348  20531597.694    20531595.847        1171.686
       913.002
 127356560.001 7  99238879.08645  24235143.100    24235138.377       -3121.466
     -2432.313
 16  9 14  1 57 30.0000000  0 10G10G12G13G15G17G18G19G20G24G28
 124121463.411 7  96718010.31347  23619529.887    23619528.492        1014.495
       790.517
 118328022.529 8  92203640.13747  22517074.921    22517070.959        3424.194
      2668.205
 116762912.995 8  90984075.81546  22219237.343    22219233.981       -3138.428
     -2445.528
 109954740.283 9  85679006.47048  20923690.579    20923686.724       -1769.202
     -1378.599
 119663481.001 8  93244256.74047  22771197.921    22771194.028         489.925
       381.761
 120796584.158 8  94127189.41345  22986825.684    22986821.066        -655.463
      -510.750
 118484930.628 8  92325922.74247  22546936.057    22546931.012        2222.232
      1731.609
 127567370.546 6  99403133.95844  24275265.219    24275261.735       -3330.958
     -2595.555
 107859292.922 9  84046215.37648  20524939.712    20524937.901        1160.555
       904.329
 127450247.464 7  99311882.37344  24252971.161    24252966.444       -3124.344
     -2434.548
 16  9 14  1 58  0.0000000  0 10G10G12G13G15G17G18G19G20G24G28
 124091316.452 7  96694519.18446  23613793.100    23613791.758         995.328
       775.580
 118225437.387 8  92123703.67947  22497553.590    22497549.653        3414.694
      2660.801
 116857220.960 8  91057562.53346  22237183.583    22237180.209       -3148.903
     -2453.690
 110008054.706 9  85720550.16248  20933836.001    20933832.129       -1785.167
     -1391.040
 119649057.487 8  93233017.66447  22768453.209    22768449.305         471.452
       367.365
 120816495.864 8  94142705.02145  22990614.736    22990610.090        -672.088
      -523.704
 118418518.320 8  92274172.92347  22534298.215    22534293.131        2205.276
      1718.398
 127667324.266 6  99481019.98644  24294285.774    24294282.257       -3332.945
     -2597.100
 107824644.213 9  84019216.38048  20518346.269    20518344.493        1149.207
       895.486
 127544030.614 7  99384960.04044  24270817.562    24270812.914       -3127.989
     -2437.395
 16  9 14  1 58 30.0000000  0 10G10G12G13G15G17G18G19G20G24G28
 124061740.650 7  96671473.11347  23608165.002    23608163.720         976.263
       760.725
 118123134.566 8  92043987.24147  22478085.974    22478082.050        3405.384
      2653.547
 116951839.419 8  91131291.18346  22255188.919    22255185.524       -3159.183
     -2461.702
 110061846.235 9  85762465.63348  20944072.206    20944068.313       -1801.028
     -1403.398
 119635189.046 8  93222211.09747  22765814.133    22765810.223         452.972
       352.967
 120836900.683 8  94158604.85345  22994497.659    22994492.972        -688.506
      -536.499
 118352612.448 8  92222817.71647  22521756.748    22521751.641        2188.477
      1705.308
 127767340.947 6  99558955.04645  24313318.338    24313314.800       -3334.974
     -2598.680
 107790336.102 9  83992482.79348  20511817.639    20511815.886        1137.987
       886.743
 127637908.914 7  99458112.02945  24288681.940    24288677.297       -3130.971
     -2439.719
 16  9 14  1 59  0.0000000  0 10G10G12G13G15G17G18G19G20G24G28
 124032733.085 8  96648869.81246  23602645.041    23602643.812         957.835
       746.364
 118021112.156 8  91964489.26347  22458671.755    22458667.843        3396.374
      2646.526
 117046762.987 8  91205257.58846  22273252.316    22273248.888       -3168.912
     -2469.282
 110116109.416 9  85804748.60448  20954398.172    20954394.273       -1816.215
     -1415.233
 119621872.205 9  93211834.36147  22763280.006    22763276.088         434.995
       338.958
 120857793.419 8  94174884.89345  22998473.427    22998468.694        -704.213
      -548.738
 118287211.666 8  92171856.08847  22509311.387    22509306.268        2171.938
      1692.421
 127867413.696 7  99636933.81745  24332361.568    24332357.983       -3336.406
     -2599.798
 107756366.160 9  83966012.70348  20505353.376    20505351.636        1127.114
       878.271
 127731876.523 7  99531333.49644  24306563.397    24306558.798       -3133.446
     -2441.646
 16  9 14  1 59 30.0000000  0 10G10G12G13G15G17G18G19G20G24G28
 124004301.767 7  96626715.55046  23597234.720    23597233.525         938.546
       731.335
 117919379.055 8  91885216.73347  22439312.581    22439308.662        3386.721
      2639.003
 117141997.036 8  91279465.92646  22291374.794    22291371.329       -3179.090
     -2477.213
 110170850.487 9  85847403.97848  20964815.058    20964811.156       -1832.169
     -1427.664
 119609114.824 8  93201893.56147  22760852.343    22760848.421         416.442
       324.501
 120879180.031 8  94191549.74945  23002543.187    23002538.421        -720.660
      -561.555
 118222326.372 8  92121296.12947  22496964.121    22496958.995        2154.868
      1679.119
 127967546.710 7  99714959.55545  24351416.269    24351412.633       -3338.239
     -2601.228
 107722741.750 9  83939811.86648  20498954.865    20498953.121        1115.473
       869.199
 127825939.453 8  99604629.25945  24324462.970    24324458.398       -3136.510
     -2444.036
                            4  1
RINEX FILE SPLICE; other post-header comments skipped       COMMENT
 16  9 14  2  0  0.0000000  0 10G10G12G13G15G17G18G19G20G24G28
 123976442.982 7  96605007.40646  23591933.353    23591932.195         919.245
       716.295
 117817932.482 8  91806167.46446  22420007.938    22420003.998        3377.071
      2631.484
 117237535.155 8  91353911.19546  22309555.137    22309551.631       -3189.381
     -2485.232
 110226063.616 9  85890427.18348  20975321.774    20975317.875       -1848.044
     -1440.035
 119596913.375 8  93192385.97147  22758530.458    22758526.536         397.566
       309.793
 120901055.044 8  94208595.20945  23006705.854    23006701.048        -737.221
      -574.458
 118157954.510 8  92071136.26347  22484714.549    22484709.404        2137.135
      1665.301
 128067732.645 7  99793026.52346  24370481.051    24370477.372       -3340.162
     -2602.722
 107689459.059 9  83913877.30548  20492621.383    20492619.628        1103.962
       860.230
 127920090.576 6  99677993.73245  24342379.350    24342374.816       -3139.672
     -2446.502
 16  9 14  2  0 30.0000000  0 10G10G12G13G15G17G18G19G20G24G28
 123949154.815 7  96583743.91846  23586740.557    23586739.430         900.301
       701.532
 117716771.596 8  91727340.81847  22400757.650    22400753.682        3367.360
      2623.918
 117333372.706 8  91428589.78946  22327792.446    22327788.907       -3199.440
     -2493.069
 110281744.831 9  85933815.13548  20985917.558    20985913.663       -1863.623
     -1452.174
 119585265.778 8  93183309.94247  22756313.976    22756310.069         379.111
       295.412
 120923414.524 8  94226018.16444  23010960.726    23010955.886        -753.106
      -586.836
 118094096.186 8  92021376.55947  22472562.707    22472557.531        2120.094
      1652.022
 128167966.093 7  99871130.50345  24389554.877    24389551.175       -3341.930
     -2604.103
 107656515.720 9  83888207.18148  20486352.473    20486350.709        1092.568
       851.353
 128014325.312 7  99751423.46644  24360311.548    24360307.020       -3142.388
     -2448.616
 16  9 14  2  1  0.0000000  0 10G10G12G13G15G17G18G19G20G24G28
 123922444.531 8  96562930.71646  23581657.746    23581656.640         881.026
       686.513
 117615904.772 8  91648743.30747  22381563.318    22381559.330        3357.775
      2616.449
 117429514.688 8  91503505.59946  22346087.680    22346084.116       -3209.398
     -2500.831
 110337899.565 9  85977572.05848  20996603.452    20996599.564       -1879.239
     -1464.343
 119574179.067 8  93174670.97147  22754204.223    22754200.337         360.652
       281.029
 120946263.578 8  94243822.59645  23015308.776    23015303.928        -769.401
      -599.535
 118030760.917 8  91972024.43647  22460510.399    22460505.184        2102.721
      1638.485
 128268250.547 7  99949274.20245  24408638.415    24408634.714       -3343.278
     -2605.152
 107623918.638 9  83862806.84948  20480149.464    20480147.705        1081.223
       842.511
 128108648.882 8  99824922.33144  24378260.717    24378256.229       -3145.203
     -2450.799
 16  9 14  2  1 30.0000000  0 10G10G12G13G15G17G18G19G20G24G28
 123896309.193 7  96542565.52946  23576684.348    23576683.246         861.285
       671.133
 117515329.983 8  91570373.36247  22362424.550    22362420.546        3347.518
      2608.456
 117525955.459 8  91578654.25246  22364439.745    22364436.154       -3219.788
     -2508.924
 110394522.740 9  86021694.00748  21007378.484    21007374.602       -1895.403
     -1476.937
 119563649.865 8  93166466.41847  22752200.561    22752196.696         341.470
       266.082
 120969597.176 8  94262004.59745  23019749.042    23019744.203        -786.086
      -612.535
 117967947.507 8  91923078.95047  22448557.400    22448552.152        2085.055
      1624.719
 128368578.969 7 100027452.18945  24427730.294    24427726.599       -3345.132
     -2606.595
 107591665.077 9  83837674.21548  20474011.810    20474010.052        1069.108
       833.072
 128203055.699 7  99898486.02144  24396225.777    24396221.321       -3148.572
     -2453.438
 16  9 14  2  2  0.0000000  0 10G10G12G13G15G17G18G19G20G24G28
 123870750.096 8  96522649.34647  23571820.618    23571819.521         842.199
       656.259
 117415049.954 8  91492233.10847  22343341.861    22343337.850        3337.515
      2600.662
 117622693.931 8  91654034.85646  22382848.471    22382844.857       -3229.816
     -2516.741
 110451613.645 9  86066180.41248  21018242.531    21018238.657       -1911.031
     -1489.115
 119553679.612 8  93158697.39047  22750303.273    22750299.432         322.751
       251.495
 120993414.812 8  94280563.77645  23024281.420    23024276.587        -802.176
      -625.072
 117905659.227 8  91874542.65147  22436704.332    22436699.061        2067.229
      1610.829
 128468949.330 7 100105662.87445  24446830.143    24446826.437       -3346.563
     -2607.712
 107559755.989 9  83812809.98648  20467939.716    20467937.966        1057.614
       824.115
 128297544.645 7  99972113.81445  24414206.383    24414201.919       -3151.260
     -2455.529
 16  9 14  2  2 30.0000000  0 10G10G12G13G15G17G18G19G20G24G28
 123845765.631 7  96503180.93647  23567066.237    23567065.131         823.443
       641.644
 117315064.244 8  91414322.18446  22324315.178    22324311.169        3328.362
      2593.529
 117719726.106 8  91729644.33946  22401313.070    22401309.433       -3239.127
     -2523.996
 110509168.512 9  86111028.35848  21029194.865    21029190.991       -1925.981
     -1500.766
 119544266.604 8  93151362.60347  22748511.998    22748508.185         304.850
       237.546
 121017713.069 8  94299497.46045  23028905.259    23028900.423        -817.684
      -637.157
 117843896.425 8  91826415.81647  22424951.240    22424945.967        2050.415
      1597.727
 128569356.423 7 100183902.19845  24465936.974    24465933.238       -3347.147
     -2608.165
 107528189.714 9  83788212.89348  20461932.850    20461931.105        1046.726
       815.631
 128392111.189 7 100045801.96344  24432201.853    24432197.427       -3153.375
     -2457.180
 16  9 14  2  3  0.0000000  0 10G10G12G13G15G17G18G19G20G24G28
 123821358.648 8  96484162.50146  23562421.745    23562420.633         804.008
       626.499
 117215376.570 8  91336643.48946  22305345.211    22305341.192        3318.113
      2585.543
 117817052.248 8  91805482.86946  22419833.629    22419829.972       -3248.867
     -2531.587
 110567188.423 9  86156238.66648  21040235.710    21040231.836       -1941.540
     -1512.889
 119535413.401 9  93144464.02147  22746827.262    22746823.477         285.912
       222.789
 121042493.057 8  94318806.53645  23033620.755    23033615.901        -833.896
      -649.789
 117782664.026 8  91778702.28447  22413299.063    22413293.809        2032.278
      1583.595
 128669799.571 7 100262169.58045  24485050.694    24485046.937       -3348.314
     -2609.076
 107496968.836 9  83763884.93648  20455991.713    20455989.970        1035.138
       806.601
 128486756.083 8 100119551.31545  24450212.109    24450207.650       -3155.964
     -2459.195
 16  9 14  2  3 30.0000000  0 10G10G12G13G15G17G18G19G20G24G28
 123797533.076 8  96465597.12746  23557887.881    23557886.757         784.762
       611.502
 117115992.465 8  91259201.34546  22286433.016    22286428.967        3307.826
      2577.527
 117914673.815 8  91881551.62246  22438410.390    22438406.712       -3258.895
     -2539.397
 110625675.097 9  86201812.67948  21051365.385    21051361.516       -1957.130
     -1525.036
 119527123.853 8  93138004.65247  22745249.795    22745246.012         267.032
       208.078
 121067756.498 8  94338492.33645  23038428.239    23038423.356        -850.050
      -662.376
 117721967.988 8  91731406.69047  22401748.947    22401743.733        2014.117
      1569.443
 128770279.207 7 100340465.36745  24504171.380    24504167.606       -3349.581
     -2610.063
 107466097.434 9  83739829.30248  20450117.076    20450115.333        1023.393
       797.449
 128581480.670 8 100193362.53343  24468237.709    24468233.338       -3158.435
     -2461.110
 16  9 14  2  4  0.0000000  0 10G10G12G13G15G17G18G19G20G24G28
 123774282.114 8  96447479.48046  23553463.387    23553462.236         765.122
       596.199
 117016906.046 8  91181991.18047  22267577.466    22267573.374        3297.612
      2569.569
 118012581.326 8  91957843.18446  22457041.573    22457037.870       -3268.688
     -2547.028
 110684620.036 9  86247743.78948  21062582.260    21062578.391       -1972.813
     -1537.257
 119519390.816 8  93131978.91347  22743778.243    22743774.441         248.120
       193.341
 121093494.840 8  94358548.18845  23043326.092    23043321.164        -866.322
      -675.054
 117661803.720 8  91684525.46947  22390300.016    22390294.846        1996.022
      1555.344
 128870784.776 7 100418781.37144  24523296.996    24523293.210       -3350.942
     -2611.126
 107435568.605 9  83716040.60448  20444307.633    20444305.888        1011.642
       788.292
 128676275.700 6 100267228.91646  24486276.521    24486272.098       -3161.507
     -2463.518
 16  9 14  2  4 30.0000000  0 10G10G12G13G15G17G18G19G20G24G28
 123751613.951 8  96429815.98647  23549149.782    23549148.585         746.539
       581.719
 116918126.690 8  91105020.26947  22248780.370    22248776.243        3288.022
      2562.098
 118110781.078 8  92034362.44746  22475728.382    22475724.652       -3277.560
     -2553.942
 110744029.300 9  86294036.71148  21073887.492    21073883.615       -1987.512
     -1548.710
 119512222.564 8  93126393.27647  22742414.154    22742410.337         230.057
       179.267
 121119714.208 8  94378978.85745  23048315.488    23048310.525        -881.490
      -686.875
 117602181.073 8  91638066.28647  22378954.164    22378949.022        1978.905
      1542.006
 128971321.099 6 100497121.36044  24542428.447    24542424.643       -3351.161
     -2611.300
 107405390.253 9  83692525.00548  20438564.884    20438563.135        1000.446
       779.568
 128771147.178 8 100341154.65743  24504330.014    24504325.678       -3163.265
     -2464.871
 16  9 14  2  5  0.0000000  0 10G10G12G13G15G17G18G19G20G24G28
 123729526.110 8  96412604.68146  23544946.612    23544945.365         727.133
       566.596
 116819653.408 8  91028287.87247  22230041.515    22230037.354        3277.737
      2554.082
 118209267.955 8  92111105.46146  22494469.815    22494466.048       -3287.316
     -2561.546
 110803898.143 9  86340687.74148  21085280.178    21085276.298       -2002.883
     -1560.687
 119505616.509 8  93121245.72847  22741157.038    22741153.223         211.215
       164.585
 121146410.325 8  94399781.02845  23053395.592    23053390.596        -897.322
      -699.213
 117543099.831 8  91592028.97947  22367711.354    22367706.209        1960.687
      1527.810
 129071882.277 5 100575480.77245  24561564.579    24561560.737       -3351.991
     -2611.938
 107375559.941 9  83669280.60248  20432888.367    20432886.611         988.989
       770.642
 128866090.306 7 100415136.26045  24522397.146    24522392.782       -3165.484
     -2466.622
 16  9 14  2  5 30.0000000  0 10G10G12G13G15G17G18G19G20G24G28
 123708013.563 8  96395841.66647  23540852.909    23540851.608         707.922
       551.627
 116721481.689 8  90951790.45448  22211360.052    22211355.863        3267.705
      2546.266
 118308034.313 8  92188066.23746  22513264.444    22513260.639       -3296.382
     -2568.608
 110864220.086 9  86387691.82848  21096759.080    21096755.215       -2017.979
     -1572.453
 119499567.395 8  93116532.14347  22740005.922    22740002.119         192.891
       150.305
 121173576.175 7  94420949.21745  23058565.073    23058560.077        -912.938
      -711.382
 117484556.716 8  91546411.01647  22356570.943    22356565.769        1942.825
      1513.892
 129172459.754 5 100653852.89544  24580703.805    24580699.912       -3352.587
     -2612.404
 107346072.818 9  83646303.62748  20427277.146    20427275.380         977.645
       761.802
 128961097.204 7 100489167.71344  24540476.289    24540471.927       -3167.545
     -2468.205
 16  9 14  2  6  0.0000000  0 10G10G12G13G15G17G18G19G20G24G28
 123687088.416 8  96379536.34347  23536870.998    23536869.657         688.566
       536.545
 116623625.787 8  90875539.13848  22192738.672    22192734.468        3257.276
      2538.139
 118407089.940 8  92265252.40746  22532114.127    22532110.291       -3306.080
     -2576.168
 110925005.325 9  86435056.94548  21108326.119    21108322.271       -2033.240
     -1584.343
 119494087.232 8  93112261.90647  22738963.064    22738959.268         173.843
       135.462
 121201221.855 7  94442491.27545  23063825.855    23063820.911        -928.836
      -723.768
 117426566.214 8  91501223.63147  22345535.721    22345530.506        1924.521
      1499.628
 129273061.911 5 100732244.14345  24599847.808    24599843.892       -3352.975
     -2612.709
 107316940.551 9  83623603.15848  20421733.456    20421731.678         965.847
       752.607
 129056178.408 8 100563256.89945  24558569.689    24558565.321       -3169.962
     -2470.102
 16  9 14  2  6 30.0000000  0 10G10G12G13G15G17G18G19G20G24G28
 123666744.253 8  96363683.74447  23532999.642    23532998.261         668.012
       520.529
 116526080.102 8  90799529.55547  22174176.316    22174172.110        3245.875
      2529.255
 118506426.419 8  92342657.42746  22551017.255    22551013.384       -3316.284
     -2584.119
 110986245.194 9  86482776.29748  21119979.677    21119975.854       -2049.348
     -1596.895
 119489169.370 8  93108429.81847  22738027.211    22738023.425         153.959
       119.969
 121229339.322 8  94464400.95845  23069176.412    23069171.542        -945.662
      -736.882
 117369123.739 8  91456463.28347  22334604.784    22334599.514        1905.142
      1484.527
 129373679.398 5 100810647.34545  24618994.713    24618990.794       -3354.710
     -2614.061
 107288157.374 9  83601174.70848  20416256.195    20416254.407         953.034
       742.624
 129151325.100 6 100637397.11543  24576675.572    24576671.238       -3173.128
     -2472.568
 16  9 14  2  7  0.0000000  0  9G10G12G13G15G17G18G19G24G28
 123646975.921 8  96348279.84547  23529237.865    23529236.440         649.288
       505.938
 116428840.895 8  90723758.77948  22155672.287    22155668.087        3236.184
      2521.704
 118606035.953 8  92420275.22746  22569972.336    22569968.428       -3324.737
     -2590.703
 111047932.421 9  86530844.27248  21131718.336    21131714.527       -2063.818
     -1608.171
 119484808.628 8  93105031.85647  22737197.370    22737193.579         136.049
       106.013
 121257921.195 8  94486672.53345  23074615.345    23074610.523        -960.470
      -748.419
 117312226.270 8  91412127.61347  22323777.555    22323772.249        1887.449
      1470.741
 107259717.895 9  83579014.08148  20410844.333    20410842.542         942.370
       734.315
 129246529.495 7 100711582.48945  24594792.277    24594787.886       -3174.452
     -2473.599
 16  9 14  2  7 30.0000000  0  9G10G12G13G15G17G18G19G24G28
 123627796.122 8  96333334.55347  23525588.073    23525586.597         629.982
       490.896
 116331922.005 8  90648237.58247  22137229.225    22137225.037        3225.645
      2513.491
 118705929.151 8  92498114.07446  22588981.390    22588977.436       -3334.086
     -2597.988
 111110078.447 9  86579269.73448  21143544.314    21143540.526       -2078.747
     -1619.802
 119481017.669 9  93102077.87047  22736475.967    22736472.167         117.208
        91.332
 121286978.240 8  94509314.38345  23080144.715    23080139.898        -976.043
      -760.553
 117255888.687 8  91368228.21948  22313056.862    22313051.536        1869.014
      1456.375
 107231634.804 9  83557131.15348  20405500.294    20405498.505         930.518
       725.079
 129341802.673 7 100785821.17643  24612922.287    24612917.949       -3176.500
     -2475.190
 16  9 14  2  8  0.0000000  0  9G10G12G13G15G17G18G19G24G28
 123609197.435 8  96318842.04947  23522048.887    23522047.367         609.941
       475.277
 116235317.763 8  90572961.56847  22118846.032    22118841.858        3214.756
      2505.005
 118806096.125 8  92576166.26745  22608042.540    22608038.520       -3343.576
     -2605.384
 111172673.541 9  86628045.11148  21155455.756    21155451.990       -2094.081
     -1631.752
 119477788.689 8  93099561.79647  22735861.502    22735857.711          98.180
        76.503
 121316501.645 8  94532319.61045  23085762.860    23085758.021        -991.912
      -772.918
 117200105.230 8  91324760.59647  22302441.625    22302436.296        1850.057
      1441.602
 107203901.133 9  83535520.49248  20400222.752    20400220.970         918.498
       715.712
 129437134.763 6 100860106.02344  24631063.329    24631058.923       -3178.740
     -2476.952
 16  9 14  2  8 30.0000000  0  9G10G12G13G15G17G18G19G24G28
 123591183.118 8  96304804.91747  23518620.892    23518619.324         591.161
       460.645
 116139032.265 8  90497933.93247  22100523.494    22100519.324        3204.646
      2497.128
 118906537.986 8  92654432.64146  22627156.017    22627151.930       -3352.225
     -2612.123
 111235719.284 9  86677171.64548  21167452.958    21167449.202       -2108.567
     -1643.040
 119475124.807 8  93097486.07647  22735354.553    22735350.785          79.858
        62.228
 121346492.460 8  94555689.06145  23091469.952    23091465.068       -1007.161
      -784.801
 117144881.294 9  91281728.98047  22291932.849    22291927.517        1831.851
      1427.417
 107176519.958 9  83514184.51148  20395012.278    20395010.499         907.150
       706.871
 129532526.939 8 100934437.52843  24649215.909    24649211.547       -3180.320
     -2478.161
 16  9 14  2  9  0.0000000  0  9G10G12G13G15G17G18G19G24G28
 123573753.702 8  96291223.53347  23515304.218    23515302.606         571.847
       445.594
 116043067.403 8  90423156.13447  22082261.978    22082257.810        3194.000
      2488.833
 119007252.866 8  92732911.76246  22646321.451    22646317.300       -3361.170
     -2619.095
 111299214.136 9  86726648.14748  21179535.623    21179531.863       -2123.407
     -1654.603
 119473026.503 9  93095851.03447  22734955.258    22734951.506          61.082
        47.596
 121376949.301 8  94579421.63345  23097265.737    23097260.804       -1022.397
      -796.674
 117090219.571 8  91239135.45047  22281531.062    22281525.729        1813.312
      1412.971
 107149491.936 9  83493123.71348  20389869.007    20389867.231         895.619
       697.886
 129627977.579 7 101008814.64244  24667379.589    24667375.185       -3182.403
     -2479.797
 16  9 14  2  9 30.0000000  0  9G10G12G13G15G17G18G19G24G28
 123556905.226 8  96278094.86747  23512098.068    23512096.406         551.645
       429.855
 115947421.091 8  90348626.56147  22064061.080    22064056.917        3182.707
      2480.032
 119108234.563 8  92811598.78746  22665537.665    22665533.452       -3370.648
     -2626.480
 111363152.242 9  86776470.02948  21191702.653    21191698.883       -2138.829
     -1666.621
 119471490.001 8  93094653.76247  22734662.875    22734659.097          41.724
        32.512
 121407866.480 8  94603512.92445  23103149.104    23103144.128       -1038.316
      -809.075
 117036118.277 8  91196978.62247  22271235.917    22271230.577        1793.884
      1397.833
 107122813.700 9  83472335.48448  20384792.291    20384790.517         883.221
       688.225
 129723480.839 6 101083232.78943  24685553.265    24685548.851       -3184.533
     -2481.453
 16  9 14  2 10  0.0000000  0  9G10G12G13G15G17G18G19G24G28
 123540645.169 8  96265424.68247  23509003.922    23509002.210         532.398
       414.856
 115852101.850 8  90274351.84247  22045922.427    22045918.268        3172.191
      2471.838
 119209488.465 8  92890497.90545  22684805.688    22684801.430       -3379.260
     -2633.190
 111427539.480 9  86826641.89748  21203955.142    21203951.352       -2153.359
     -1677.942
 119470522.334 8  93093899.76047  22734478.721    22734474.918          23.209
        18.086
 121439249.727 8  94627967.36045  23109121.168    23109116.167       -1053.657
      -821.033
 116982587.062 8  91155265.99747  22261049.260    22261043.914        1775.191
      1383.267
 107096492.641 9  83451825.56748  20379783.551    20379781.783         871.725
       679.267
 129819042.040 7 101157696.07744  24703737.962    24703733.526       -3186.182
     -2482.735
 16  9 14  2 10 30.0000000  0  9G10G12G13G15G17G18G19G24G28
 123524971.213 8  96253211.21047  23506021.308    23506019.532         513.019
       399.756
 115757108.794 8  90200331.29547  22027845.846    22027841.687        3161.197
      2463.271
 119311009.910 8  92969605.52645  22704124.602    22704120.293       -3388.317
     -2640.248
 111492371.591 9  86877160.41448  21216292.290    21216288.478       -2168.298
     -1689.583
 119470121.054 8  93093587.09547  22734402.348    22734398.552           4.184
         3.260
 121471094.596 8  94652781.52346  23115181.049    23115176.043       -1068.951
      -832.950
 116929625.264 8  91113997.07247  22250970.957    22250965.600        1756.039
      1368.343
 107070526.462 9  83431592.18248  20374842.347    20374840.584         859.750
       669.935
 129914656.854 6 101232201.01844  24721932.965    24721928.543       -3187.982
     -2484.151
 16  9 14  2 11  0.0000000  0  9G10G12G13G15G17G18G19G24G28
 123509878.539 8  96241450.66447  23503149.317    23503147.486         493.384
       384.454
 115662438.800 8  90126562.47447  22009830.748    22009826.580        3150.282
      2454.767
 119412791.780 8  93048916.06845  22723493.083    22723488.717       -3397.110
     -2647.100
 111557641.824 9  86928020.32048  21228712.815    21228708.988       -2182.975
     -1701.021
 119470281.159 9  93093711.86147  22734432.810    22734429.023         -14.623
       -11.395
 121503394.782 8  94677950.46845  23121327.588    23121322.602       -1084.198
      -844.829
 116877230.411 8  91073169.93147  22241000.527    22240995.151        1737.095
      1353.580
 107044910.713 9  83411631.85148  20369967.835    20369966.075         848.013
       660.788
 130010318.400 6 101306742.58544  24740136.705    24740132.220       -3188.886
     -2484.846
 16  9 14  2 11 30.0000000  0  9G10G12G13G15G17G18G19G24G28
 123495375.889 8  96230149.89446  23500389.586    23500387.703         473.743
       369.150
 115568101.572 8  90053052.93847  21991878.985    21991874.798        3139.263
      2446.179
 119514840.954 8  93128434.89345  22742912.441    22742908.007       -3405.951
     -2653.988
 111623357.286 9  86979227.15948  21241218.062    21241214.231       -2197.784
     -1712.560
 119471011.365 9  93094280.84647  22734571.771    22734567.943         -33.643
       -26.214
 121536156.930 8  94703479.37246  23127562.053    23127557.088       -1099.788
      -856.979
 116825413.376 8  91032793.03847  22231140.048    22231134.661        1717.857
      1338.590
 107019654.472 9  83391951.66348  20365161.732    20365159.972         836.118
       651.521
 130106033.871 7 101381325.96644  24758350.849    24758346.362       -3191.156
     -2486.614
 16  9 14  2 12  0.0000000  0  9G10G12G13G15G17G18G19G24G28
 123481455.576 8  96219302.88747  23497740.673    23497738.743         454.176
       353.903
 115474090.885 8  89979797.89847  21973989.316    21973985.107        3127.952
      2437.366
 119617147.513 8  93208154.27545  22762380.782    22762376.284       -3414.768
     -2660.858
 111689508.442 9  87030773.50448  21253806.215    21253802.390       -2212.600
     -1724.104
 119472303.851 8  93095287.98947  22734817.721    22734813.831         -52.773
       -41.121
 121569371.279 8  94729360.67546  23133882.541    23133877.602       -1114.879
      -868.737
 116774168.354 8  90992861.86647  22221388.430    22221383.029        1698.370
      1323.405
 106994750.141 9  83372545.69348  20360422.593    20360420.834         823.989
       642.070
 130201793.350 6 101455943.81244  24776573.249    24776568.705       -3192.911
     -2487.986
 16  9 14  2 12 30.0000000  0  9G10G12G13G15G17G18G19G24G28
 123468124.623 8  96208915.13347  23495203.897    23495201.931         435.335
       339.224
 115380416.047 8  89906804.53047  21956163.578    21956159.354        3117.769
      2429.432
 119719716.402 8  93288078.07446  22781899.036    22781894.482       -3422.351
     -2666.767
 111756100.336 9  87082663.27348  21266478.238    21266474.432       -2226.204
     -1734.706
 119474165.592 9  93096738.71247  22735171.992    22735168.075         -70.675
       -55.071
 121603043.387 8  94755598.66646  23140290.146    23140285.235       -1129.097
      -879.814
 116723504.764 8  90953383.77347  22211747.449    22211742.035        1679.984
      1309.080
 106970205.542 9  83353420.02748  20355751.910    20355750.154         813.019
       633.521
 130297602.011 7 101530599.85844  24794805.079    24794800.548       -3193.550
     -2488.479
 16  9 14  2 13  0.0000000  0  9G10G12G13G15G17G18G19G24G28
 123455378.358 8  96198982.96347  23492778.393    23492776.394         415.271
       323.588
 115287073.206 8  89834069.85547  21938401.029    21938396.796        3106.123
      2420.356
 119822540.924 8  93368201.06245  22801465.937    22801461.341       -3431.607
     -2673.979
 111823126.771 9  87134891.64248  21279232.946    21279229.177       -2241.102
     -1746.313
 119476591.500 8  93098629.05747  22735633.607    22735629.696         -89.934
       -70.077
 121637166.886 8  94782188.39446  23146783.650    23146778.758       -1144.890
      -892.120
 116673419.492 8  90914356.31147  22202216.516    22202211.101        1660.067
      1293.561
 106946015.872 9  83334570.93848  20351148.761    20351147.007         800.604
       623.848
 130393453.498 7 101605289.37044  24813044.993    24813040.443       -3195.648
     -2490.116
 16  9 14  2 13 30.0000000  0  9G10G12G13G15G17G18G19G24G28
 123443219.299 8  96189508.36346  23490464.609    23490462.594         395.342
       308.057
 115194066.377 8  89761597.02447  21920702.415    21920698.164        3094.419
      2411.237
 119925621.354 8  93448523.45645  22821081.530    22821076.903       -3440.396
     -2680.828
 111890588.580 9  87187459.27548  21292070.491    21292066.765       -2256.144
     -1758.033
 119479584.217 8  93100961.04847  22736203.097    22736199.193        -109.401
       -85.247
 121671742.379 8  94809130.33246  23153363.153    23153358.266       -1160.250
      -904.087
 116623917.578 8  90875783.40747  22192796.591    22192791.184        1640.215
      1278.090
 106922184.145 9  83316000.76348  20346613.730    20346611.980         788.254
       614.224
 130489348.195 7 101680012.47144  24831293.190    24831288.645       -3197.327
     -2491.426
 16  9 14  2 14  0.0000000  0  9G10G12G13G15G17G18G19G24G28
 123431649.238 8  96180492.72446  23488262.893    23488260.873         375.897
       292.907
 115101399.129 8  89689388.79148  21903068.432    21903064.170        3083.272
      2402.552
 120028957.525 8  93529045.12845  22840745.778    22840741.135       -3448.603
     -2687.225
 111958485.373 9  87240365.86048  21304990.812    21304987.125       -2270.362
     -1769.112
 119483145.759 8  93103736.29247  22736880.822    22736876.906        -128.185
       -99.882
 121706769.949 8  94836424.52445  23160028.679    23160023.797       -1174.983
      -915.573
 116575002.622 8  90837667.88247  22183488.344    22183482.944        1620.732
      1262.909
 106898712.613 9  83297711.26048  20342147.245    20342145.497         776.515
       605.077
 130585286.434 7 101754769.55144  24849549.627    24849545.069       -3198.391
     -2492.245
 16  9 14  2 14 30.0000000  0  9G10G12G13G15G17G18G19G24G28
 123420662.887 8  96171931.91546  23486172.245    23486170.244         356.482
       277.778
 115009067.780 8  89617442.30848  21885498.365    21885494.092        3072.065
      2393.817
 120132541.796 8  93609760.12446  22860457.223    22860452.585       -3456.970
     -2693.744
 112026810.041 9  87293605.83548  21317992.573    21317988.931       -2284.590
     -1780.200
 119487270.197 8  93106950.14647  22737665.672    22737661.741        -146.842
      -114.423
 121742242.274 8  94864065.26245  23166778.836    23166773.973       -1189.803
      -927.124
 116526671.620 8  90800007.36747  22174291.229    22174285.838        1601.310
      1247.773
 106875595.851 9  83279698.19248  20337748.277    20337746.527         764.676
       595.852
 130681261.288 6 101829555.07644  24867813.106    24867808.538       -3200.146
     -2493.629
 16  9 14  2 15  0.0000000  0  9G10G12G13G15G17G18G19G24G28
 123410264.512 8  96163829.28747  23484193.464    23484191.488         336.825
       262.461
 114917077.465 9  89545761.56548  21867993.196    21867988.912        3060.594
      2384.880
 120236376.478 8  93690670.24746  22880216.302    22880211.696       -3465.318
     -2700.249
 112095565.871 9  87347181.79648  21331076.371    21331072.769       -2299.095
     -1791.504
 119491961.812 9  93110605.97247  22738558.435    22738554.497        -165.924
      -129.291
 121778161.726 8  94892054.45045  23173614.054    23173609.195       -1204.806
      -938.812
 116478930.910 8  90762806.84247  22165206.431    22165201.036        1581.489
      1232.330
 106852838.820 9  83261965.44348  20333417.755    20333415.996         752.452
       586.326
 130777275.075 7 101904371.06044  24886083.885    24886079.311       -3200.901
     -2494.203
 16  9 14  2 15 30.0000000  0  9G10G12G13G15G17G18G19G24G28
 123400452.144 8  96156183.27046  23482326.209    23482324.266         317.372
       247.302
 114825428.309 8  89474346.65647  21850552.947    21850548.657        3049.205
      2376.005
 120340457.761 8  93771772.55146  22900022.285    22900017.715       -3473.521
     -2706.639
 112164748.597 9  87401090.40448  21344241.407    21344237.838       -2313.291
     -1802.564
 119497218.665 8  93114702.24447  22739558.759    22739554.818        -184.767
      -143.973
 121814524.903 8  94920389.36645  23180533.748    23180528.891       -1219.596
      -950.335
 116431780.635 8  90726066.39347  22156233.998    22156228.598        1561.807
      1216.993
 106830440.353 9  83244512.08648  20329155.469    20329153.701         740.621
       577.107
 130873324.432 7 101979214.64044  24904361.537    24904356.961       -3202.425
     -2495.400
 16  9 14  2 16  0.0000000  0  9G10G12G13G15G17G18G19G24G28
 123391225.327 8  96148993.55447  23480570.370    23480568.433         298.020
       232.225
 114734121.962 8  89403198.86647  21833177.935    21833173.633        3037.993
      2367.268
 120444783.329 8  93853065.18846  22919874.770    22919870.253       -3481.453
     -2712.820
 112234356.389 9  87455330.22848  21357487.334    21357483.801       -2327.127
     -1813.347
 119503040.094 8  93119238.43247  22740666.528    22740662.585        -203.229
      -158.360
 121851329.290 8  94949068.10845  23187537.400    23187532.527       -1233.891
      -961.473
 116385222.377 8  90689787.25347  22147374.237    22147368.835        1542.272
      1201.771
 106808400.285 9  83227338.01148  20324961.375    20324959.599         728.842
       567.929
 130969406.809 7 102054084.08844  24922645.363    24922640.778       -3203.168
     -2495.972
 16  9 14  2 16 30.0000000  0  9G10G12G13G15G17G18G19G24G28
 123382588.040 8  96142263.18746  23478926.745    23478924.806         278.259
       216.823
 114643163.612 8  89332322.23447  21815869.147    21815864.828        3026.293
      2358.149
 120549355.063 8  93934549.65046  22939774.094    22939769.635       -3489.548
     -2719.127
 112304391.406 9  87509902.94948  21370814.560    21370811.067       -2341.344
     -1824.425
 119509429.978 9  93124217.56747  22741882.478    22741878.534        -222.240
      -173.174
 121888577.468 8  94978092.62945  23194625.543    23194620.653       -1248.725
      -973.033
 116339262.212 8  90653974.16747  22138628.289    22138622.892        1522.280
      1186.194
 106786723.225 9  83210446.79148  20320836.364    20320834.587         716.799
       558.544
 131065524.971 7 102128981.25244  24940936.117    24940931.562       -3204.104
     -2496.709
 16  9 14  2 17  0.0000000  0  9G10G12G13G15G17G18G19G24G28
 123374535.954 8  96135988.83446  23477394.475    23477392.515         258.437
       201.382
 114552550.261 8  89261714.45247  21798625.989    21798621.648        3014.522
      2348.980
 120654166.706 8  94016221.05846  22959719.063    22959714.664       -3497.844
     -2725.592
 112374847.143 9  87564803.50748  21384221.836    21384218.387       -2355.733
     -1835.637
 119516383.819 8  93129636.15547  22743205.743    22743201.795        -241.392
      -188.097
 121926263.130 8  95007458.04545  23201796.949    23201792.034       -1263.625
      -984.646
 116293897.921 8  90618625.37947  22129995.745    22129990.365        1501.937
      1170.342
 106765405.088 9  83193835.25648  20316779.653    20316777.873         704.397
       548.882
 131161672.947 7 102203901.74744  24959232.474    24959227.929       -3205.497
     -2497.793
 16  9 14  2 17 30.0000000  0  9G10G12G13G15G17G18G19G24G28
 123367073.607 8  96130174.01846  23475974.435    23475972.438         239.538
       186.654
 114462288.166 8  89191380.38747  21781449.656    21781445.300        3003.359
      2340.282
 120759220.896 7  94098081.46546  22979710.184    22979705.862       -3505.417
     -2731.492
 112445727.222 8  87620034.72948  21397709.846    21397706.447       -2369.256
     -1846.174
 119523906.239 8  93135497.79547  22744637.198    22744633.244        -259.701
      -202.363
 121964389.029 8  95037166.51745  23209052.121    23209047.179       -1277.928
      -995.789
 116249136.381 8  90583746.26647  22121477.896    22121472.534        1482.563
      1155.246
 106744451.120 9  83177507.48748  20312792.246    20312790.459         692.980
       539.985
 131257853.250 7 102278847.44145  24977534.972    24977530.436       -3206.123
     -2498.276
 16  9 14  2 18  0.0000000  0  8G10G12G13G15G17G18G19G24
 123360198.113 8  96124816.48646  23474666.085    23474664.036         219.171
       170.782
 114372376.446 8  89121319.32947  21764340.001    21764335.645        2990.941
      2330.605
 120864512.754 8  94180127.03546  22999746.550    22999742.332       -3513.840
     -2738.061
 112517026.797 9  87675592.82548  21411277.686    21411274.335       -2383.855
     -1857.550
 119531994.167 9  93141800.09747  22746176.266    22746172.299        -279.299
      -217.635
 122002950.498 7  95067214.40945  23216390.161    23216385.190       -1292.811
     -1007.384
 116204976.581 8  90549336.05347  22113074.541    22113069.198        1461.699
      1138.987
 106723858.967 9  83161461.65548  20308873.691    20308871.894         680.165
       529.999
 16  9 14  2 18 30.0000000  0  8G10G12G13G15G17G18G19G24
 123353909.567 8  96119916.31446  23473469.436    23473467.331         199.853
       155.730
 114282816.337 8  89051532.26247  21747297.243    21747292.897        2979.473
      2321.669
 120970040.346 7  94262356.32345  23019827.749    23019823.636       -3521.505
     -2744.029
 112588744.286 9  87731476.57148  21424925.053    21424921.740       -2397.515
     -1868.192
 119540647.513 9  93148542.97047  22747822.949    22747818.970        -297.903
      -232.133
 122041946.090 7  95097600.54444  23223810.824    23223805.833       -1307.110
     -1018.531
 116161420.700 8  90515396.41647  22104786.115    22104780.785        1441.800
      1123.480
 106703628.791 9  83145697.87548  20305024.025    20305022.227         668.279
       520.737
 16  9 14  2 19  0.0000000  0  8G10G12G13G15G17G18G19G24
 123348210.339 8  96115475.35446  23472384.932    23472382.764         180.150
       140.377
 114193612.404 8  88982022.72547  21730322.273    21730317.945        2967.437
      2312.289
 121075804.451 7  94344769.87045  23039953.971    23039949.979       -3529.491
     -2750.254
 112660880.586 9  87787686.66148  21438652.126    21438648.836       -2411.592
     -1879.164
 119549868.516 9  93155728.18047  22749577.655    22749573.662        -316.924
      -246.954
 122081376.513 7  95128325.55545  23231314.180    23231309.158       -1321.707
     -1029.902
 116118473.064 8  90481930.75247  22096613.430    22096608.086        1421.336
      1107.535
 106683764.087 9  83130218.88348  20301243.903    20301242.107         656.060
       511.215
 16  9 14  2 19 30.0000000  0  8G10G12G13G15G17G18G19G24
 123343095.831 8  96111490.01946  23471411.701    23471409.455         160.980
       125.439
 114104761.486 8  88912788.27247  21713414.481    21713410.163        2955.987
      2303.367
 121181798.585 8  94427362.67345  23060123.949    23060120.073       -3536.718
     -2755.887
 112733429.157 9  87844218.00048  21452457.659    21452454.383       -2424.885
     -1889.521
 119559652.491 8  93163352.08547  22751439.473    22751435.468        -335.375
      -261.331
 122121235.529 7  95159384.51444  23238899.085    23238894.060       -1335.387
     -1040.562
 116076131.427 8  90448937.29847  22088556.064    22088550.690        1401.411
      1092.010
 106664260.685 9  83115021.42948  20297532.532    20297530.742         644.346
       502.087
 16  9 14  2 20  0.0000000  0  8G10G12G13G15G17G18G19G24
 123338568.618 8  96107962.32246  23470550.228    23470547.903         141.039
       109.901
 114016268.134 8  88843832.44447  21696574.734    21696570.418        2943.787
      2293.862
 121288023.359 8  94510135.21446  23080337.810    23080334.037       -3544.729
     -2762.128
 112806391.581 9  87901071.82748  21466341.951    21466338.676       -2439.051
     -1900.560
 119570001.986 8  93171416.64747  22753408.903    22753404.895        -354.514
      -276.243
 122161523.884 6  95190778.03745  23246565.651    23246560.652       -1350.243
     -1052.139
 116034400.355 8  90416419.60647  22080614.892    22080609.490        1380.700
      1075.872
 106645122.008 9  83100108.17548  20293890.568    20293888.786         631.831
       492.337
 16  9 14  2 20 30.0000000  0  8G10G12G13G15G17G18G19G24
 123334627.016 8  96104890.92946  23469800.198    23469797.819         121.931
        95.010
 113928132.306 8  88775155.19147  21679803.031    21679798.724        2932.170
      2284.809
 121394475.577 8  94593084.97845  23100594.972    23100591.286       -3552.007
     -2767.799
 112879764.157 9  87958245.25448  21480304.299    21480301.011       -2452.258
     -1910.851
 119580915.242 8  93179920.48747  22755485.625    22755481.617        -372.887
      -290.561
 122202238.154 7  95222503.42444  23254313.266    23254308.317       -1363.586
     -1062.533
 115993280.257 8  90384377.98747  22072789.997    22072784.580        1360.778
      1060.348
 106626346.991 9  83085478.28148  20290317.818    20290316.038         620.087
       483.184
 16  9 14  2 21  0.0000000  0  8G10G12G13G15G17G18G19G24
 123331269.794 8  96102274.90246  23469161.362    23469158.930         102.019
        79.494
 113840354.190 8  88706756.68047  21663099.396    21663095.092        2919.839
      2275.201
 121501152.138 8  94676209.55646  23120894.841    23120891.220       -3559.758
     -2773.837
 112953544.327 9  88015736.28548  21494344.216    21494340.902       -2466.268
     -1921.768
 119592391.199 8  93188862.79747  22757669.426    22757665.413        -392.043
      -305.487
 122243375.116 7  95254558.17545  23262141.324    23262136.453       -1378.427
     -1074.098
 115952772.089 8  90352813.18948  22065081.549    22065076.136        1339.941
      1044.111
 106607934.781 9  83071131.09248  20286814.108    20286812.328         607.476
       473.357
 16  9 14  2 21 30.0000000  0  8G10G12G13G15G17G18G19G24
 123328499.366 8  96100116.14346  23468634.174    23468631.668          82.758
        64.486
 113752938.478 8  88638640.56347  21646464.717    21646460.410        2907.876
      2265.879
 121608053.314 8  94759509.17245  23141237.461    23141233.886       -3566.955
     -2779.445
 113027732.729 9  88073545.43048  21508461.806    21508458.465       -2479.615
     -1932.167
 119604431.720 8  93198245.03847  22759960.653    22759956.628        -410.810
      -320.109
 122284936.190 6  95286943.41745  23270050.082    23270045.303       -1392.504
     -1085.066
 115912880.474 8  90321728.83448  22057490.414    22057485.016        1319.475
      1028.164
 106589889.139 9  83057069.55548  20283380.141    20283378.359         595.535
       464.055
 16  9 14  2 22  0.0000000  0  8G10G12G13G15G17G18G19G24
 123326315.436 8  96098414.35746  23468218.618    23468216.049          63.421
        49.418
 113665886.453 9  88570807.83947  21629899.240    21629894.934        2895.882
      2256.532
 121715177.351 8  94842982.44645  23161622.506    23161618.964       -3574.264
     -2785.141
 113102327.508 9  88131671.21848  21522656.733    21522653.377       -2493.115
     -1942.687
 119617036.417 8  93208066.88847  22762359.242    22762355.215        -429.265
      -334.491
 122326918.928 7  95319657.20744  23278039.100    23278034.410       -1406.211
     -1095.747
 115873607.006 9  90291126.15447  22050016.909    22050011.526        1299.004
      1012.212
 106572209.800 9  83043293.44249  20280015.880    20280014.101         583.365
       454.570
 16  9 14  2 22 30.0000000  0  8G10G12G13G15G17G18G19G24
 123324716.825 8  96097168.68746  23467914.409    23467911.798          43.473
        33.875
 113579198.234 9  88503258.59647  21613403.001    21613398.697        2883.433
      2246.832
 121822521.522 8  94926627.24645  23182049.455    23182045.939       -3581.964
     -2791.140
 113177325.800 9  88190111.41948  21536928.442    21536925.088       -2506.789
     -1953.343
 119630204.569 8  93218327.80447  22764865.044    22764861.018        -448.449
      -349.439
 122369320.932 7  95352697.72745  23286107.879    23286103.247       -1420.204
     -1106.650
 115834952.762 9  90261005.98547  22042661.245    22042655.868        1278.021
       995.862
 106554896.822 9  83029802.81148  20276721.334    20276719.559         570.859
       444.826
 16  9 14  2 23  0.0000000  0  8G10G12G13G15G17G18G19G24
 123323704.469 8  96096379.83246  23467721.753    23467719.127          23.702
        18.469
 113492877.605 8  88435995.79547  21596976.707    21596972.400        2871.122
      2237.240
 121930085.067 8  95010443.01445  23202518.133    23202514.627       -3589.131
     -2796.721
 113252727.322 9  88248865.84148  21551276.858    21551273.513       -2520.202
     -1963.793
 119643936.707 9  93229028.17747  22767478.182    22767474.153        -467.248
      -364.089
 122412141.413 7  95386064.31145  23294256.313    23294251.737       -1434.784
     -1118.015
 115796920.415 8  90231370.42147  22035423.919    22035418.536        1257.214
       979.649
 106537951.285 9  83016598.50049  20273496.707    20273494.937         558.683
       435.338
 16  9 14  2 23 30.0000000  0  8G10G12G13G15G17G18G19G24
 123323275.403 8  96096045.48447  23467640.092    23467637.463           4.819
         3.755
 113406922.714 8  88369017.98448  21580620.005    21580615.703        2859.029
      2227.815
 122037862.662 8  95094425.53545  23223027.572    23223024.077       -3596.066
     -2802.132
 113328527.866 9  88307931.19047  21565701.206    21565697.860       -2533.230
     -1973.946
 119658229.502 8  93240165.41247  22770198.024    22770193.986        -485.753
      -378.510
 122455375.383 7  95419753.10645  23302483.448    23302478.906       -1448.227
     -1128.488
 115759509.363 8  90202218.96047  22028304.837    22028299.443        1236.675
       963.643
 106521371.814 9  83003679.42149  20270341.752    20270339.992         546.635
       425.948
 16  9 14  2 24  0.0000000  0  8G10G12G13G15G17G18G19G24
 123323432.652 8  96096168.00446  23467670.002    23467667.376         -14.766
       -11.506
 113321338.691 8  88302329.16248  21564333.876    21564329.584        2846.657
      2218.175
 122145856.547 7  95178576.60645  23243578.159    23243574.665       -3603.090
     -2807.605
 113404728.603 9  88367308.38348  21580201.707    21580198.350       -2546.496
     -1984.283
 119673086.244 8  93251742.10447  22773025.167    22773021.106        -504.590
      -393.187
 122499024.359 8  95453765.26945  23310789.593    23310785.071       -1461.777
     -1139.049
 115722724.790 8  90173555.69348  22021304.940    22021299.531        1215.883
       947.441
 106505161.756 9  82991048.20349  20267257.091    20267255.335         534.326
       416.357
 16  9 14  2 24 30.0000000  0  8G10G12G13G15G17G18G19G24
 123324174.787 8  96096746.29046  23467811.199    23467808.589         -34.252
       -26.688
 113236125.614 8  88235929.38248  21548118.341    21548114.067        2834.396
      2208.621
 122254063.340 7  95262893.55945  23264169.267    23264165.774       -3610.097
     -2813.063
 113481326.906 9  88426995.37148  21594777.867    21594774.495       -2559.653
     -1994.534
 119688505.832 8  93263757.37047  22775959.416    22775955.337        -523.082
      -407.597
 122543085.835 8  95488098.87245  23319174.243    23319169.730       -1475.135
     -1149.456
 115686567.752 8  90145381.40247  22014424.457    22014419.061        1194.992
       931.164
 106489320.617 9  82978704.45649  20264242.629    20264240.879         522.098
       406.829
 16  9 14  2 25  0.0000000  0  8G10G12G13G15G17G18G19G24
 123325498.851 8  96097778.02746  23468063.140    23468060.553         -54.008
       -42.084
 113151282.698 8  88169818.04648  21531973.242    21531968.985        2821.633
      2198.675
 122362478.516 7  95347372.90545  23284800.010    23284796.512       -3617.502
     -2818.834
 113558318.173 9  88486988.54848  21609428.822    21609425.442       -2573.176
     -2005.073
 119704484.818 8  93276208.53647  22779000.104    22778996.022        -542.243
      -422.527
 122587555.053 8  95522750.19145  23327636.509    23327631.999       -1489.220
     -1160.432
 115651037.674 8  90117695.63447  22007663.293    22007657.923        1173.677
       914.554
 106473846.797 9  82966646.92849  20261298.065    20261296.325         509.431
       396.958
 16  9 14  2 25 30.0000000  0  8G10G12G13G15G17G18G19G24
 123327408.862 8  96099266.32847  23468426.600    23468424.044         -73.131
       -56.986
 113066816.117 8  88103999.95348  21515899.750    21515895.519        2809.468
      2189.195
 122471104.345 7  95432016.41645  23305470.816    23305467.304       -3624.175
     -2824.032
 113635705.045 9  88547289.98548  21624155.062    21624151.675       -2586.016
     -2015.078
 119721027.113 8  93289098.64447  22782147.978    22782143.905        -560.616
      -436.844
 122632434.244 8  95557720.95445  23336176.804    23336172.307       -1502.568
     -1170.833
 115616139.362 8  90090502.17047  22001022.333    22001016.987        1152.818
       898.301
 106458744.322 9  82954878.76249  20258424.162    20258422.437         497.362
       387.555
 16  9 14  2 26  0.0000000  0  8G10G12G13G15G17G18G19G24
 123329900.221 8  96101207.63947  23468900.685    23468898.159         -92.857
       -72.356
 112982723.174 8  88038472.99648  21499897.365    21499893.160        2796.763
      2179.295
 122579934.874 8  95516819.39745  23326180.603    23326177.078       -3631.161
     -2829.479
 113713481.614 8  88607895.09448  21638955.451    21638952.054       -2599.183
     -2025.337
 119738128.076 8  93302424.07547  22785402.163    22785398.100        -579.409
      -451.488
 122677717.074 8  95593006.25745  23344793.897    23344789.406       -1516.135
     -1181.404
 115581870.795 8  90063799.40747  21994501.216    21994495.894        1131.606
       881.771
 106444010.109 9  82943397.55149  20255620.335    20255618.633         484.898
       377.842
 16  9 14  2 26 30.0000000  0  8G10G12G13G15G17G18G19G24
 123332973.647 8  96103602.52347  23469485.537    23469483.027        -112.020
       -87.289
 112899006.376 8  87973239.15848  21483966.543    21483962.361        2784.329
      2169.608
 122688969.269 8  95601781.25545  23346929.169    23346925.618       -3637.762
     -2834.621
 113791647.048 9  88668803.20448  21653829.848    21653826.443       -2611.837
     -2035.198
 119755788.500 8  93316185.45347  22788762.811    22788758.754        -597.875
      -465.877
 122723403.115 8  95628605.73345  23353487.724    23353483.235       -1529.392
     -1191.735
 115548234.798 8  90037589.56747  21988100.470    21988095.157        1110.738
       865.511
 106429645.564 9  82932204.40749  20252886.843    20252885.161         472.771
       368.393
 16  9 14  2 27  0.0000000  0  8G10G12G13G15G17G18G19G24
 123336630.219 8  96106451.79647  23470181.382    23470178.891        -131.502
      -102.470
 112815668.203 8  87908300.35348  21468107.772    21468103.618        2771.687
      2159.757
 122798206.923 8  95686901.50545  23367716.411    23367712.824       -3644.550
     -2839.911
 113870200.792 9  88730013.89748  21668778.139    21668774.722       -2624.949
     -2045.415
 119774009.345 8  93330383.52647  22792230.106    22792226.043        -616.515
      -480.401
 122769491.673 8  95664518.89145  23362258.112    23362253.594       -1542.652
     -1202.066
 115515234.659 8  90011875.20347  21981820.729    21981815.416        1089.447
       848.921
 106415652.844 9  82921300.99348  20250224.110    20250222.442         460.293
       358.670
 16  9 14  2 27 30.0000000  0  8G10G12G13G15G17G18G19G24
 123340867.809 8  96109753.79947  23470987.804    23470985.334        -150.974
      -117.644
 112732709.091 8  87843656.91048  21452321.144    21452317.023        2758.892
      2149.787
 122907644.222 8  95772177.32245  23388541.649    23388538.022       -3651.265
     -2845.142
 113949139.515 9  88791524.56648  21683799.705    21683796.271       -2637.778
     -2055.413
 119792788.106 8  93345016.32847  22795803.583    22795799.516        -635.317
      -495.053
 122815979.154 8  95700742.87745  23371104.424    23371099.863       -1556.089
     -1212.536
 115482870.496 8  89986656.39547  21975662.018    21975656.700        1068.013
       832.219
 106402030.794 9  82910686.40448  20247631.921    20247630.260         447.794
       348.931
 16  9 14  2 28  0.0000000  0  8G10G12G13G15G17G18G19G24
 123345687.709 8  96113509.57247  23471905.021    23471902.561        -170.257
      -132.667
 112650132.313 8  87779311.38348  21436607.273    21436603.190        2746.252
      2139.937
 123017281.049 8  95857608.61045  23409404.862    23409401.193       -3657.914
     -2850.322
 114028463.345 9  88853335.33248  21698894.555    21698891.094       -2650.352
     -2065.210
 119812126.361 8  93360085.10447  22799483.522    22799479.452        -653.711
      -509.385
 122862865.337 8  95737277.53945  23380026.612    23380022.010       -1569.772
     -1223.198
 115451145.597 8  89961935.71147  21969624.961    21969619.626        1046.920
       815.782
 106388781.691 9  82900362.42649  20245110.701    20245109.041         435.589
       339.419
 16  9 14  2 28 30.0000000  0  8G10G12G13G15G17G18G19G24
 123351088.246 8  96117717.78447  23472932.735    23472930.284        -189.463
      -147.633
 112567937.914 9  87715263.81648  21420966.169    21420962.112        2733.635
      2130.104
 123127114.527 8  95943193.12845  23430305.499    23430301.794       -3664.192
     -2855.214
 114108169.295 9  88915443.85548  21714062.131    21714058.635       -2663.009
     -2075.071
 119832022.348 8  93375588.47747  22803269.592    22803265.533        -672.303
      -523.872
 122910146.867 8  95774120.25945  23389024.046    23389019.407       -1582.571
     -1233.173
 115420060.087 8  89937713.25547  21963709.574    21963704.215        1025.653
       799.212
 106375904.628 9  82890328.35748  20242660.273    20242658.612         423.254
       329.809
 16  9 14  2 29  0.0000000  0  8G10G12G13G15G17G18G19G24
 123357069.202 8  96122378.24347  23474070.907    23474068.489        -209.291
      -163.086
 112486127.122 8  87651515.16948  21405398.063    21405394.016        2720.357
      2119.761
 123237142.450 8  96028929.16846  23451243.129    23451239.397       -3671.055
     -2860.563
 114188255.671 9  88977848.81048  21729302.106    21729298.576       -2676.135
     -2085.300
 119852475.871 8  93391526.29747  22807161.748    22807157.705        -691.264
      -538.646
 122957822.133 8  95811269.79245  23398096.400    23398091.749       -1595.897
     -1243.558
 115389616.239 8  89913990.81047  21957916.274    21957910.902        1003.866
       782.234
 106363400.886 9  82880585.18048  20240280.888    20240279.235         410.349
       319.753
 16  9 14  2 29 30.0000000  0  8G10G12G13G15G17G18G19G24
 123363630.116 8  96127490.64347  23475319.410    23475317.026        -228.218
      -177.833
 112404702.242 8  87588067.22148  21389903.408    21389899.376        2707.817
      2109.988
 123347363.175 7  96114815.44745  23472217.438    23472213.700       -3677.150
     -2865.310
 114268720.766 9  89040548.86048  21744614.162    21744610.602       -2688.391
     -2094.851
 119873486.457 8  93407898.19047  22811159.908    22811155.874        -709.519
      -552.871
 123005889.267 7  95848724.64745  23407243.345    23407238.713       -1608.569
     -1253.437
 115359815.648 9  89890769.58047  21952245.404    21952240.028         982.652
       765.703
 106351270.525 9  82871132.94448  20237972.554    20237970.913         398.208
       310.292
 16  9 14  2 30  0.0000000  0  8G10G12G13G15G17G18G19G24
 123370770.629 8  96133054.67447  23476678.200    23476675.854        -247.826
      -193.111
 112323665.160 8  87524921.46147  21374482.539    21374478.525        2694.653
      2099.730
 123457774.991 7  96200850.60845  23493228.126    23493224.388       -3683.701
     -2870.417
 114349562.726 9  89103542.57448  21759997.929    21759994.343       -2701.078
     -2104.736
 119895053.227 9  93424703.47847  22815263.907    22815259.867        -728.413
      -567.594
 123054346.370 7  95886483.38345  23416464.460    23416459.889       -1621.903
     -1263.821
 115330660.028 8  89868050.93847  21946697.265    21946691.870         960.953
       748.796
 106339514.774 9  82861972.61948  20235735.500    20235733.867         385.480
       300.375
 16  9 14  2 30 30.0000000  0  8G10G12G13G15G17G18G19G24
 123378487.244 8  96139067.60846  23478146.623    23478144.299        -266.878
      -207.958
 112243014.525 8  87462076.83548  21359135.201    21359131.196        2681.852
      2089.756
 123568373.208 7  96287031.00646  23514274.283    23514270.563       -3689.681
     -2875.078
 114430776.811 9  89166826.27548  21775452.494    21775448.877       -2713.402
     -2114.339
 119917173.393 8  93441939.97547  22819473.228    22819469.166        -746.659
      -581.812
 123103188.514 7  95924542.16845  23425758.805    23425754.311       -1634.381
     -1273.545
 115302147.651 9  89845833.54447  21941271.505    21941266.099         939.649
       732.196
 106328130.870 9  82853102.04649  20233569.203    20233567.578         373.150
       290.767
 16  9 14  2 31  0.0000000  0  8G10G12G13G15G17G18G19G24
 123386783.518 8  96145532.23146  23479725.338    23479723.027        -286.262
      -223.061
 112162755.438 8  87399537.30148  21343862.376    21343858.384        2668.517
      2079.365
 123679159.327 7  96373357.82545  23535356.181    23535352.492       -3696.234
     -2880.185
 114512365.546 9  89230401.90048  21790978.365    21790974.714       -2726.030
     -2124.180
 119939850.074 8  93459610.11847  22823788.461    22823784.371        -765.394
      -596.410
 123152417.571 7  95962902.43545  23435126.771    23435122.352       -1647.253
     -1283.575
 115274284.226 9  89824121.80047  21935969.267    21935963.839         917.748
       715.129
 106317123.659 9  82844524.99149  20231474.601    20231472.980         360.398
       280.829
 16  9 14  2 31 30.0000000  0  8G10G12G13G15G17G18G19G24
 123395654.378 8  96152444.59047  23481413.385    23481411.076        -305.071
      -237.717
 112082884.929 9  87337300.55348  21328663.501    21328659.522        2655.894
      2069.527
 123790127.985 7  96459826.88745  23556472.802    23556469.147       -3701.759
     -2884.488
 114594322.677 9  89294264.58348  21806574.345    21806570.657       -2737.955
     -2133.472
 119963078.463 8  93477710.16847  22828208.676    22828204.561        -783.276
      -610.344
 123202027.517 7  96001559.52844  23444567.205    23444562.819       -1659.492
     -1293.111
 115247066.889 8  89802913.50247  21930789.987    21930784.508         896.586
       698.640
 106306489.034 9  82836238.26749  20229450.898    20229449.277         348.344
       271.437
 16  9 14  2 32  0.0000000  0  8G10G12G13G15G17G18G19G24
 123405099.432 8  96159804.34747  23483210.709    23483208.414        -324.655
      -252.979
 112003405.066 8  87275368.21948  21313538.959    21313534.991        2642.663
      2059.219
 123901276.804 7  96546436.35245  23577623.689    23577620.070       -3708.043
     -2889.383
 114676645.684 9  89358412.36548  21822239.946    21822236.222       -2750.382
     -2143.154
 119986857.680 8  93496239.43847  22832733.704    22832729.578        -801.807
      -624.783
 123252016.171 7  96040511.70545  23454079.741    23454075.355       -1672.408
     -1303.176
 115220497.264 8  89782209.92547  21925733.946    21925728.416         874.677
       681.566
 106296227.946 9  82828242.60849  20227498.283    20227496.660         335.648
       261.544
 16  9 14  2 32 30.0000000  0  8G10G12G13G15G17G18G19G24
 123415119.503 8  96167612.18047  23485117.433    23485115.159        -342.965
      -267.245
 111924318.325 8  87213742.19948  21298489.237    21298485.286        2630.165
      2049.479
 124012605.624 7  96633186.05145  23598808.856    23598805.276       -3713.360
     -2893.526
 114759335.320 9  89422845.83748  21837975.305    21837971.546       -2761.870
     -2152.106
 120011188.707 8  93515198.67447  22837363.751    22837359.627        -819.683
      -638.714
 123302382.911 6  96079758.51045  23463664.228    23463659.835       -1684.730
     -1312.775
 115194578.126 9  89762013.21447  21920801.688    21920796.114         853.624
       665.162
 106286342.447 9  82820539.62249  20225617.135    20225615.509         323.760
       252.281
 16  9 14  2 33  0.0000000  0  9G10G12G13G15G17G18G19G24G25
 123425716.584 8  96175869.63647  23487133.958    23487131.702        -363.128
      -282.957
 111845628.814 8  87152425.71848  21283515.099    21283511.157        2616.130
      2038.544
 124124115.075 7  96720076.53545  23620028.386    23620024.823       -3720.206
     -2898.861
 114842391.989 9  89487565.30748  21853780.504    21853776.713       -2774.813
     -2162.192
 120036073.959 8  93534589.78347  22842099.254    22842095.140        -838.929
      -653.711
 123353128.450 6  96119300.42345  23473320.822    23473316.477       -1697.847
     -1322.997
 115169313.689 8  89742326.65947  21915994.023    21915988.404         830.904
       647.460
 106276835.462 9  82813131.58449  20223808.013    20223806.387         310.330
       241.816
 129570638.931 5 100964149.78644  24656473.103    24656471.426        3676.654
      2864.921
 16  9 14  2 33 30.0000000  0  9G10G12G13G15G17G18G19G24G25
 123436885.055 8  96184572.32447  23489259.220    23489256.988        -381.833
      -297.533
 111767333.300 9  87091416.24248  21268615.938    21268612.006        2603.266
      2028.520
 124235798.113 8  96807102.26645  23641280.968    23641277.424       -3725.723
     -2903.161
 114925808.772 9  89552565.39248  21869654.218    21869650.393       -2786.521
     -2171.314
 120061507.516 8  93554408.15247  22846939.090    22846934.986        -856.947
      -667.750
 123404245.828 7  96159132.11345  23483048.128    23483043.844       -1710.308
     -1332.708
 115144700.232 8  89723147.36947  21911310.222    21911304.572         809.515
       630.792
 106267703.385 9  82806015.68049  20222070.233    20222068.613         298.171
       232.341
 129460391.687 5 100878242.91045  24635493.174    24635492.699        3672.859
      2861.968
 16  9 14  2 34  0.0000000  0  9G10G12G13G15G17G18G19G24G25
 123448624.933 8  96193720.25747  23491493.223    23491491.031        -400.979
      -312.452
 111689433.195 9  87030714.87948  21253792.022    21253788.102        2590.023
      2018.201
 124347653.375 8  96894262.20844  23662566.335    23662562.786       -3731.398
     -2907.582
 115009584.789 9  89617845.39347  21885596.291    21885592.435       -2798.511
     -2180.658
 120087489.239 8  93574653.65647  22851883.245    22851879.143        -875.229
      -681.995
 123455733.462 7  96199252.34345  23492845.889    23492841.638       -1722.353
     -1342.093
 115120740.016 9  89704477.08547  21906750.734    21906745.072         787.769
       613.845
 106258946.814 9  82799192.36849  20220403.919    20220402.304         285.612
       222.555
 129350262.342 5 100792427.90045  24614535.950    24614536.424        3669.002
      2858.967
 16  9 14  2 34 30.0000000  0 10G10G12G13G15G17G18G19G24G25G32
 123460944.100 8  96203319.58947  23493837.461    23493835.312        -419.712
      -327.048
 111611939.823 9  86970330.44748  21239045.509    21239041.597        2576.983
      2008.040
 124459688.229 8  96981562.08944  23683885.903    23683882.333       -3736.703
     -2911.717
 115093726.567 9  89683410.40247  21901607.959    21901604.080       -2810.151
     -2189.728
 120114027.008 8  93595332.44147  22856933.211    22856929.106        -893.231
      -696.023
 123507597.929 7  96239666.19145  23502715.395    23502711.177       -1734.650
     -1351.677
 115097442.991 9  89686323.57747  21902317.453    21902311.768         766.053
       596.925
 106250575.025 9  82792668.89248  20218810.825    20218809.209         273.260
       212.931
 129240261.207 6 100706712.76946  24593603.386    24593604.081        3665.227
      2856.026
 129983715.766 7 101285998.67046  24735078.770    24735076.814        3503.497
      2730.000
 16  9 14  2 35  0.0000000  0 10G10G12G13G15G17G18G19G24G25G32
 123473827.847 8  96213358.86447  23496289.139    23496287.024        -439.153
      -342.197
 111534840.383 9  86910252.97448  21224373.964    21224370.057        2563.171
      1997.276
 124571886.358 8  97068989.19244  23705236.552    23705232.959       -3742.961
     -2916.597
 115178218.028 9  89749247.89048  21917686.164    21917682.280       -2822.368
     -2199.249
 120141106.322 8  93616433.20347  22862086.234    22862082.125        -911.896
      -710.569
 123559823.082 7  96280361.11345  23512653.522    23512649.325       -1746.996
     -1361.297
 115074796.187 8  89668676.73347  21898007.907    21898002.189         743.798
       579.583
 106242574.575 9  82786434.76949  20217288.397    20217286.777         260.198
       202.752
 129130375.924 7 100621087.88346  24572693.007    24572693.749        3660.594
      2852.413
 129878692.447 7 101204162.34645  24715093.279    24715091.491        3498.135
      2725.820
 16  9 14  2 35 30.0000000  0 10G10G12G13G15G17G18G19G24G25G32
 123487281.114 8  96223841.91547  23498849.209    23498847.119        -457.798
      -356.727
 111458141.236 9  86850487.42748  21209778.583    21209774.680        2549.960
      1986.982
 124684251.854 8  97156546.71645  23726619.057    23726615.427       -3748.424
     -2920.854
 115263063.156 9  89815360.96948  21933831.660    21933827.783       -2833.921
     -2208.250
 120168731.830 8  93637959.58747  22867343.183    22867339.072        -929.822
      -724.536
 123612412.773 7  96321340.08744  23522661.006    23522656.830       -1758.815
     -1370.505
 115052806.922 9  89651542.27447  21893823.465    21893817.716         722.082
       562.663
 106234951.461 9  82780494.68548  20215837.762    20215836.137         247.916
       193.182
 129020613.799 7 100535558.96946  24551806.106    24551806.768        3656.925
      2849.553
 129773816.532 7 101122440.81345  24695135.985    24695134.110        3493.338
      2722.083
 16  9 14  2 36  0.0000000  0 10G10G12G13G15G17G18G19G24G25G32
 123501305.279 8  96234769.81147  23501517.929    23501515.874        -476.998
      -371.687
 111381846.663 9  86791037.13148  21195260.191    21195256.289        2536.400
      1976.417
 124796784.621 7  97244234.57845  23748033.400    23748029.728       -3753.914
     -2925.130
 115348261.738 8  89881749.45848  21950044.418    21950040.558       -2845.860
     -2217.554
 120196905.042 8  93659912.73647  22872704.368    22872700.266        -948.279
      -738.918
 123665366.953 7  96362603.04645  23532737.873    23532733.731       -1771.116
     -1380.095
 115031478.328 9  89634922.60047  21889764.764    21889758.988         699.954
       545.420
 106227708.637 9  82774850.92148  20214459.505    20214457.877         234.963
       183.088
 128910978.609 7 100450128.97146  24530943.314    24530943.879        3652.104
      2845.798
 129669092.638 7 101040837.80145  24675207.594    24675205.750        3488.211
      2718.087
 16  9 14  2 36 30.0000000  0 10G10G12G13G15G17G18G19G24G25G32
 123515896.747 8  96246139.77047  23504294.607    23504292.592        -495.569
      -386.159
 111305954.673 9  86731900.52748  21180818.423    21180814.514        2523.244
      1966.165
 124909479.963 7  97332049.12645  23769478.673    23769474.956       -3758.951
     -2929.054
 115433809.884 9  89948410.34348  21966323.688    21966319.849       -2857.272
     -2226.446
 120225622.458 8  93682289.94147  22878169.110    22878165.015        -966.043
      -752.761
 123718680.644 7  96404146.19445  23542883.122    23542879.011       -1782.713
     -1389.125
 115010808.792 8  89618816.48447  21885831.476    21885825.670         678.115
       528.402
 106220843.611 9  82769501.54849  20213153.139    20213151.506         222.614
       173.466
 128801469.227 7 100364796.99546  24510104.422    24510104.916        3648.404
      2842.913
 129564520.530 7 100959353.06045  24655308.181    24655306.253        3483.367
      2714.313
 16  9 14  2 37  0.0000000  0 10G10G12G13G15G17G18G19G24G25G32
 123531055.133 8  96257951.48747  23507179.167    23507177.186        -514.926
      -401.240
 111230467.699 9  86673079.53548  21166453.714    21166449.793        2509.081
      1955.129
 125022336.424 7  97419989.19445  23790954.622    23790950.871       -3764.684
     -2933.520
 115519706.174 9  90015342.50948  21982669.214    21982665.398       -2869.305
     -2235.822
 120254883.533 8  93705090.79547  22883737.292    22883733.188        -984.790
      -767.368
 123772352.294 8  96445968.24744  23553096.521    23553092.421       -1794.905
     -1398.629
 114990800.071 9  89603225.30047  21882023.927    21882018.089         655.530
       510.804
 106214357.862 9  82764447.71749  20211918.943    20211917.305         209.620
       163.341
 128692087.726 7 100279564.69446  24489289.825    24489290.271        3643.550
      2839.132
 129460103.262 7 100877988.91045  24635438.293    24635436.251        3477.549
      2709.778
 16  9 14  2 37 30.0000000  0 10G10G12G13G15G17G18G19G24G25G32
 123546781.127 8  96270205.48147  23510171.742    23510169.807        -533.540
      -415.748
 111155387.990 9  86614575.89748  21152166.494    21152162.563        2495.945
      1944.893
 125135353.400 7  97508054.35845  23812461.079    23812457.308       -3769.640
     -2937.382
 115605950.011 9  90082545.47648  21999080.889    21999077.106       -2880.491
     -2244.540
 120284689.369 8  93728316.12447  22889409.148    22889405.032       -1002.530
      -781.193
 123826381.156 7  96488068.65445  23563377.903    23563373.814       -1806.832
     -1407.925
 114971455.042 9  89588151.27047  21878342.677    21878336.818         633.793
       493.864
 106208253.274 9  82759690.89348  20210757.280    20210755.638         197.150
       153.624
 128582837.320 7 100194434.49946  24468500.223    24468500.621        3639.512
      2835.982
 129355844.911 7 100796748.65745  24615598.583    24615596.476        3472.843
      2706.111
 16  9 14  2 38  0.0000000  0 10G10G12G13G15G17G18G19G24G25G32
 123563071.981 8  96282899.64147  23513271.788    23513269.914        -552.362
      -430.413
 111080715.360 9  86556389.45348  21137956.744    21137952.801        2482.434
      1934.364
 125248527.686 7  97596242.10345  23833997.446    23833993.690       -3774.878
     -2941.463
 115692537.134 9  90150015.94248  22015557.882    22015554.137       -2891.771
     -2253.330
 120315036.942 8  93751963.59947  22895184.084    22895179.951       -1020.395
      -795.112
 123880763.282 7  96530444.31445  23573726.512    23573722.454       -1818.158
     -1416.744
 114952772.971 9  89573593.83447  21874787.578    21874781.710         611.790
       476.720
 106202528.139 9  82755229.75148  20209667.822    20209666.176         184.700
       143.922
 128473717.699 7 100109406.24146  24447735.521    24447735.835        3635.422
      2832.796
 129251746.103 7 100715632.70345  24595789.212    24595787.097        3467.444
      2701.904
 16  9 14  2 38 30.0000000  0 10G10G12G13G15G17G18G19G24G25G32
 123579927.681 8  96296033.92847  23516479.336    23516477.524        -571.859
      -445.604
 111006452.668 9  86498522.43848  21123825.008    21123821.043        2468.099
      1923.194
 125361858.039 7  97684551.44645  23855563.515    23855559.786       -3780.824
     -2946.098
 115779467.063 9  90217753.54348  22032100.098    22032096.385       -2903.819
     -2262.717
 120345926.266 9  93776033.20347  22901062.131    22901057.983       -1039.107
      -809.694
 123935497.312 7  96573094.16745  23584142.076    23584138.059       -1830.756
     -1426.567
 114934755.488 9  89559554.25247  21871358.947    21871353.087         589.083
       459.025
 106197184.377 9  82751065.77549  20208650.945    20208649.294         171.268
       133.455
 128364731.424 7 100024481.88846  24426996.204    24426996.425        3630.036
      2828.601
 129147810.348 7 100634643.80145  24576010.878    24576008.718        3461.301
      2697.121
 16  9 14  2 39  0.0000000  0 10G10G12G13G15G17G18G19G24G25G32
 123597347.356 8  96309607.69147  23519794.195    23519792.442        -589.771
      -459.562
 110932600.998 9  86440975.70148  21109771.498    21109767.496        2455.007
      1912.993
 125475342.435 7  97772980.83144  23877158.872    23877155.175       -3785.214
     -2949.516
 115866737.868 8  90285756.76448  22048707.181    22048703.491       -2914.582
     -2271.103
 120377356.596 8  93800524.38347  22907043.128    22907038.950       -1056.553
      -823.288
 123990580.840 7  96616016.38545  23594624.118    23594620.145       -1841.781
     -1435.153
 114917403.773 9  89546033.45347  21868057.006    21868051.148         567.354
       442.094
 106192222.155 9  82747199.11448  20207706.664    20207705.001         159.154
       124.017
 128255880.075 6  99939662.65946  24406282.537    24406282.679        3626.423
      2825.785
 129044040.266 8 100553783.99545  24556264.061    24556261.894        3456.312
      2693.229
 16  9 14  2 39 30.0000000  0 10G10G12G13G15G17G18G19G24G25G32
 123615327.279 8  96323618.01447  23523215.668    23523213.963        -608.932
      -474.492
 110859158.412 9  86383747.72448  21095795.845    21095791.800        2440.942
      1902.034
 125588976.207 7  97861526.62045  23898782.619    23898778.976       -3790.562
     -2953.687
 115954344.803 9  90354021.88848  22065378.242    22065374.575       -2926.114
     -2280.089
 120409324.259 8  93825434.25347  22913126.387    22913122.181       -1074.778
      -837.490
 124046009.291 7  96659207.36145  23605171.814    23605167.879       -1853.594
     -1444.360
 114900716.238 9  89533030.20347  21864881.455    21864875.576         544.882
       424.586
 106187639.924 9  82743628.53748  20206834.702    20206833.032         146.123
       113.863
 128147162.624 6  99854947.76045  24385594.310    24385594.393        3621.260
      2821.759
 128940435.679 7 100473053.13745  24536548.760    24536546.575        3450.236
      2688.497
 16  9 14  2 40  0.0000000  0 10G10G12G13G15G17G18G19G24G25G32
 123633867.845 8  96338065.19647  23526743.837    23526742.175        -627.176
      -488.708
 110786127.342 9  86326840.41748  21081898.495    21081894.404        2427.637
      1891.665
 125702758.887 7  97950188.44045  23920434.689    23920431.111       -3795.364
     -2957.425
 116042286.989 9  90422548.25248  22082113.098    22082109.446       -2936.986
     -2288.561
 120441829.126 8  93850762.74347  22919311.851    22919307.613       -1092.431
      -851.243
 124101781.742 7  96702666.40345  23615784.976    23615781.045       -1864.767
     -1453.065
 114884695.277 9  89520546.35047  21861832.762    21861826.856         523.022
       407.551
 106183438.883 9  82740355.00149  20206035.265    20206033.592         133.812
       104.270
 128038581.999 6  99770339.48745  24364932.117    24364932.148        3617.109
      2818.528
 128837000.545 7 100392454.30345  24516865.718    24516863.555        3444.982
      2684.398
 16  9 14  2 40 30.0000000  0 10G10G12G13G15G17G18G19G24G25G32
 123652968.935 8  96352949.15047  23530378.662    23530377.054        -646.131
      -503.479
 110713510.963 9  86270256.24248  21068080.057    21068075.925        2413.446
      1880.608
 125816689.320 7  98038965.39544  23942114.868    23942111.366       -3800.362
     -2961.323
 116130563.439 8  90491335.08848  22098911.563    22098907.913       -2948.278
     -2297.360
 120474871.825 8  93876510.30647  22925599.668    22925595.410       -1110.517
      -865.337
 124157897.139 7  96746392.65845  23626463.419    23626459.499       -1876.634
     -1462.313
 114869342.730 9  89508583.33547  21858911.278    21858905.337         500.413
       389.934
 106179620.619 9  82737379.73048  20205308.666    20205307.001         120.723
        94.070
 127930140.653 5  99685839.76345  24344296.419    24344296.420        3612.335
      2814.809
 128733738.283 7 100311990.20745  24497215.533    24497213.382        3439.056
      2679.781
 16  9 14  2 41  0.0000000  0 10G10G12G13G15G17G18G19G24G25G32
 123672630.708 7  96368270.00247  23534120.169    23534118.627        -664.158
      -517.525
 110641311.849 9  86213997.21148  21054341.013    21054336.852        2400.056
      1870.174
 125930766.796 7  98127856.90444  23963823.044    23963819.620       -3804.766
     -2964.753
 116219173.600 8  90560381.95348  22115773.540    22115769.881       -2958.877
     -2305.619
 120508452.332 8  93902676.93147  22931989.834    22931985.568       -1127.987
      -878.951
 124214354.176 7  96790385.12845  23637206.870    23637202.949       -1887.411
     -1470.710
 114854660.594 9  89497142.73647  21856117.350    21856111.381         478.612
       372.945
 106176186.935 9  82734704.12749  20204655.254    20204653.601         108.396
        84.465
 127821841.403 5  99601450.81945  24323687.677    24323687.705        3608.079
      2811.494
 128630652.730 7 100231663.80245  24477598.972    24477596.846        3433.541
      2675.484
 16  9 14  2 41 30.0000000  0 10G10G12G13G15G17G18G19G24G25G32
 123692845.655 8  96384021.88647  23537966.938    23537965.473        -682.841
      -532.085
 110569524.123 9  86158058.75048  21040680.238    21040676.059        2386.233
      1859.403
 126044982.651 7  98216856.32144  23985557.492    23985554.115       -3809.292
     -2968.275
 116308108.969 8  90629682.23448  22132697.398    22132693.726       -2969.626
     -2313.995
 120542563.185 8  93929256.83947  22938480.905    22938476.626       -1145.646
      -892.710
 124271144.112 6  96834637.01645  23648013.636    23648009.722       -1898.480
     -1479.334
 114840643.557 9  89486220.38447  21853450.002    21853444.010         456.349
       355.597
 106173131.665 9  82732323.40849  20204073.845    20204072.198          95.641
        74.525
 127713679.431 6  99517168.79645  24303105.066    24303105.162        3603.057
      2807.575
 128527739.984 7 100151472.06446  24458015.283    24458013.194        3427.250
      2670.583
 16  9 14  2 42  0.0000000  0 10G10G12G13G15G17G18G19G24G25G32
 123713618.353 8  96400208.40246  23541919.826    23541918.415        -701.524
      -546.643
 110498154.509 9  86102446.09048  21027099.019    21027094.841        2372.416
      1848.638
 126159340.812 7  98305966.52945  24007319.105    24007315.785       -3814.020
     -2971.959
 116397373.067 8  90699238.65147  22149683.822    22149680.146       -2980.570
     -2322.522
 120577209.150 8  93956253.69747  22945073.820    22945069.537       -1163.577
      -906.683
 124328270.218 7  96879150.80745  23658884.391    23658880.502       -1909.285
     -1487.752
 114827297.977 9  89475821.24347  21850910.420    21850904.416         433.877
       338.087
 106170461.169 9  82730242.49348  20203565.668    20203564.032          82.924
        64.616
 127605661.938 7  99432999.28244  24282550.034    24282550.160        3598.562
      2804.073
 128425008.252 7 100071421.35846  24438466.069    24438464.001        3421.440
      2666.058
 16  9 14  2 42 30.0000000  0 10G10G12G13G15G17G18G19G24G25G32
 123734941.792 8  96416824.05447  23545977.533    23545976.161        -719.989
      -561.031
 110427198.876 9  86047156.01148  21013596.581    21013592.406        2358.031
      1837.428
 126273833.723 6  98395181.75445  24029106.369    24029103.061       -3818.667
     -2975.591
 116486957.761 8  90769044.89048  22166731.247    22166727.570       -2991.718
     -2331.210
 120612383.205 8  93983662.06647  22951767.213    22951762.930       -1181.468
      -920.624
 124385724.338 7  96923920.23345  23669817.543    23669813.665       -1920.806
     -1496.729
 114814618.932 9  89465941.48847  21848497.665    21848491.656         411.300
       320.494
 106168169.703 9  82728456.93849  20203129.609    20203127.981          69.889
        54.459
 127497784.715 7  99348939.10645  24262021.710    24262021.794        3593.323
      2799.994
 128322454.393 7  99991509.24445  24418950.729    24418948.676        3415.249
      2661.232
