     2.11           OBSERVATION DATA    M (MIXED)           RINEX VERSION / TYPE
teqc  2016Apr1      anonyme             20160926 14:34:18UTCPGM / RUN BY / DATE
Linux 2.4.21-27.ELsmp|Opteron|gcc|Linux x86_64|=+           COMMENT
teqc  2016Apr1                          20160915 01:32:54UTCCOMMENT
teqc  2016Apr1      IGN-RGP             20160914 01:22:13UTCCOMMENT
teqc  2016Apr1                          20160914 01:22:13UTCCOMMENT
teqc  2015Jun23     IGN-RGP             20160914 01:10:23UTCCOMMENT
Linux2.4.20-8|i386|gcc|Win32-MinGW32|=                      COMMENT
   0.000      (antenna height)                              COMMENT
 +48.65337222 (latitude)                                    COMMENT
  +2.23874669 (longitude)                                   COMMENT
0208.465      (elevation)                                   COMMENT
BIT 2 OF LLI FLAGS DATA COLLECTED UNDER A/S CONDITION       COMMENT
18695M001 (COGO code)                                       COMMENT
CTY1                                                        MARKER NAME
18695M001                                                   MARKER NUMBER
Automatic           COOP&TECH                               OBSERVER / AGENCY
4951K64806          TRIMBLE NETR5       4.70                REC # / TYPE / VERS
99999               TRM57971.00     NONE                    ANT # / TYPE
  4218365.7150   164910.2500  4765338.1510                  APPROX POSITION XYZ
        0.0000        0.0000        0.0000                  ANTENNA: DELTA H/E/N
     1     1                                                WAVELENGTH FACT L1/2
     7    L1    L2    C1    P1    P2    S1    S2            # / TYPES OF OBSERV
    30.0000                                                 INTERVAL
    17                                                      LEAP SECONDS
 SNR is mapped to RINEX snr flag value [0-9]                COMMENT
  L1 & L2: min(max(int(snr_dBHz/6), 0), 9)                  COMMENT
Forced Modulo Decimation to 30 seconds                      COMMENT
teqc edited: all GLONASS satellites excluded                COMMENT
teqc edited: all SBAS satellites excluded                   COMMENT
teqc edited: all Galileo satellites excluded                COMMENT
  2016     9    14     0     0    0.0000000     GPS         TIME OF FIRST OBS
                                                            END OF HEADER
 16  9 14  0  0  0.0000000  0  8G28G13G30G20G05G15G24G18
 111859392.935 8  87163220.58946  21286136.984                    21286140.223
        51.000          38.900
 105087384.724 8  81886411.22747  19997480.281                    19997483.789
        49.700          42.400
 119918415.382 7  93443060.79545  22819726.750                    22819733.902
        44.500          33.300
 111461961.478 8  86853537.76546  21210515.570                    21210519.527
        49.600          38.500
 118004775.678 7  91951804.36845  22455560.797                    22455565.227
        45.800          34.900
 110522358.612 8  86121367.22047  21031710.953                    21031714.738
        50.000          42.100
 123302398.297 7  96079853.63844  23463672.852                    23463679.992
        42.400          27.900
 128907737.722 6 100447618.64743  24530331.891                    24530334.426
        40.800          20.600
 16  9 14  0  0 30.0000000  0  8G28G13G30G20G05G15G24G18
 111845662.967 8  87152521.92246  21283524.086                    21283527.563
        50.300          39.000
 105053560.549 8  81860054.72047  19991043.766                    19991047.480
        48.800          42.000
 119979149.847 7  93490386.34545  22831283.844                    22831290.414
        45.200          31.500
 111442034.981 8  86838010.61546  21206723.859                    21206727.063
        50.200          37.900
 118072145.220 7  92004300.10045  22468380.609                    22468385.398
        45.900          35.200
 110435343.855 8  86053563.52146  21015152.555                    21015156.211
        49.700          41.700
 123177806.733 7  95982769.34244  23439964.320                    23439971.504
        43.300          27.700
 128794199.217 6 100359147.09243  24508725.828                    24508728.949
        40.900          20.600
 16  9 14  0  1  0.0000000  0  8G28G13G30G20G05G15G24G18
 111832473.026 8  87142244.05746  21281014.102                    21281017.344
        50.600          38.900
 105020171.818 8  81834037.51447  19984690.117                    19984693.574
        49.800          42.100
 120040028.147 7  93537824.00045  22842868.492                    22842874.086
        44.100          30.200
 111422721.483 8  86822961.11546  21203048.500                    21203051.965
        49.800          38.100
 118139801.622 7  92057019.35945  22481255.352                    22481259.820
        46.800          35.500
 110348687.531 8  85986039.11546  20998662.117                    20998666.129
        49.000          41.600
 123053383.608 6  95885816.29644  23416287.266                    23416294.438
        41.300          27.000
 128680924.879 6 100270881.37243  24487171.039                    24487173.777
        40.100          20.100
 16  9 14  0  1 30.0000000  0  8G28G13G30G20G05G15G24G18
 111819817.782 8  87132382.83646  21278605.953                    21278609.340
        50.400          38.800
 104987214.849 8  81808356.76047  19978418.578                    19978421.969
        49.600          42.400
 120101044.514 7  93585369.22845  22854479.711                    22854486.266
        44.000          31.000
 111404016.623 8  86808385.89146  21199489.281                    21199492.492
        49.800          37.700
 118207737.715 7  92109956.56245  22494183.242                    22494187.738
        46.600          34.800
 110262386.734 8  85918791.74447  20982239.773                    20982243.723
        49.200          42.500
 122929125.832 7  95788992.07544  23392642.336                    23392649.043
        42.500          27.600
 128567913.152 7 100182820.29543  24465665.250                    24465668.602
        42.000          20.400
 16  9 14  0  2  0.0000000  0  8G28G13G30G20G05G15G24G18
 111807702.021 8  87122941.99146  21276300.367                    21276303.688
        50.100          39.200
 104954695.683 8  81783017.15247  19972230.719                    19972233.965
        49.100          42.200
 120162202.884 7  93633025.05945  22866117.336                    22866124.957
        43.500          32.000
 111385925.332 8  86794288.76946  21196046.453                    21196049.867
        50.300          38.300
 118275955.865 7  92163113.53545  22507164.547                    22507169.344
        46.400          34.300
 110176448.462 8  85851826.85646  20965886.367                    20965890.301
        49.500          41.900
 122805039.643 7  95692301.55144  23369028.664                    23369036.000
        42.300          26.900
 128455171.081 7 100094969.29843  24444211.602                    24444214.770
        42.300          21.100
 16  9 14  0  2 30.0000000  0  8G28G13G30G20G05G15G24G18
 111796123.871 8  87113920.06346  21274097.336                    21274100.535
        50.900          39.200
 104922614.440 8  81758018.78247  19966125.383                    19966129.043
        49.300          42.200
 120223500.979 7  93680789.77245  22877783.086                    22877789.258
        44.000          32.500
 111368446.285 8  86780668.72346  21192720.414                    21192724.148
        50.300          38.100
 118344453.122 7  92216487.99645  22520199.313                    22520203.586
        46.700          35.100
 110090873.628 8  85785145.17146  20949602.219                    20949606.000
        50.200          41.900
 122681125.648 6  95595745.20644  23345448.859                    23345455.801
        41.400          28.600
 128342700.006 6 100007329.51243  24422808.625                    24422811.672
        40.500          20.900
 16  9 14  0  3  0.0000000  0  8G28G13G30G20G05G15G24G18
 113360508.855 8  88332921.36146  21571789.352                    21571793.059
        51.000          38.900
 106466398.673 8  82960967.52647  20259897.992                    20259901.188
        48.600          42.000
 121860361.415 7  94956265.43745  23189266.367                    23189273.145
        44.100          31.000
 112927005.377 8  87995130.33846  21489304.352                    21489308.031
        50.000          38.700
 119988650.570 7  93497680.79745  22833079.805                    22833083.895
        46.700          34.200
 111581092.640 8  86946354.79446  21233181.156                    21233184.820
        49.500          41.800
 124132814.642 7  96726931.48044  23621696.555                    23621703.367
        42.200          28.400
 129805932.281 6 101147510.52543  24701252.609                    24701255.328
        40.800          21.500
 16  9 14  0  3 30.0000000  0  8G28G13G30G20G05G15G24G18
 113350013.369 8  88324743.07146  21569792.148                    21569795.340
        50.900          38.700
 106435205.428 8  82936661.08946  20253961.977                    20253964.887
        48.300          41.600
 121921945.335 7  95004252.89245  23200985.609                    23200992.070
        43.300          30.700
 112910759.531 8  87982471.23046  21486212.922                    21486216.656
        50.000          38.400
 120057708.480 7  93551492.14545  22846220.930                    22846225.191
        46.600          34.700
 111496259.709 8  86880251.21446  21217037.633                    21217041.961
        49.300          41.600
 124009257.502 7  96630653.21344  23598184.570                    23598191.660
        42.600          28.600
 129694020.841 7 101060306.79143  24679956.570                    24679959.504
        42.900          20.900
 16  9 14  0  4  0.0000000  0  8G28G13G30G20G05G15G24G18
 113340051.055 8  88316980.23346  21567896.313                    21567899.633
        50.800          39.200
 106404450.279 7  82912696.02246  20248109.734                    20248112.324
        47.800          41.600
 121983663.060 7  95052344.60445  23212730.070                    23212736.445
        44.100          30.000
 112895122.630 8  87970286.62946  21483237.086                    21483240.742
        50.400          38.100
 120127035.364 7  93605513.07745  22859412.984                    22859418.027
        46.800          34.600
 111411793.272 8  86814433.21446  21200964.625                    21200968.285
        50.300          41.800
 123885873.761 6  96534510.05844  23574704.336                    23574711.625
        41.400          26.700
 129582385.342 6 100973318.07443  24658713.273                    24658716.063
        41.900          21.700
 16  9 14  0  4 30.0000000  0  8G28G13G30G20G05G15G24G18
 113330625.636 8  88309635.76846  21566102.539                    21566105.816
        50.000          38.100
 106374138.968 8  82889076.81247  20242341.586                    20242344.918
        48.200          42.400
 122045518.098 7  95100543.33945  23224501.258                    23224506.762
        43.900          30.400
 112880099.043 8  87958579.92846  21480378.398                    21480381.922
        50.400          37.900
 120196633.799 7  93659745.59145  22872657.773                    22872662.211
        46.500          35.000
 111327699.903 8  86748905.90846  21184962.500                    21184965.980
        50.500          41.900
 123762668.528 7  96438505.99444  23551259.813                    23551266.164
        43.000          28.200
 129471033.108 7 100886550.13943  24637523.367                    24637526.137
        42.100          22.000
 16  9 14  0  5  0.0000000  0  8G28G13G30G20G05G15G24G18
 113321735.624 8  88302708.49046  21564411.430                    21564414.641
        50.500          38.600
 106344271.250 8  82865803.26547  20236657.797                    20236661.426
        48.800          42.800
 122107508.200 7  95148847.28745  23236297.961                    23236304.668
        45.400          33.300
 112865686.973 8  87947349.73046  21477635.703                    21477639.078
        50.700          38.400
 120266500.110 7  93714186.85045  22885952.250                    22885957.023
        46.000          34.600
 111243980.353 8  86683669.90547  21169030.625                    21169034.957
        49.900          42.200
 123639642.408 7  96342641.53344  23527848.055                    23527855.387
        42.300          28.000
 129359965.466 7 100800003.90043  24616387.625                    24616391.125
        42.500          20.600
 16  9 14  0  5 30.0000000  0  8G28G13G30G20G05G15G24G18
 113313377.592 8  88296195.75646  21562820.320                    21562824.199
        49.900          37.900
 106314845.374 8  82842874.00947  20231058.305                    20231061.988
        49.100          42.900
 122169629.679 7  95197253.57345  23248117.516                    23248125.980
        44.200          31.700
 112851883.986 8  87936594.14346  21475009.297                    21475012.598
        50.600          38.700
 120336629.619 7  93768833.21045  22899297.641                    22899302.301
        46.100          33.700
 111160633.860 8  86618724.59447  21153170.297                    21153174.676
        49.700          42.500
 123516793.947 7  96246915.48944  23504470.844                    23504478.293
        42.600          29.200
 129249182.573 6 100713679.57543  24595306.758                    24595309.875
        40.500          21.700
 16  9 14  0  6  0.0000000  0  8G28G13G30G20G05G15G24G18
 113305548.342 8  88290095.05446  21561330.711                    21561334.301
        50.000          38.400
 106285859.768 8  82820287.82147  20225542.594                    20225546.230
        48.800          42.800
 122231879.022 7  95245759.49044  23259963.820                    23259969.758
        43.500          29.200
 112838687.086 8  87926310.83446  21472497.680                    21472500.945
        50.700          38.600
 120407017.227 7  93823680.69445  22912692.266                    22912696.547
        45.300          34.100
 111077659.972 8  86554069.61847  21137381.141                    21137385.113
        49.100          42.300
 123394121.440 7  96151326.55944  23481127.219                    23481134.320
        43.100          28.000
 129138684.134 6 100627576.90043  24574279.992                    24574282.117
        41.100          21.800
 16  9 14  0  6 30.0000000  0  8G28G13G30G20G05G15G24G18
 113298246.587 8  88284405.38646  21559941.133                    21559944.617
        49.600          38.500
 106257315.222 8  82798045.31547  20220110.656                    20220114.219
        48.200          42.500
 122294254.692 7  95294363.94244  23271834.508                    23271839.270
        45.800          29.600
 112826095.490 8  87916499.18246  21470101.875                    21470105.117
        51.000          37.900
 120477659.868 7  93878726.89745  22926134.938                    22926139.801
        46.700          34.700
 110995060.200 8  86489706.16947  21121662.813                    21121666.883
        50.600          42.300
 123271626.187 6  96055875.72444  23457816.766                    23457823.609
        41.700          28.000
 129028472.627 6 100541697.83643  24553307.063                    24553309.777
        41.800          21.100
 16  9 14  0  7  0.0000000  0  8G28G13G30G20G05G15G24G18
 113291479.253 8  88279132.14446  21558653.563                    21558656.758
        49.300          37.900
 106229219.782 8  82776152.76547  20214764.602                    20214768.129
        49.900          43.000
 122356763.108 7  95343071.79045  23283728.773                    23283735.430
        45.400          31.400
 112814116.227 8  87907164.67946  21467822.430                    21467825.797
        51.100          38.100
 120548562.932 7  93933976.02145  22939627.211                    22939632.301
        45.500          34.400
 110912844.014 8  86425641.60647  21106017.844                    21106021.711
        50.300          42.300
 123149316.632 6  95960569.61044  23434542.109                    23434549.227
        41.600          28.100
 128918557.886 7 100456049.97143  24532390.523                    24532393.441
        42.900          22.200
 16  9 14  0  7 30.0000000  0  8G28G13G30G20G05G15G24G18
 113285243.577 8  88274273.18646  21557466.992                    21557470.266
        49.900          38.400
 106201572.711 8  82754609.58547  20209503.383                    20209506.855
        49.600          42.400
 122419401.451 7  95391880.83845  23295648.313                    23295655.336
        45.000          31.000
 112802747.183 8  87898305.67546  21465658.945                    21465662.492
        50.600          37.900
 120619722.549 7  93989425.05445  22953168.977                    22953173.879
        47.500          35.200
 110831011.221 8  86361875.79947  21090445.313                    21090449.730
        49.900          42.300
 123027192.594 7  95865408.03644  23411303.297                    23411310.145
        42.600          29.800
 128808940.711 6 100370633.98843  24511531.516                    24511534.406
        41.700          22.900
 16  9 14  0  8  0.0000000  0  8G28G13G30G20G05G15G24G18
 113279534.896 8  88269824.87346  21556380.203                    21556383.742
        49.800          38.800
 106174370.842 8  82733413.31947  20204327.055                    20204330.680
        49.500          42.200
 122482164.669 7  95440787.17244  23307592.477                    23307599.336
        44.600          29.900
 112791984.109 8  87889918.85246  21463610.820                    21463614.078
        51.500          38.300
 120691132.150 7  94045068.87745  22966757.563                    22966762.156
        46.900          34.600
 110749559.943 8  86298407.27847  21074945.719                    21074949.848
        50.400          42.300
 122905250.641 7  95770388.37644  23388098.203                    23388105.277
        42.200          28.600
 128699619.116 6 100285448.32943  24490728.039                    24490731.469
        41.400          21.700
 16  9 14  0  8 30.0000000  0  8G28G13G30G20G05G15G24G18
 113274351.453 8  88265785.82146  21555394.500                    21555397.453
        49.500          38.100
 106147614.340 8  82712564.08147  20199235.586                    20199238.895
        49.800          42.600
 122545050.725 7  95489789.25844  23319559.094                    23319565.164
        45.900          29.000
 112781825.412 8  87882002.97046  21461677.680                    21461681.094
        50.300          38.400
 120762788.313 7  94100904.82545  22980392.766                    22980397.590
        47.100          34.400
 110668490.947 8  86235236.63147  21059518.688                    21059522.816
        50.700          43.000
 122783491.550 7  95675511.18644  23364927.922                    23364935.551
        42.000          29.400
 128590594.763 7 100200494.26943  24469981.594                    24469984.410
        42.200          21.300
 16  9 14  0  9  0.0000000  0  8G28G13G30G20G05G15G24G18
 113269693.008 8  88262155.87446  21554507.945                    21554511.027
        50.000          38.500
 106121304.806 8  82692063.14346  20194228.844                    20194232.332
        48.900          41.200
 122608059.350 7  95538886.88245  23331549.305                    23331554.973
        45.800          30.200
 112772271.004 8  87874557.96846  21459859.195                    21459863.074
        51.200          37.900
 120834689.451 7  94156931.66345  22994076.039                    22994080.332
        46.300          34.600
 110587807.147 8  86172366.13947  21044165.266                    21044169.309
        51.000          43.200
 122661917.013 6  95580777.81444  23341793.078                    23341800.227
        41.800          29.700
 128481871.019 7 100115774.47843  24449292.281                    24449295.035
        42.300          21.700
 16  9 14  0  9 30.0000000  0  8G28G13G30G20G05G15G24G18
 113265562.973 8  88258937.67546  21553721.656                    21553724.891
        49.500          37.800
 106095447.127 8  82671914.28846  20189308.305                    20189311.816
        49.000          41.100
 122671193.490 7  95588082.26944  23343563.336                    23343568.859
        45.200          29.800
 112763324.798 8  87867586.88746  21458156.672                    21458160.473
        50.700          37.900
 120906836.965 7  94213150.49945  23007805.375                    23007809.355
        46.400          35.000
 110507514.362 8  86109800.33147  21028886.164                    21028890.133
        50.500          42.800
 122540532.592 7  95486192.57744  23318694.344                    23318701.621
        42.300          29.100
 128373454.551 7 100031294.08443  24428661.336                    24428664.367
        42.200          21.800
 16  9 14  0 10  0.0000000  0  8G28G13G30G20G05G15G24G18
 113261955.021 8  88256126.28646  21553035.250                    21553038.273
        49.100          38.300
 106070036.885 8  82652114.09147  20184472.938                    20184476.578
        48.600          42.200
 122734446.910 7  95637370.63044  23355599.828                    23355605.555
        44.300          29.000
 112754981.071 8  87861085.27046  21456569.273                    21456573.055
        50.500          37.800
 120979223.379 7  94269555.49845  23021579.656                    23021584.020
        47.000          34.500
 110427609.075 8  86047536.47447  21013680.813                    21013684.543
        50.700          42.700
 122419334.070 6  95391752.19044  23295631.016                    23295638.219
        41.700          29.100
 128265342.638 6  99947051.04743  24408088.211                    24408091.543
        40.800          22.000
 16  9 14  0 10 30.0000000  0  8G28G13G30G20G05G15G24G18
 113258866.972 8  88253720.01546  21552447.844                    21552450.750
        50.000          38.700
 106045073.626 8  82632662.19447  20179722.727                    20179726.141
        48.400          42.700
 122797816.999 7  95686749.87044  23367659.070                    23367665.523
        43.800          28.800
 112747237.443 8  87855051.26546  21455096.141                    21455099.625
        50.900          38.000
 121051844.870 7  94326143.64645  23035399.344                    23035403.344
        46.600          34.900
 110348091.456 8  85985574.69147  20998549.172                    20998552.863
        50.800          42.800
 122298321.140 7  95297456.43445  23272602.711                    23272610.250
        42.000          30.100
 128157535.840 6  99863045.75143  24387573.023                    24387576.727
        41.400          22.800
 16  9 14  0 11  0.0000000  0  8G28G13G30G20G05G15G24G18
 113256303.176 8  88251722.26846  21551959.836                    21551962.957
        48.800          38.600
 106020563.491 8  82613563.38147  20175058.656                    20175061.961
        49.100          42.000
 122861308.384 7  95736223.62945  23379741.383                    23379747.207
        44.600          30.700
 112740099.414 8  87849489.15046  21453737.484                    21453740.762
        51.100          37.900
 121124704.501 7  94382917.34945  23049264.500                    23049267.473
        46.600          34.000
 110268969.427 8  85923921.15747  20983492.500                    20983496.789
        51.000          43.200
 122177500.547 6  95203310.54445  23249611.727                    23249619.156
        41.700          31.100
 128050042.379 6  99779284.60843  24367117.680                    24367121.234
        41.600          22.900
 16  9 14  0 11 30.0000000  0  8G28G13G30G20G05G15G24G18
 113254256.794 8  88250127.68646  21551570.664                    21551573.754
        49.700          38.500
 105996500.739 8  82594813.18046  20170479.352                    20170482.957
        49.000          41.600
 122924913.448 7  95785785.98044  23391844.664                    23391851.336
        44.700          29.700
 112733559.152 8  87844392.83146  21452492.977                    21452496.703
        50.800          37.600
 121197793.437 7  94439869.77845  23063172.117                    23063175.668
        46.400          34.100
 110190238.159 8  85862572.12047  20968510.484                    20968514.535
        50.900          43.000
 122056866.971 7  95109310.37544  23226656.148                    23226662.672
        43.200          29.600
 127942858.500 7  99695764.71143  24346721.141                    24346724.621
        42.800          22.800
 16  9 14  0 12  0.0000000  0  8G28G13G30G20G05G15G24G18
 113252727.361 8  88248935.91946  21551279.070                    21551282.695
        50.000          38.300
 105972887.088 8  82576412.92647  20165985.930                    20165989.395
        49.600          42.100
 122988631.911 7  95835436.71744  23403969.594                    23403975.875
        43.400          29.600
 112727617.225 8  87839762.74146  21451361.930                    21451365.090
        51.000          37.200
 121271109.764 7  94496999.37545  23077124.016                    23077129.598
        47.000          34.700
 110111900.230 8  85801529.57847  20953603.242                    20953606.949
        50.900          43.200
 121936421.970 6  95015457.15044  23203736.133                    23203742.492
        41.800          29.600
 127835987.017 6  99612488.22543  24326384.531                    24326387.953
        41.900          22.000
 16  9 14  0 12 30.0000000  0  8G28G13G30G20G05G15G24G18
 113251713.235 8  88248145.71046  21551086.078                    21551089.691
        49.600          38.400
 105949723.130 8  82558363.07346  20161578.102                    20161581.426
        49.400          41.800
 123052462.534 7  95885174.81344  23416116.539                    23416122.770
        43.000          29.000
 112722272.224 8  87835597.78946  21450344.758                    21450348.172
        50.500          37.800
 121344651.232 7  94554304.39745  23091117.719                    23091123.113
        45.900          33.400
 110033957.324 8  85740794.84347  20938771.211                    20938774.871
        50.200          42.800
 121816167.152 7  94921752.11945  23180852.023                    23180859.242
        42.800          30.100
 127729430.448 6  99529457.13243  24306107.414                    24306110.484
        40.700          22.500
 16  9 14  0 13  0.0000000  0  8G28G13G30G20G05G15G24G18
 113251214.248 8  88247756.89146  21550991.188                    21550995.152
        48.900          38.400
 105927010.231 8  82540664.70947  20157255.945                    20157259.418
        50.000          42.700
 123116404.771 7  95934999.91444  23428284.313                    23428289.965
        43.600          29.200
 112717524.268 8  87831898.06846  21449441.406                    21449445.027
        50.500          37.900
 121418415.550 7  94611783.06345  23105155.398                    23105160.055
        46.200          33.700
 109956411.528 8  85680369.54647  20924015.047                    20924018.844
        51.800          42.900
 121696103.816 7  94828196.30144  23158005.102                    23158011.660
        42.600          29.400
 127623191.574 7  99446673.60843  24285890.719                    24285894.051
        43.100          22.300
 16  9 14  0 13 30.0000000  0  8G28G13G30G20G05G15G24G18
 113251229.715 8  88247768.95246  21550994.586                    21550997.867
        48.500          38.300
 105904749.645 8  82523318.78847  20153019.961                    20153023.313
        50.200          42.000
 123180457.951 7  95984911.44144  23440473.430                    23440479.523
        43.400          29.000
 112713372.930 8  87828663.24646  21448651.219                    21448654.871
        49.300          37.500
 121492400.936 7  94669433.99645  23119234.305                    23119239.219
        46.200          34.200
 109879265.217 8  85620255.52647  20909334.453                    20909337.969
        50.900          42.900
 121576233.519 7  94734790.89445  23135194.711                    23135201.590
        43.200          30.900
 127517273.289 7  99364139.87843  24265735.234                    24265738.582
        43.500          22.600
 16  9 14  0 14  0.0000000  0  8G28G13G30G20G05G15G24G18
 113251757.427 8  88248180.16346  21551094.555                    21551098.680
        49.500          38.300
 105882940.583 8  82506324.71246  20148869.867                    20148873.445
        50.000          41.700
 123244619.748 7  96034907.60444  23452682.641                    23452689.363
        42.600          29.600
 112709816.172 8  87825891.73346  21447974.695                    21447978.457
        50.000          37.300
 121566603.138 7  94727253.89445  23133354.000                    23133358.797
        47.000          33.600
 109802519.033 8  85560453.30747  20894729.836                    20894734.059
        51.700          42.900
 121456556.070 7  94641535.75445  23112420.492                    23112427.520
        43.300          30.900
 127411676.473 7  99281856.63843  24245640.992                    24245643.906
        43.700          23.300
 16  9 14  0 14 30.0000000  0  8G28G13G30G20G05G15G24G18
 113252794.706 8  88248988.43846  21551291.734                    21551296.012
        49.200          38.700
 105861582.163 8  82489681.78346  20144805.563                    20144808.910
        49.700          41.500
 123308887.734 7  96084986.52244  23464912.094                    23464918.828
        42.400          28.100
 112706851.861 8  87823581.87246  21447410.867                    21447414.207
        49.900          37.400
 121641018.564 7  94785239.93945  23147514.711                    23147519.258
        46.400          32.100
 109726173.169 8  85500963.01547  20880201.984                    20880205.582
        51.100          42.900
 121337071.509 7  94548430.91845  23089683.453                    23089690.273
        42.700          31.300
 127306402.127 7  99199824.67643  24225608.148                    24225610.672
        42.700          23.400
 16  9 14  0 15  0.0000000  0  8G28G13G30G20G05G15G24G18
 113254341.337 8  88250193.60046  21551586.555                    21551589.988
        48.800          38.700
 105840676.113 8  82473391.34947  20140827.016                    20140830.480
        49.800          42.100
 123373261.616 7  96135148.00244  23477162.547                    23477168.906
        43.600          28.100
 112704480.126 8  87821733.74646  21446959.359                    21446962.383
        49.600          38.600
 121715645.435 7  94843390.70645  23161716.195                    23161720.355
        46.300          32.300
 109650230.226 8  85441786.69747  20865750.648                    20865754.648
        50.400          42.900
 121217781.358 7  94455477.56645  23066983.625                    23066989.961
        43.100          31.900
 127201453.575 7  99118046.58943  24205636.898                    24205639.605
        42.300          22.200
 16  9 14  0 15 30.0000000  0  8G28G13G30G20G05G15G24G18
 113256395.992 8  88251794.63946  21551976.797                    21551980.988
        48.900          38.100
 105820223.043 8  82457453.89246  20136935.008                    20136938.629
        49.700          41.600
 123437740.097 6  96185390.93144  23489432.156                    23489439.480
        41.300          29.500
 112702699.141 8  87820345.96246  21446620.625                    21446624.109
        49.800          37.600
 121790481.313 7  94901704.36145  23175957.438                    23175961.574
        47.600          33.200
 109574691.699 8  85382925.51047  20851375.688                    20851379.797
        50.900          42.200
 121098686.642 7  94362676.49845  23044320.078                    23044327.582
        43.300          31.500
 127096832.769 7  99036523.86643  24185728.719                    24185730.902
        42.300          23.000
 16  9 14  0 16  0.0000000  0  8G28G13G30G20G05G15G24G18
 113258959.961 7  88253792.53246  21552465.180                    21552469.059
        47.900          38.500
 105800225.913 8  82441871.71046  20133129.297                    20133133.164
        49.200          41.300
 123502324.740 7  96235716.59944  23501722.594                    23501729.809
        43.700          29.900
 112701510.892 8  87819420.04546  21446394.133                    21446397.906
        49.300          37.100
 121865525.895 7  94960180.64045  23190237.273                    23190241.992
        47.000          32.100
 109499561.757 8  85324382.70147  20837079.031                    20837083.129
        50.700          42.600
 120979790.729 7  94270030.34345  23021694.594                    23021702.547
        42.900          31.100
 126992545.102 6  98955260.77143  24165882.719                    24165886.199
        41.700          22.500
 16  9 14  0 16 30.0000000  0  8G28G13G30G20G05G15G24G18
 113262027.987 7  88256183.20946  21553048.953                    21553052.266
        47.200          37.900
 105780681.264 8  82426642.10446  20129410.547                    20129414.109
        50.000          41.800
 123567010.052 7  96286120.70544  23514031.711                    23514038.395
        42.300          28.900
 112700910.153 7  87818951.92546  21446280.039                    21446283.238
        47.800          37.300
 121940772.797 7  95018814.55745  23204556.719                    23204560.641
        46.800          32.100
 109424837.955 8  85266156.36447  20822859.406                    20822863.289
        51.300          42.700
 120861090.482 7  94177536.67845  22999107.016                    22999113.840
        43.500          31.500
 126888587.923 7  98874255.17043  24146100.000                    24146104.059
        42.600          22.900
 16  9 14  0 17  0.0000000  0  9G28G13G30G20G05G15G17G24G18
 113265596.721 8  88258964.04746  21553728.172                    21553731.180
        49.200          38.800
 105761587.657 8  82411763.97247  20125776.898                    20125780.469
        49.000          42.100
 123631792.959 6  96336600.88744  23526358.984                    23526365.910
        41.300          26.000
 112700893.733 8  87818939.11646  21446276.781                    21446280.582
        49.300          37.300
 122016216.812 7  95077602.10445  23218913.414                    23218917.129
        45.700          31.400
 109350519.836 8  85208246.13347  20808717.234                    20808720.961
        51.000          42.800
 131466646.284 6 102441583.21443  25017277.492                    25017282.156
        39.200          20.100
 120742584.988 7  94085194.73745  22976556.305                    22976563.422
        42.400          31.500
 126784961.668 7  98793507.45243  24126380.789                    24126384.184
        42.300          22.500
 16  9 14  0 17 30.0000000  0  9G28G13G30G20G05G15G17G24G18
 113269666.549 8  88262135.34846  21554502.734                    21554505.930
        49.600          38.300
 105742947.531 8  82397239.18446  20122229.805                    20122233.555
        49.100          41.700
 123696674.339 7  96387157.78144  23538705.797                    23538712.398
        42.000          27.800
 112701462.675 8  87819382.42446  21446385.406                    21446388.570
        49.300          37.300
 122091857.438 7  95136542.85045  23233306.523                    23233311.414
        45.200          31.000
 109276611.083 8  85150654.89247  20794652.836                    20794656.777
        51.500          43.000
 131350721.576 6 102351252.28243  24995217.867                    24995223.438
        41.600          22.300
 120624277.264 6  93993006.90545  22954042.961                    22954049.898
        41.400          30.900
 126681670.895 6  98713021.11943  24106725.242                    24106728.602
        41.800          22.900
 16  9 14  0 18  0.0000000  0  9G28G13G30G20G05G15G17G24G18
 113274234.370 8  88265694.69246  21555372.039                    21555375.039
        49.900          38.600
 105724759.319 8  82383066.54846  20118768.648                    20118772.289
        50.100          41.800
 123761650.856 7  96437788.81445  23551070.813                    23551077.695
        43.800          30.100
 112702613.717 8  87820279.33146  21446603.977                    21446607.762
        50.300          37.300
 122167690.018 7  95195633.15445  23247737.297                    23247742.395
        44.700          30.500
 109203111.151 8  85093382.21647  20780666.547                    20780670.430
        50.800          42.700
 131234891.718 6 102260995.25943  24973175.789                    24973182.020
        41.000          23.200
 120506166.329 7  93900972.42745  22931567.484                    22931573.953
        42.100          31.100
 126578715.333 6  98632796.02444  24087133.039                    24087136.617
        41.500          25.000
 16  9 14  0 18 30.0000000  0  9G28G13G30G20G05G15G17G24G18
 113279301.238 8  88269642.90646  21556336.078                    21556339.086
        50.300          38.400
 105707026.025 8  82369248.38846  20115393.969                    20115397.473
        49.400          41.200
 123826723.963 7  96488495.09844  23563453.789                    23563460.383
        42.500          28.900
 112704348.236 8  87821630.88946  21446934.727                    21446937.984
        49.200          36.900
 122243714.841 7  95254873.26245  23262203.742                    23262208.539
        45.200          31.500
 109130024.162 8  85036431.30847  20766758.195                    20766762.410
        51.300          42.600
 131119163.600 6 102170817.50243  24951153.516                    24951159.570
        39.200          21.300
 120388255.476 7  93809093.84845  22909130.242                    22909136.891
        43.000          31.500
 126476099.926 6  98552835.99843  24067606.438                    24067609.418
        41.900          23.000
 16  9 14  0 19  0.0000000  0  9G28G13G30G20G05G15G17G24G18
 113284862.598 8  88273976.44446  21557394.414                    21557397.621
        50.900          38.500
 105689745.140 8  82355782.75446  20112105.766                    20112109.281
        49.900          41.600
 123891889.281 7  96539273.21944  23575854.055                    23575860.941
        42.200          27.000
 112706661.739 8  87823433.60046  21447374.836                    21447378.223
        49.600          37.200
 122319925.396 7  95314258.07245  23276706.375                    23276711.105
        43.800          30.400
 109057348.705 8  84979801.08147  20752928.797                    20752932.395
        50.700          42.500
 131003536.317 6 102080718.34443  24929149.695                    24929156.656
        38.100          22.800
 120270542.591 7  93717369.54745  22886730.008                    22886736.316
        43.000          31.400
 126373823.659 6  98473140.21144  24048144.188                    24048146.938
        41.700          24.200
 16  9 14  0 19 30.0000000  0  9G28G13G30G20G05G15G17G24G18
 113290924.110 8  88278699.71046  21558547.859                    21558550.688
        49.900          38.900
 105672924.126 8  82342675.46146  20108904.797                    20108908.164
        48.000          41.600
 123957152.876 6  96590127.94044  23588273.742                    23588280.297
        41.600          28.400
 112709560.105 8  87825692.04846  21447926.258                    21447929.660
        49.000          37.000
 122396326.457 7  95373791.35445  23291245.484                    23291249.863
        43.900          31.200
 108985093.298 8  84923498.15947  20739178.828                    20739182.891
        50.800          42.600
 130888020.001 6 101990705.64543  24907167.391                    24907174.461
        38.900          22.000
 120153035.587 7  93625805.66945  22864368.805                    22864375.375
        43.500          32.300
 126271896.021 7  98393716.07644  24028747.242                    24028750.844
        42.400          24.700
 16  9 14  0 20  0.0000000  0  9G28G13G30G20G05G15G17G24G18
 113297474.791 8  88283804.14246  21559794.305                    21559797.988
        50.600          38.400
 105656553.387 8  82329919.03146  20105789.563                    20105793.059
        49.200          41.700
 124022503.881 7  96641050.78544  23600708.898                    23600716.531
        42.800          28.100
 112713032.787 8  87828398.02446  21448586.781                    21448590.207
        49.100          36.500
 122472906.053 7  95433463.73945  23305818.242                    23305822.781
        43.600          31.900
 108913249.953 8  84867516.33547  20725507.477                    20725511.434
        51.100          43.000
 130772608.129 6 101900774.33043  24885205.695                    24885212.820
        40.700          22.900
 120035725.870 7  93534395.51945  22842045.320                    22842052.078
        44.300          32.300
 126170309.226 7  98314557.54344  24009416.578                    24009419.555
        42.500          25.000
 16  9 14  0 20 30.0000000  0  9G28G13G30G20G05G15G17G24G18
 113304518.147 7  88289292.47746  21561134.563                    21561137.711
        47.700          38.200
 105640638.722 8  82317517.98746  20102761.055                    20102764.652
        49.100          41.500
 124087945.973 6  96692044.57844  23613162.258                    23613169.918
        41.900          28.200
 112717083.117 7  87831554.11946  21449357.414                    21449361.469
        46.700          36.300
 122549666.108 7  95493276.76345  23320425.227                    23320429.734
        44.400          32.900
 108841824.981 8  84811860.51247  20711915.969                    20711919.957
        50.800          42.600
 130657307.793 6 101810929.95043  24863264.648                    24863270.957
        41.200          22.600
 119918619.283 7  93443143.66545  22819760.953                    22819768.027
        44.300          32.800
 126069069.869 6  98235669.75544  23990151.414                    23990154.457
        41.800          25.400
 16  9 14  0 21  0.0000000  0  9G28G13G30G20G05G15G17G24G18
 113312048.483 8  88295160.27946  21562567.430                    21562571.102
        49.600          38.300
 105625176.441 8  82305469.45446  20099819.070                    20099822.457
        48.300          41.600
 124153473.720 6  96743105.07744  23625631.680                    23625639.160
        41.300          26.200
 112721705.236 8  87835155.75946  21450237.289                    21450240.793
        49.600          36.300
 122626599.453 7  95553224.78045  23335064.477                    23335069.359
        42.100          30.200
 108770815.396 8  84756528.36447  20698403.281                    20698407.285
        50.800          42.700
 130542118.612 6 101721172.16643  24841345.102                    24841350.996
        40.500          23.000
 119801712.405 7  93352047.40645  22797513.797                    22797521.152
        43.600          31.700
 125968176.154 7  98157051.27544  23970951.438                    23970955.203
        42.900          25.000
 16  9 14  0 21 30.0000000  0  9G28G13G30G20G05G15G17G24G18
 113320067.129 7  88301408.57446  21564093.172                    21564096.898
        46.400          38.400
 105610169.338 8  82293775.59746  20096963.070                    20096966.344
        49.100          41.500
 124219088.811 7  96794233.71544  23638118.508                    23638124.680
        43.700          25.600
 112726900.945 7  87839204.35246  21451226.047                    21451229.438
        46.000          36.200
 122703706.571 7  95613308.23445  23349738.883                    23349742.680
        45.000          30.900
 108700225.963 8  84701523.61147  20684970.367                    20684974.512
        50.700          42.400
 130427046.386 6 101631505.49243  24819447.438                    24819453.520
        40.200          22.300
 119685008.370 7  93261109.21145  22775306.078                    22775313.352
        43.400          32.400
 125867633.053 7  98078706.01044  23951819.344                    23951822.121
        42.100          24.000
 16  9 14  0 22  0.0000000  0  9G28G13G30G20G05G15G17G24G18
 113328576.462 8  88308039.21946  21565712.719                    21565716.496
        50.200          37.900
 105595622.012 8  82282440.01746  20094194.773                    20094198.238
        48.700          41.600
 124284794.143 7  96845432.67844  23650622.156                    23650628.301
        42.500          27.500
 112732673.039 8  87843702.07346  21452324.063                    21452327.570
        48.700          36.100
 122780988.513 7  95673527.93745  23364444.344                    23364448.996
        44.100          30.700
 108630062.362 8  84646850.66247  20671619.359                    20671622.754
        50.700          42.400
 130312097.812 6 101541935.17043  24797573.406                    24797580.469
        40.800          23.500
 119568513.008 7  93170333.63145  22753137.539                    22753145.352
        43.300          32.100
 125767446.904 7  98000638.89844  23932754.219                    23932756.832
        43.900          24.300
 16  9 14  0 22 30.0000000  0  9G28G13G30G20G05G15G17G24G18
 113337574.156 8  88315050.40746  21567424.859                    21567428.164
        50.000          38.100
 105581533.760 8  82271462.15346  20091513.906                    20091517.301
        49.200          41.400
 124350587.704 7  96896700.31044  23663141.344                    23663149.066
        43.000          28.400
 112739018.990 8  87848646.96246  21453532.023                    21453535.348
        49.200          36.700
 122858441.885 7  95733881.19545  23379183.219                    23379188.633
        42.700          31.600
 108560324.360 8  84592509.36147  20658348.039                    20658352.148
        51.300          43.000
 130197274.941 6 101452462.81543  24775722.945                    24775729.855
        41.100          22.900
 119452225.990 7  93079720.38645  22731008.594                    22731015.918
        43.900          32.100
 125667618.956 7  97922850.88244  23913757.461                    23913760.695
        42.600          25.300
 16  9 14  0 23  0.0000000  0  9G28G13G30G20G05G15G17G24G18
 113347054.423 8  88322437.63746  21569229.078                    21569232.047
        49.900          37.400
 105567901.104 8  82260839.29646  20088919.391                    20088922.898
        49.100          41.400
 124416464.257 7  96948032.60844  23675677.953                    23675685.293
        43.400          29.000
 112745933.154 8  87854034.60446  21454847.602                    21454851.191
        49.300          36.200
 122936060.073 7  95794362.84845  23393953.938                    23393958.648
        43.000          31.100
 108491010.164 8  84538498.30147  20645157.906                    20645162.293
        50.800          42.200
 130082576.747 7 101363087.63444  24753897.016                    24753904.023
        42.000          25.300
 119336143.982 7  92989266.88745  22708919.313                    22708926.402
        44.200          31.900
 125568147.221 7  97845340.44344  23894828.906                    23894831.977
        43.100          25.800
 16  9 14  0 23 30.0000000  0  9G28G13G30G20G05G15G17G24G18
 113357016.410 8  88330200.22646  21571124.469                    21571127.891
        50.300          37.600
 105554724.206 8  82250571.57747  20086412.023                    20086415.652
        49.400          42.300
 124482422.924 7  96999428.93444  23688229.320                    23688235.762
        43.700          26.900
 112753415.007 8  87859864.60746  21456271.508                    21456275.000
        50.000          36.200
 123013840.421 7  95854970.87444  23408755.211                    23408759.773
        42.500          29.800
 108422121.456 8  84484818.79247  20632048.836                    20632052.938
        51.400          42.700
 129968006.661 6 101273812.25844  24732095.969                    24732101.691
        41.800          26.200
 119220268.503 7  92898974.31645  22686868.930                    22686876.105
        44.000          32.000
 125469033.672 7  97768109.11144  23875968.367                    23875971.156
        43.800          26.500
 16  9 14  0 24  0.0000000  0  9G28G13G30G20G05G15G17G24G18
 113367460.153 8  88338338.21246  21573112.156                    21573115.238
        48.800          37.100
 105542005.841 8  82240661.15946  20083992.086                    20083995.297
        49.800          41.600
 124548464.417 7  97050889.84444  23700796.648                    23700802.250
        43.200          25.500
 112761464.392 8  87866136.83946  21457803.352                    21457806.633
        48.000          36.300
 123091782.166 7  95915704.71344  23423587.156                    23423590.641
        44.700          29.100
 108353661.067 8  84431473.03247  20619021.148                    20619025.129
        50.700          42.600
 129853569.343 6 101184640.33944  24710318.711                    24710325.465
        41.200          26.900
 119104601.894 7  92808844.51245  22664858.523                    22664864.820
        44.400          31.200
 125370282.441 7  97691160.09844  23857176.742                    23857179.695
        44.300          25.600
 16  9 14  0 24 30.0000000  0  9G28G13G30G20G05G15G17G24G18
 113378384.638 8  88346850.80046  21575191.055                    21575194.383
        49.900          37.700
 105529746.700 8  82231108.57746  20081659.141                    20081662.883
        49.600          41.800
 124614588.113 7  97102414.80744  23713379.094                    23713385.594
        42.200          26.800
 112770080.300 8  87872850.52146  21459442.797                    21459446.641
        49.200          36.000
 123169883.003 7  95976562.52344  23438448.469                    23438452.836
        43.000          28.600
 108285631.412 8  84378462.91447  20606075.742                    20606079.461
        50.700          42.600
 129739268.195 6 101095574.55444  24688567.656                    24688574.633
        41.400          26.700
 118989145.521 7  92718878.52745  22642887.359                    22642893.996
        45.400          30.700
 125271896.300 7  97614495.57544  23838454.492                    23838457.602
        43.700          27.500
 16  9 14  0 25  0.0000000  0  9G28G13G30G20G05G15G17G24G18
 113389789.341 8  88355737.59146  21577360.734                    21577364.156
        49.000          37.000
 105517948.147 8  82221914.89246  20079413.898                    20079417.395
        49.500          41.700
 124680794.008 7  97154003.74844  23725978.430                    23725985.133
        43.800          29.300
 112779262.432 8  87880005.41745  21461190.117                    21461193.570
        48.900          35.900
 123248141.609 7  96037543.17944  23453341.102                    23453346.270
        42.400          29.800
 108218034.846 8  84325790.26347  20593212.555                    20593216.207
        50.700          43.000
 129625107.634 6 101006618.29544  24666844.516                    24666850.355
        41.300          25.800
 118873901.380 7  92629077.93845  22620957.094                    22620964.023
        44.500          32.000
 125173878.148 7  97538117.79044  23819801.953                    23819805.207
        44.500          28.000
 16  9 14  0 25 30.0000000  0  9G28G13G30G20G05G15G17G24G18
 113401676.052 8  88364999.97446  21579622.828                    21579626.320
        48.600          37.600
 105506613.586 8  82213082.75047  20077257.102                    20077260.246
        49.800          42.100
 124747084.177 7  97205658.35444  23738593.242                    23738599.957
        44.900          29.500
 112789012.533 8  87887602.88645  21463045.180                    21463049.016
        48.200          35.400
 123326558.269 7  96098647.03545  23468263.844                    23468267.828
        45.400          31.300
 108150876.157 8  84273458.81947  20580432.422                    20580436.574
        51.300          42.700
 129511093.602 7 100917776.20143  24645146.781                    24645153.984
        42.800          23.300
 118758873.913 7  92539446.16045  22599067.922                    22599075.352
        45.100          31.900
 125076233.392 7  97462030.94844  23801220.805                    23801224.285
        44.100          27.100
 16  9 14  0 26  0.0000000  0  9G28G13G30G20G05G15G17G24G18
 113414036.531 8  88374631.51946  21581975.125                    21581978.914
        49.500          37.600
 105495737.160 8  82204607.61247  20075187.320                    20075190.895
        49.600          42.000
 124813450.970 7  97257372.66744  23751222.469                    23751229.234
        43.900          26.200
 112799322.515 8  87895636.63145  21465007.461                    21465011.324
        49.400          35.800
 123405123.648 7  96159866.80544  23483213.445                    23483217.949
        44.500          29.500
 108084150.222 8  84221464.58147  20567735.016                    20567739.207
        51.300          42.900
 129397222.600 7 100829045.56544  24623478.500                    24623485.332
        42.300          25.100
 118644057.345 7  92449978.72145  22577219.164                    22577226.055
        45.200          31.500
 124978957.563 7  97386231.61444  23782710.508                    23782713.313
        44.100          26.400
 16  9 14  0 26 30.0000000  0  9G28G13G30G20G05G15G17G24G18
 113426873.958 8  88384634.69846  21584417.930                    21584421.688
        48.200          37.800
 105485323.560 8  82196493.11347  20073205.805                    20073209.242
        49.500          42.500
 124879898.174 7  97309149.68343  23763866.320                    23763872.184
        42.600          22.000
 112810195.841 7  87904109.34046  21467076.180                    21467079.938
        47.000          36.200
 123483840.513 7  96221204.60344  23498192.555                    23498197.313
        42.300          26.900
 108017863.297 8  84169812.43847  20555121.281                    20555124.918
        49.900          42.600
 129283502.592 7 100740432.58844  24601838.102                    24601845.766
        42.800          26.000
 118529456.956 7  92360679.74045  22555411.883                    22555419.246
        44.800          31.700
 124882057.429 7  97310725.01044  23764270.680                    23764273.449
        44.600          27.500
 16  9 14  0 27  0.0000000  0  9G28G13G30G20G05G15G17G24G18
 113440187.137 8  88395008.61146  21586951.242                    21586955.098
        50.500          37.600
 105475373.757 8  82188740.01347  20071312.195                    20071316.477
        49.500          42.000
 124946425.146 7  97360988.93344  23776526.977                    23776532.156
        44.300          26.400
 112821631.277 8  87913020.06346  21469252.656                    21469256.109
        49.900          36.700
 123562705.778 7  96282658.01145  23513201.852                    23513205.676
        44.500          30.400
 107952017.358 8  84118503.90847  20542591.336                    20542595.180
        50.900          43.100
 129169936.852 7 100651939.81544  24580226.961                    24580234.113
        42.000          24.900
 118415074.847 7  92271550.84945  22533645.211                    22533652.434
        45.300          31.500
 124785535.737 7  97235513.30044  23745902.992                    23745905.918
        43.300          27.300
 16  9 14  0 27 30.0000000  0  9G28G13G30G20G05G15G17G24G18
 113453970.527 7  88405748.91446  21589574.492                    21589578.082
        47.500          37.300
 105465884.266 8  82181345.58946  20069506.625                    20069510.293
        49.000          41.700
 125013027.084 7  97412886.48844  23789200.305                    23789207.848
        45.000          29.400
 112833623.249 8  87922364.44546  21471534.594                    21471538.645
        48.000          36.000
 123641713.863 7  96344222.74145  23528235.688                    23528240.672
        44.600          30.800
 107886610.223 8  84067537.30847  20530144.750                    20530148.688
        50.400          43.000
 129056524.774 7 100563566.78244  24558646.477                    24558653.336
        42.000          25.800
 118300907.882 7  92182589.59145  22511920.133                    22511927.211
        45.200          32.600
 124689390.872 7  97160595.22644  23727607.102                    23727610.301
        44.500          27.200
 16  9 14  0 28  0.0000000  0  9G28G13G30G20G05G15G17G24G18
 113468225.511 8  88416856.70146  21592287.023                    21592290.582
        49.500          37.100
 105456857.894 8  82174312.04946  20067789.039                    20067792.539
        49.300          41.800
 125079705.512 7  97464843.60344  23801888.734                    23801896.184
        44.100          28.500
 112846173.018 8  87932143.46746  21473922.906                    21473926.613
        49.600          36.200
 123720864.507 7  96405898.54544  23543297.250                    23543301.145
        43.100          28.500
 107821645.681 8  84016915.58947  20517782.336                    20517786.148
        50.500          42.600
 128943271.492 7 100475317.49344  24537093.820                    24537101.383
        42.000          27.000
 118186959.398 7  92093798.59145  22490236.539                    22490243.379
        45.600          32.100
 124593627.003 7  97085974.01344  23709383.945                    23709387.098
        43.500          26.800
 16  9 14  0 28 30.0000000  0  9G28G13G30G20G05G15G17G24G18
 113482945.544 8  88428326.86346  21595088.258                    21595091.711
        49.500          37.300
 105448290.249 8  82167635.94446  20066158.109                    20066162.188
        49.200          41.800
 125146454.539 7  97516855.74444  23814590.234                    23814598.074
        42.600          27.400
 112859274.111 8  87942352.09545  21476415.953                    21476419.359
        49.700          35.800
 123800150.301 6  96467679.66944  23558385.047                    23558389.461
        41.500          28.500
 107757120.248 8  83966636.03747  20505503.281                    20505507.070
        51.200          43.100
 128830176.113 7 100387191.24544  24515573.586                    24515580.688
        42.000          25.600
 118073225.410 7  92005174.72445  22468593.633                    22468600.777
        44.700          33.000
 124498241.476 7  97011647.62344  23691232.406                    23691235.828
        42.700          28.200
 16  9 14  0 29  0.0000000  0  9G28G13G30G20G05G15G17G24G18
 113498131.844 8  88440160.33946  21597978.008                    21597980.930
        50.100          36.900
 105440184.279 8  82161319.59847  20064616.156                    20064619.777
        48.800          42.000
 125213275.896 7  97568924.27443  23827306.844                    23827312.848
        42.800          22.900
 112872927.281 8  87952990.91245  21479014.180                    21479017.484
        49.200          35.700
 123879570.681 7  96529565.67645  23573499.070                    23573503.035
        43.600          31.000
 107693038.378 8  83916702.10447  20493309.539                    20493313.457
        50.200          43.300
 128717243.662 7 100299191.94644  24494082.703                    24494089.664
        43.000          26.500
 117959709.775 7  91916720.99245  22446992.922                    22446999.551
        45.300          32.900
 124403239.329 7  96937619.99644  23673154.336                    23673157.289
        43.100          26.800
 16  9 14  0 29 30.0000000  0  9G28G13G30G20G05G15G17G24G18
 113513780.913 7  88452354.43846  21600955.711                    21600958.887
        47.500          36.600
 105432538.576 8  82155361.90747  20063161.383                    20063164.781
        48.900          42.000
 125280166.828 7  97621047.10143  23840034.883                    23840040.656
        42.700          23.300
 112887129.528 7  87964057.58745  21481716.594                    21481719.887
        46.100          35.700
 123959121.826 7  96591553.58045  23588636.328                    23588641.309
        44.600          31.400
 107629399.804 8  83867113.61047  20481199.055                    20481203.039
        49.800          43.500
 128604475.861 6 100211320.95944  24472624.039                    24472631.039
        41.800          27.600
 117846411.543 7  91828436.70145  22425432.422                    22425439.289
        45.400          32.100
 124308620.722 7  96863891.20844  23655149.039                    23655152.563
        42.800          26.800
 16  9 14  0 30  0.0000000  0  9G28G13G30G20G05G15G17G24G18
 115105319.686 8  89692514.52746  21903815.547                    21903819.047
        49.500          37.200
 107000782.893 8  83377370.44547  20361588.352                    20361591.977
        49.200          42.100
 126922553.586 7  98900829.01944  24152570.836                    24152577.988
        43.300          24.400
 114477308.323 8  89203157.92745  21784317.883                    21784321.020
        48.900          35.200
 125614227.959 7  97881246.61944  23903591.516                    23903597.906
        42.900          29.700
 109141637.598 8  85045480.72347  20768968.516                    20768972.594
        50.800          43.400
 130067308.976 7 101351190.92244  24750991.992                    24750998.664
        43.800          26.900
 119308765.052 7  92967932.96945  22703709.117                    22703715.824
        45.200          32.900
 125789820.535 7  98018072.88544  23937011.945                    23937015.109
        43.300          27.300
 16  9 14  0 30 30.0000000  0  9G28G13G30G20G05G15G17G24G18
 115121900.659 8  89705434.77746  21906971.016                    21906974.039
        49.900          37.300
 106994069.793 8  83372139.45746  20360310.609                    20360314.215
        49.000          41.900
 126989592.175 7  98953066.80944  24165327.375                    24165336.273
        42.200          25.200
 114492615.242 8  89215085.38345  21787230.297                    21787233.984
        49.100          35.100
 125694044.321 7  97943441.15744  23918780.688                    23918784.406
        43.600          28.600
 109078901.372 8  84996595.35247  20757030.102                    20757034.336
        50.700          42.300
 129954890.978 7 101263592.50044  24729599.656                    24729606.047
        43.400          26.900
 119195915.996 7  92879998.66845  22682234.727                    22682241.328
        44.900          33.200
 125695986.895 7  97944955.75544  23919156.109                    23919159.000
        42.300          26.400
 16  9 14  0 31  0.0000000  0  9G28G13G30G20G05G15G17G24G18
 115138943.336 8  89718714.79246  21910213.656                    21910217.301
        48.800          36.300
 106987821.849 8  83367270.91146  20359121.602                    20359125.633
        49.900          41.700
 127056701.596 6  99005359.72744  24178098.180                    24178106.766
        41.500          27.500
 114508470.328 8  89227439.97945  21790247.539                    21790251.020
        49.200          35.300
 125773987.501 7  98005734.57644  23933993.563                    23933997.871
        43.500          29.900
 109016616.860 8  84948061.96947  20745177.602                    20745181.379
        50.200          43.100
 129842650.333 6 101176132.24744  24708240.438                    24708247.625
        41.600          26.300
 119083291.221 7  92792239.12445  22660802.813                    22660809.660
        46.100          33.000
 125602546.945 7  97872145.40544  23901374.820                    23901378.551
        42.100          27.800
 16  9 14  0 31 30.0000000  0  9G28G13G30G20G05G15G17G24G18
 115156447.295 8  89732354.25446  21913544.813                    21913548.113
        49.900          37.100
 106982040.333 8  83362765.83346  20358021.563                    20358025.070
        49.400          41.900
 127123881.866 7  99057707.92844  24190883.195                    24190890.020
        43.400          27.100
 114524873.123 8  89240221.36245  21793368.648                    21793372.512
        49.400          35.300
 125854056.337 7  98068125.86544  23949229.680                    23949234.828
        43.300          29.800
 108954786.499 8  84899882.46747  20733411.914                    20733415.434
        49.600          43.400
 129730591.361 7 101088813.60144  24686916.938                    24686923.121
        42.900          26.500
 118970893.188 7  92704656.27545  22639414.219                    22639421.188
        45.000          32.700
 125509503.750 7  97799644.22044  23883669.203                    23883672.664
        43.000          26.600
 16  9 14  0 32  0.0000000  0  9G28G13G30G20G05G15G17G24G18
 115174408.270 8  89746349.80846  21916962.797                    21916966.188
        48.300          37.100
 106976722.877 8  83358622.34146  20357009.828                    20357013.602
        49.300          41.700
 127191129.176 7  99110108.40943  24203679.344                    24203686.191
        42.300          22.600
 114541818.639 8  89253425.65045  21796593.211                    21796597.391
        48.400          35.300
 125934245.304 7  98130610.72844  23964489.430                    23964494.773
        44.500          29.600
 108893409.179 8  84852055.98147  20721732.297                    20721735.848
        50.300          43.800
 129618714.974 7 101001637.23844  24665627.320                    24665634.281
        42.500          27.800
 118858719.758 7  92617248.42245  22618068.102                    22618074.969
        45.000          32.600
 125416857.007 7  97727451.95444  23866039.078                    23866042.473
        43.200          27.000
 16  9 14  0 32 30.0000000  0  9G28G13G30G20G05G15G17G24G18
 115192825.607 8  89760700.98346  21920467.828                    21920470.586
        48.800          37.100
 106971870.791 8  83354841.48246  20356086.672                    20356089.816
        49.500          41.800
 127258443.762 7  99162561.34343  24216488.461                    24216495.715
        42.000          22.500
 114559306.619 7  89267052.63745  21799921.445                    21799925.410
        47.600          35.500
 126014552.968 7  98193188.12545  23979771.672                    23979776.348
        44.000          30.200
 108832487.306 8  84804584.39747  20710138.852                    20710142.965
        50.200          43.000
 129507024.864 7 100914606.00844  24644373.281                    24644380.391
        43.000          28.000
 118746772.923 7  92530017.14145  22596765.367                    22596772.695
        45.800          34.200
 125324609.660 7  97655570.93444  23848485.078                    23848488.168
        42.900          28.500
 16  9 14  0 33  0.0000000  0  9G28G13G30G20G05G15G17G24G18
 115211698.186 8  89775406.90146  21924059.000                    21924062.070
        50.500          37.000
 106967484.821 8  83351423.83246  20355251.977                    20355255.324
        49.200          41.100
 127325825.388 6  99215066.50544  24229310.477                    24229317.797
        41.200          25.800
 114577336.039 8  89281101.51845  21803352.320                    21803355.742
        48.600          35.100
 126094977.401 7  98255856.54644  23995075.414                    23995080.172
        44.300          28.200
 108772023.011 8  84757469.35447  20698633.195                    20698636.656
        49.500          43.000
 129395524.998 7 100827723.00644  24623155.484                    24623162.496
        42.600          27.000
 118635053.980 7  92442963.44045  22575505.852                    22575512.938
        46.000          34.100
 125232764.378 7  97584003.16544  23831007.430                    23831011.152
        43.000          28.300
 16  9 14  0 33 30.0000000  0  9G28G13G30G20G05G15G17G24G18
 115231024.189 8  89790466.13546  21927736.258                    21927739.664
        50.300          37.300
 106963565.198 8  83348369.56946  20354505.734                    20354509.445
        49.600          41.400
 127393273.012 6  99267622.98644  24242146.766                    24242153.816
        41.800          27.100
 114595904.844 8  89295570.69545  21806885.531                    21806889.426
        48.600          34.100
 126175515.643 6  98318613.61344  24010401.125                    24010405.887
        41.600          26.900
 108712017.433 8  84710711.76047  20687214.250                    20687218.160
        50.300          43.600
 129284218.146 7 100740990.39844  24601974.328                    24601981.441
        43.200          27.800
 118523564.498 7  92356088.53645  22554290.578                    22554297.023
        45.800          33.700
 125141323.313 7  97512750.40144  23813607.016                    23813609.648
        42.600          26.600
 16  9 14  0 34  0.0000000  0  9G28G13G30G20G05G15G17G24G18
 115250798.988 8  89805875.07246  21931499.133                    21931502.430
        50.500          36.700
 106960108.935 8  83345676.36247  20353848.266                    20353851.676
        49.600          42.100
 127460782.541 7  99320227.74444  24254993.547                    24255000.609
        43.700          28.500
 114615008.049 8  89310456.29345  21810520.906                    21810524.438
        48.800          34.700
 126256162.119 7  98381454.95944  24025748.563                    24025752.676
        42.900          28.800
 108652469.017 8  84664310.40147  20675882.680                    20675886.613
        49.800          43.400
 129173104.418 7 100654408.30044  24580829.320                    24580837.438
        42.000          25.600
 118412301.624 7  92269390.20845  22533117.422                    22533124.711
        46.300          34.400
 125050285.134 7  97441811.56344  23796282.547                    23796285.883
        42.600          27.200
 16  9 14  0 34 30.0000000  0  9G28G13G30G20G05G15G17G24G18
 115271026.178 8  89821636.52646  21935348.664                    21935351.961
        50.300          37.300
 106957121.803 8  83343348.71746  20353280.023                    20353283.137
        49.300          41.000
 127528358.510 7  99372884.28444  24267852.305                    24267859.254
        43.200          26.800
 114634649.635 8  89325761.40345  21814258.586                    21814262.180
        49.800          35.400
 126336920.178 7  98444383.30844  24041116.117                    24041119.754
        45.200          28.400
 108593384.586 8  84618270.57447  20664639.031                    20664642.965
        49.800          43.600
 129062191.815 6 100567982.90044  24559723.781                    24559731.914
        41.300          26.300
 118301272.166 7  92182873.76945  22511989.523                    22511996.477
        46.600          34.700
 124959657.245 7  97371192.42044  23779036.906                    23779040.098
        42.900          26.200
 16  9 14  0 35  0.0000000  0  9G28G13G30G20G05G15G17G24G18
 115291701.229 8  89837746.95846  21939282.172                    21939286.094
        50.000          36.400
 106954601.169 8  83341384.57946  20352800.250                    20352803.934
        49.200          41.400
 127595997.180 7  99425589.71044  24280723.211                    24280729.844
        42.800          24.900
 114654824.674 8  89341482.20245  21818097.914                    21818100.996
        49.400          34.400
 126417784.117 7  98507394.18044  24056503.469                    24056508.465
        44.800          28.000
 108534762.635 8  84572591.13347  20653483.906                    20653487.633
        49.900          44.300
 128951481.277 7 100481714.97544  24538656.344                    24538664.453
        42.800          28.100
 118190473.907 7  92096537.48445  22490905.125                    22490911.684
        46.000          34.000
 124869438.781 7  97300892.32944  23761868.992                    23761871.867
        43.100          27.300
 16  9 14  0 35 30.0000000  0  9G28G13G30G20G05G15G17G24G18
 115312821.693 8  89854204.46046  21943301.883                    21943305.523
        49.400          37.600
 106952546.604 8  83339783.61847  20352409.648                    20352412.469
        49.000          42.000
 127663697.069 7  99478342.82944  24293606.594                    24293612.676
        42.000          24.800
 114675530.826 8  89357616.85245  21822038.617                    21822041.961
        49.200          35.000
 126498750.264 7  98570484.65044  24071911.172                    24071915.773
        43.300          27.000
 108476603.984 8  84527272.70247  20642417.008                    20642420.797
        49.800          43.400
 128840974.986 7 100395606.19644  24517627.344                    24517635.980
        42.100          28.200
 118079907.325 7  92010381.72745  22469865.383                    22469871.598
        46.400          34.200
 124779631.252 7  97230912.42944  23744779.805                    23744782.453
        42.700          27.500
 16  9 14  0 36  0.0000000  0  9G28G13G30G20G05G15G17G24G18
 115334387.840 8  89871009.24646  21947405.891                    21947408.934
        49.300          37.000
 106950959.699 8  83338547.06046  20352107.320                    20352110.395
        49.100          41.700
 127731458.890 7  99531144.18044  24306501.703                    24306508.449
        43.000          27.400
 114696768.204 8  89374165.43845  21826079.453                    21826083.367
        49.900          35.000
 126579818.360 7  98633654.58845  24087338.758                    24087342.477
        45.400          30.100
 108418911.666 8  84482317.64547  20631438.031                    20631441.984
        49.800          43.700
 128730677.524 7 100309660.15144  24496639.523                    24496646.313
        43.700          28.000
 117969574.930 7  91924408.44345  22448869.055                    22448876.242
        46.000          34.200
 124690238.112 7  97161255.44744  23727768.109                    23727771.211
        43.000          27.000
 16  9 14  0 36 30.0000000  0  9G28G13G30G20G05G15G17G24G18
 115356398.327 8  89888160.27946  21951594.477                    21951597.570
        49.700          37.200
 106949841.383 8  83337675.63146  20351894.477                    20351897.762
        49.300          41.800
 127799282.368 7  99583993.59244  24319408.016                    24319414.352
        42.600          26.400
 114718535.037 8  89391126.59045  21830221.453                    21830225.129
        48.800          34.600
 126660986.539 7  98696902.51144  24102783.500                    24102788.445
        43.200          27.900
 108361687.841 8  84437727.65047  20620549.000                    20620552.656
        50.100          43.800
 128620592.780 7 100223879.86944  24475690.672                    24475697.430
        42.800          28.000
 117859478.592 7  91838619.10645  22427918.484                    22427925.617
        47.000          34.200
 124601261.991 7  97091923.38744  23710836.781                    23710839.590
        44.400          26.500
 16  9 14  0 37  0.0000000  0  9G28G13G30G20G05G15G17G24G18
 115378847.465 8  89905653.11346  21955866.266                    21955869.496
        50.300          37.600
 106949188.072 8  83337166.54646  20351770.031                    20351773.566
        49.300          41.300
 127867162.722 7  99636887.31344  24332325.602                    24332332.043
        42.400          27.300
 114740825.563 8  89408495.82245  21834463.234                    21834466.734
        48.700          34.300
 126742248.068 6  98760223.15944  24118246.406                    24118251.230
        40.200          25.300
 108304929.611 8  84393500.44847  20609748.492                    20609752.438
        50.200          43.600
 128510719.641 7 100138264.45244  24454781.852                    24454789.965
        42.000          27.100
 117749615.063 7  91753011.19845  22407012.523                    22407018.895
        46.600          34.300
 124512701.013 7  97022914.83044  23693984.375                    23693987.020
        44.200          28.600
 16  9 14  0 37 30.0000000  0  9G28G13G30G20G05G15G17G24G18
 115401733.396 8  89923486.32746  21960221.156                    21960224.176
        50.100          36.900
 106948999.737 8  83337019.78347  20351734.227                    20351737.941
        49.500          42.000
 127935099.014 6  99689824.60243  24345252.938                    24345259.926
        41.500          23.200
 114763638.018 8  89426271.73845  21838804.563                    21838807.883
        48.300          35.000
 126823600.508 6  98823614.65844  24133728.164                    24133731.918
        40.900          27.300
 108248638.614 8  84349637.33447  20599036.133                    20599040.148
        50.500          44.100
 128401061.536 7 100052816.62644  24433914.813                    24433922.137
        42.700          27.300
 117639985.549 7  91667585.61645  22386150.742                    22386157.289
        47.000          35.400
 124424557.048 7  96954231.22544  23677210.906                    23677214.230
        42.200          27.900
 16  9 14  0 38  0.0000000  0  9G28G13G30G20G05G15G17G24G18
 115425054.679 8  89941658.75446  21964659.195                    21964662.922
        50.400          37.500
 106949276.668 8  83337235.55846  20351786.859                    20351790.863
        48.600          41.600
 128003090.604 6  99742805.01043  24358190.930                    24358198.172
        39.700          22.900
 114786970.576 8  89444452.94345  21843244.688                    21843248.125
        49.300          34.900
 126905041.039 7  98887074.81344  24149226.289                    24149230.543
        43.400          28.600
 108192816.261 8  84306139.39547  20588413.758                    20588417.473
        49.100          43.800
 128291621.229 7  99967538.47544  24413089.391                    24413095.883
        43.400          27.900
 117530590.844 7  91582343.00845  22365333.281                    22365340.297
        46.900          35.900
 124336832.462 7  96885874.40944  23660517.656                    23660521.148
        42.300          28.900
 16  9 14  0 38 30.0000000  0  9G28G13G30G20G05G15G17G24G18
 115448809.100 8  89960168.69646  21969178.930                    21969183.281
        49.400          36.800
 106950018.486 8  83337813.58747  20351927.953                    20351931.543
        49.800          42.300
 128071136.051 6  99795827.36244  24371140.102                    24371146.719
        41.100          24.500
 114810820.787 8  89463037.51045  21847782.789                    21847786.980
        49.100          34.600
 126986566.682 7  98950601.28244  24164740.070                    24164744.887
        43.500          28.600
 108137463.286 8  84263007.19847  20577880.688                    20577884.664
        50.000          43.900
 128182401.452 7  99882432.14744  24392305.445                    24392312.727
        43.200          27.600
 117421431.379 7  91497283.70945  22344561.063                    22344568.164
        47.500          35.900
 124249528.413 7  96817845.29044  23643904.625                    23643907.406
        43.100          27.300
 16  9 14  0 39  0.0000000  0  9G28G13G30G20G05G15G17G24G18
 115472997.184 8  89979016.54746  21973782.156                    21973785.594
        49.200          36.500
 106951227.925 8  83338755.99447  20352158.227                    20352162.359
        49.500          42.100
 128139237.090 6  99848893.07944  24384098.922                    24384105.996
        40.700          24.000
 114835189.607 8  89482026.18545  21852420.406                    21852424.332
        48.900          34.600
 127068177.984 6  99014194.46944  24180270.031                    24180274.211
        40.200          26.000
 108082583.774 8  84220243.94047  20567436.820                    20567440.863
        50.200          44.300
 128073408.186 6  99797502.36944  24371564.461                    24371571.473
        41.900          29.100
 117312510.686 7  91412410.46246  22323834.414                    22323841.453
        47.100          36.400
 124162649.421 7  96750147.38344  23627371.805                    23627375.129
        43.600          26.900
 16  9 14  0 39 30.0000000  0  9G28G13G30G20G05G15G17G24G18
 115497617.159 8  89998200.94546  21978467.703                    21978470.934
        49.300          37.300
 106952905.104 8  83340062.87746  20352477.711                    20352481.648
        49.800          41.500
 128207392.857 6  99902001.44143  24397068.617                    24397075.527
        38.400          21.700
 114860074.925 8  89501417.32845  21857156.203                    21857159.605
        48.500          34.400
 127149872.205 6  99077852.28144  24195815.773                    24195819.297
        41.900          25.800
 108028179.014 8  84177850.61847  20557084.438                    20557088.238
        50.800          44.000
 127964644.274 7  99712751.26744  24350867.250                    24350874.273
        42.600          27.800
 117203829.595 7  91327723.91645  22303152.539                    22303159.648
        47.300          35.900
 124076197.300 7  96682782.08644  23610920.297                    23610923.113
        43.400          27.500
 16  9 14  0 40  0.0000000  0  9G28G13G30G20G05G15G17G24G18
 115522665.116 8  90017718.82746  21983233.477                    21983236.789
        49.200          37.200
 106955047.505 8  83341732.26147  20352885.266                    20352889.117
        48.900          42.100
 128275600.189 6  99955149.96444  24410047.836                    24410055.184
        39.000          24.800
 114885471.993 8  89521207.23045  21861988.586                    21861992.336
        48.700          33.600
 127231644.414 7  99141570.92544  24211376.703                    24211380.012
        43.400          26.400
 107974247.902 8  84135826.37747  20546821.836                    20546825.539
        50.400          44.300
 127856110.244 7  99628179.32644  24330214.148                    24330220.859
        42.900          28.000
 117095386.797 7  91243223.04946  22282517.055                    22282523.789
        46.800          36.200
 123990171.826 7  96615749.25644  23594549.758                    23594553.121
        42.100          27.400
 16  9 14  0 40 30.0000000  0  9G28G13G30G20G05G15G17G24G18
 115548138.223 8  90037568.01246  21988081.359                    21988084.438
        49.300          37.100
 106957654.396 8  83343763.58547  20353381.445                    20353385.203
        49.600          42.200
 128343857.218 6 100008337.18744  24423036.453                    24423044.684
        40.100          24.800
 114911378.040 8  89541393.73745  21866918.727                    21866921.707
        48.800          34.800
 127313490.694 7  99205347.25044  24226951.211                    24226955.734
        42.100          27.100
 107920790.708 8  84094171.41647  20536649.023                    20536652.949
        49.900          44.400
 127747808.017 7  99543788.00244  24309605.242                    24309611.438
        43.200          27.700
 116987182.464 7  91158907.99345  22261926.352                    22261933.012
        47.600          35.500
 123904573.543 6  96549049.28944  23578261.102                    23578264.523
        41.400          26.100
 16  9 14  0 41  0.0000000  0  9G28G13G30G20G05G15G17G24G18
 115574030.371 8  90057743.71746  21993008.609                    21993011.434
        49.600          37.100
 106960721.734 8  83346153.70747  20353965.047                    20353968.941
        50.700          42.100
 128412158.936 6 100061559.21043  24436034.094                    24436042.059
        40.400          22.600
 114937786.973 8  89561972.10745  21871943.961                    21871947.793
        48.400          33.600
 127395404.646 7  99269176.27144  24242538.344                    24242543.957
        42.300          26.600
 107867804.614 8  84052883.53847  20526566.164                    20526569.859
        50.900          44.200
 127639736.847 7  99459576.73344  24289039.195                    24289045.520
        43.000          26.200
 116879212.929 7  91074775.90745  22241380.594                    22241386.699
        46.800          35.500
 123819400.503 7  96482680.69844  23562053.141                    23562056.844
        42.400          27.100
 16  9 14  0 41 30.0000000  0  9G28G13G30G20G05G15G17G24G18
 115600345.566 8  90078249.07146  21998015.922                    21998019.273
        50.000          37.600
 106964255.262 8  83348907.09846  20354637.484                    20354640.824
        50.200          41.700
 128480510.382 7 100114819.98443  24449042.297                    24449048.719
        42.100          22.900
 114964702.419 8  89582945.16645  21877065.453                    21877069.227
        48.300          34.000
 127477390.122 7  99333061.01044  24258140.453                    24258144.852
        42.800          27.600
 107815296.878 8  84011968.42147  20516574.383                    20516578.102
        49.500          44.300
 127531905.202 7  99375552.10244  24268519.500                    24268526.039
        42.700          28.200
 116771485.513 7  90990832.48545  22220880.875                    22220886.887
        46.900          35.700
 123734660.524 6  96416649.54544  23545927.961                    23545931.672
        41.300          26.800
 16  9 14  0 42  0.0000000  0  9G28G13G30G20G05G15G17G24G18
 115627081.531 8  90099082.30646  22003103.188                    22003107.078
        49.500          36.800
 106968254.601 8  83352023.45847  20355398.539                    20355401.699
        50.200          42.100
 128548910.225 6 100168118.54643  24462058.500                    24462064.309
        41.400          22.000
 114992122.004 7  89604311.06045  21882283.875                    21882287.223
        47.800          33.900
 127559443.384 7  99396998.61044  24273754.742                    24273759.141
        42.800          26.500
 107763268.021 8  83971426.44347  20506673.594                    20506677.359
        50.900          43.900
 127424315.873 7  99291716.28244  24248046.258                    24248052.945
        43.100          27.100
 116664000.103 7  90907077.64645  22200426.789                    22200432.875
        47.000          35.900
 123650354.733 7  96350956.71744  23529885.016                    23529888.504
        42.100          26.700
 16  9 14  0 42 30.0000000  0  9G28G13G30G20G05G15G17G24G18
 115654235.550 8  90120241.26746  22008271.078                    22008273.988
        48.600          36.400
 106972719.033 8  83355502.22946  20356247.875                    20356251.176
        49.900          41.700
 128617356.842 6 100221453.57043  24475083.203                    24475088.762
        41.100          21.700
 115020042.980 8  89626067.64245  21887597.133                    21887600.648
        48.700          35.000
 127641561.507 7  99460986.77144  24289381.117                    24289385.695
        43.100          25.800
 107711718.305 8  83931257.83847  20496863.734                    20496867.586
        51.100          44.100
 127316971.315 7  99208071.21144  24227619.203                    24227625.273
        42.900          27.200
 116556757.274 7  90823511.83545  22180019.125                    22180025.633
        47.300          35.900
 123566484.224 7  96285603.07944  23513924.898                    23513928.336
        42.500          27.700
 16  9 14  0 43  0.0000000  0  9G28G13G30G20G05G15G17G24G18
 115681800.573 8  90141720.51346  22013516.172                    22013520.398
        48.000          37.100
 106977643.115 8  83359339.17346  20357184.523                    20357188.434
        50.000          41.600
 128685844.056 6 100274820.21043  24488115.242                    24488121.770
        36.700          20.600
 115048457.804 7  89648209.05645  21893003.875                    21893007.910
        47.600          34.500
 127723736.737 7  99525019.40244  24305017.961                    24305023.719
        42.200          25.300
 107660643.891 8  83891459.58647  20487144.984                    20487148.402
        49.800          44.700
 127209869.161 7  99124615.01044  24207238.430                    24207243.324
        42.600          27.400
 116449752.353 7  90740131.38946  22159656.945                    22159662.980
        46.600          36.100
 123483045.213 7  96220585.66544  23498046.836                    23498050.324
        42.700          27.700
 16  9 14  0 43 30.0000000  0  9G28G13G30G20G05G15G17G24G18
 115709774.500 7  90163518.36146  22018839.531                    22018843.133
        47.700          36.700
 106983027.136 8  83363534.50346  20358209.602                    20358213.137
        49.700          41.700
 128754370.984 5 100328217.73943  24501155.930                    24501162.762
        35.500          19.600
 115077364.062 7  89670733.40045  21898505.047                    21898508.469
        47.800          35.300
 127805966.077 7  99589094.18044  24320666.422                    24320671.441
        42.900          27.000
 107610046.202 8  83852032.81347  20477516.492                    20477520.406
        50.500          44.600
 127103012.059 7  99041349.78044  24186904.461                    24186909.215
        42.300          26.700
 116342986.000 7  90656936.85646  22139339.656                    22139346.164
        46.700          36.400
 123400039.605 7  96155905.96844  23482251.141                    23482254.984
        43.500          27.000
 16  9 14  0 44  0.0000000  0  9G28G13G30G20G05G15G17G24G18
 115738157.750 8  90185635.18246  22024240.695                    22024243.781
        48.500          36.500
 106988872.743 8  83368089.50346  20359322.023                    20359325.121
        49.000          41.500
 128822938.905 6 100381647.22243  24514203.750                    24514210.609
        36.700          20.900
 115106761.510 8  89693640.47145  21904098.781                    21904102.242
        48.300          34.400
 127888249.103 7  99653210.82544  24336324.492                    24336329.051
        43.500          26.600
 107559928.198 8  83812979.81447  20467979.195                    20467983.121
        49.500          44.600
 126996405.312 7  98958279.64244  24166616.922                    24166621.227
        42.500          28.300
 116236461.561 7  90573930.82446  22119068.875                    22119075.656
        45.500          36.900
 123317471.274 7  96091566.99044  23466539.367                    23466542.617
        43.200          27.200
 16  9 14  0 44 30.0000000  0  9G28G13G30G20G05G15G17G24G18
 115766952.202 8  90208072.43446  22029720.094                    22029723.473
        49.000          37.200
 106995183.557 8  83373007.01147  20360522.805                    20360526.469
        49.800          42.000
 128891550.814 6 100435111.01243  24527259.758                    24527267.020
        39.300          21.300
 115136652.230 8  89716931.92245  21909787.016                    21909789.980
        48.300          34.600
 127970587.039 6  99717370.24243  24351992.375                    24351997.355
        40.400          23.400
 107510295.063 8  83774304.64247  20458534.289                    20458538.273
        49.000          44.500
 126890055.740 6  98875409.89344  24146379.969                    24146384.184
        40.300          27.900
 116130183.492 7  90491116.76246  22098844.500                    22098851.535
        46.500          37.300
 123235345.937 7  96027573.22944  23450911.063                    23450914.352
        42.900          27.300
 16  9 14  0 45  0.0000000  0  9G28G13G30G20G05G15G17G24G18
 115796148.679 8  90230822.92846  22035275.914                    22035278.895
        49.400          36.200
 107001953.288 8  83378282.11746  20361811.023                    20361815.094
        50.300          41.800
 128960198.889 6 100488603.01243  24540322.977                    24540330.301
        39.200          22.300
 115167027.367 8  89740600.84545  21915567.375                    21915570.754
        48.700          34.400
 128052971.153 6  99781565.64643  24367669.750                    24367673.719
        39.700          21.800
 107461140.866 8  83736002.67047  20449180.664                    20449184.645
        50.200          44.500
 126783959.485 7  98792737.51444  24126190.461                    24126194.281
        42.400          27.700
 116024145.904 7  90408490.08646  22078666.297                    22078673.086
        46.900          36.300
 123153658.482 7  95963920.65944  23435367.359                    23435369.836
        43.100          26.000
 16  9 14  0 45 30.0000000  0  9G28G13G30G20G05G15G17G24G18
 115825749.602 8  90253888.60446  22040908.680                    22040911.980
        48.000          36.300
 107009185.448 8  83383917.55646  20363187.484                    20363191.023
        50.300          41.600
 129028886.466 6 100542125.74843  24553393.531                    24553401.320
        39.600          20.900
 115197888.166 8  89764648.20945  21921440.063                    21921443.977
        48.400          34.400
 128135402.411 7  99845797.78344  24383356.047                    24383360.262
        42.600          25.800
 107412471.138 8  83698078.20447  20439919.336                    20439923.031
        49.900          44.700
 126678123.374 7  98710267.85444  24106050.391                    24106054.648
        42.900          25.500
 115918353.680 7  90326054.60446  22058534.953                    22058541.371
        46.100          36.500
 123072414.885 7  95900613.94944  23419907.367                    23419909.391
        43.600          26.900
 16  9 14  0 46  0.0000000  0  9G28G13G30G20G05G15G17G24G18
 115855754.275 7  90277268.85746  22046618.313                    22046622.203
        47.000          36.600
 107016881.183 8  83389914.21347  20364651.914                    20364655.965
        50.000          42.500
 129097613.997 6 100595679.66743  24566471.992                    24566479.656
        38.500          20.100
 115229233.836 7  89789073.39945  21927404.711                    21927408.590
        45.400          34.800
 128217879.374 7  99910065.54044  24399051.680                    24399055.848
        43.100          26.600
 107364288.104 8  83660532.97447  20430750.242                    20430753.711
        50.700          44.700
 126572551.532 7  98628004.09544  24085960.523                    24085964.172
        42.100          26.000
 115812808.884 7  90243811.92246  22038450.445                    22038457.035
        47.600          37.000
 122991617.728 7  95837655.11544  23404531.336                    23404534.582
        43.100          26.200
 16  9 14  0 46 30.0000000  0  9G28G13G30G20G05G15G17G24G18
 115886159.997 8  90300961.63446  22052404.148                    22052408.531
        48.900          36.800
 107025039.658 8  83396271.44847  20366204.547                    20366208.348
        50.700          42.000
 129166379.741 6 100649263.31243  24579557.883                    24579565.277
        39.200          21.700
 115261061.412 8  89813874.09645  21933461.023                    21933465.203
        48.100          34.000
 128300398.962 7  99974366.51443  24414754.086                    24414758.383
        42.400          23.200
 107316591.794 8  83623367.02247  20421673.695                    20421677.746
        49.500          44.900
 126467246.387 6  98545948.17144  24065922.445                    24065925.434
        40.600          27.300
 115707511.706 7  90161762.19546  22018412.922                    22018419.102
        45.700          36.600
 122911267.550 7  95775044.57944  23389241.164                    23389244.539
        43.000          26.900
 16  9 14  0 47  0.0000000  0  9G28G13G30G20G05G15G17G24G18
 115916972.533 8  90324971.39046  22058268.125                    22058272.344
        49.400          36.900
 107033668.287 8  83402995.04446  20367846.523                    20367849.629
        50.000          41.600
 129235190.601 6 100702882.11343  24592653.016                    24592659.672
        40.700          22.000
 115293376.254 7  89839054.47345  21939610.391                    21939614.277
        47.000          33.600
 128382965.941 6 100038704.41643  24430465.398                    24430469.668
        41.000          22.600
 107269391.180 8  83586587.32447  20412692.016                    20412695.715
        49.300          44.300
 126362218.562 7  98464108.37744  24045935.797                    24045939.367
        42.200          25.800
 115602470.489 7  90079911.91146  21998423.898                    21998430.777
        46.500          36.300
 122831374.348 7  95712790.12144  23374038.586                    23374041.004
        43.500          27.400
 16  9 14  0 47 30.0000000  0  9G28G13G30G20G05G15G17G24G18
 115948184.919 8  90349292.71946  22064207.945                    22064211.785
        50.200          37.500
 107042762.242 8  83410081.23746  20369576.680                    20369580.777
        50.000          41.600
 129304040.836 6 100756531.58444  24605755.016                    24605762.117
        41.800          26.000
 115326171.234 7  89864608.97945  21945850.703                    21945855.047
        47.900          34.100
 128465573.656 6 100103074.02143  24446185.289                    24446190.160
        41.800          22.900
 107222682.580 8  83550191.00447  20403803.508                    20403807.293
        49.800          44.200
 126257465.501 7  98382482.63544  24026001.391                    24026005.047
        42.200          26.800
 115497681.508 7  89998258.18746  21978483.320                    21978490.172
        46.700          36.100
 122751934.837 7  95650889.19744  23358921.805                    23358924.145
        43.600          27.700
 16  9 14  0 48  0.0000000  0  9G28G13G30G20G05G15G17G24G18
 115979794.216 7  90373923.35446  22070222.750                    22070226.383
        46.900          36.900
 107052320.279 8  83417529.03646  20371395.516                    20371399.480
        50.300          41.200
 129372928.635 7 100810210.37044  24618863.727                    24618870.965
        42.000          24.500
 115359442.881 7  89890534.92245  21952182.898                    21952186.766
        44.500          34.100
 128548218.226 7 100167472.38544  24461912.195                    24461917.422
        43.500          25.600
 107176466.076 8  83514178.14347  20395008.867                    20395012.766
        50.500          45.100
 126152990.154 7  98301073.29144  24006120.906                    24006125.203
        42.000          28.300
 115393144.318 7  89916800.65246  21958590.273                    21958597.426
        46.000          36.500
 122672949.660 7  95589342.29244  23343891.211                    23343894.395
        43.100          26.900
 16  9 14  0 48 30.0000000  0  9G28G13G30G20G05G15G17G24G18
 116011802.174 8  90398864.61546  22076313.602                    22076317.410
        49.100          36.600
 107062345.862 8  83425341.16146  20373303.102                    20373307.117
        50.300          41.700
 129441856.915 6 100863920.63243  24631979.727                    24631987.648
        40.800          22.600
 115393192.751 8  89916833.50445  21958605.492                    21958609.039
        48.600          34.300
 128630900.323 7 100231900.01544  24477645.922                    24477652.039
        42.500          25.800
 107130746.229 8  83478552.28047  20386308.938                    20386312.684
        50.800          44.900
 126048798.259 7  98219884.82944  23986293.953                    23986297.832
        43.200          27.800
 115288863.671 7  89835543.01645  21938746.469                    21938753.117
        46.900          35.700
 122594423.817 7  95528153.32144  23328948.227                    23328951.238
        42.500          27.300
 16  9 14  0 49  0.0000000  0  9G28G13G30G20G05G15G17G24G18
 116044198.725 7  90424108.68445  22082478.180                    22082481.602
        47.800          35.500
 107072830.960 8  83433511.35446  20375298.750                    20375302.258
        49.400          41.500
 129510816.952 6 100917655.69743  24645102.250                    24645109.895
        40.200          22.000
 115427410.651 7  89943496.78645  21965116.797                    21965120.445
        47.000          33.900
 128713610.132 6 100296349.13744  24493385.188                    24493390.520
        41.100          24.100
 107085516.198 8  83443308.10447  20377701.742                    20377705.645
        50.800          44.700
 125944885.534 7  98138913.89444  23966520.055                    23966524.324
        43.600          28.700
 115184832.388 7  89754479.70046  21918949.789                    21918956.531
        46.400          36.400
 122516351.178 7  95467317.50944  23314091.641                    23314094.203
        42.200          25.500
 16  9 14  0 49 30.0000000  0  9G28G13G30G20G05G15G17G24G18
 116076986.367 7  90449657.51245  22088717.031                    22088720.574
        47.300          34.800
 107083779.997 8  83442043.06346  20377382.289                    20377385.496
        49.600          41.700
 129579812.369 6 100971418.32243  24658232.820                    24658239.492
        40.900          22.000
 115462098.461 7  89970526.22045  21971717.406                    21971721.461
        46.800          33.700
 128796349.158 7 100360821.09744  24509130.148                    24509134.871
        44.000          24.900
 107040781.631 8  83408450.00347  20369189.070                    20369192.922
        50.500          44.600
 125841259.034 7  98058166.01544  23946800.313                    23946804.324
        43.700          26.900
 115081055.578 7  89673614.66546  21899201.984                    21899208.805
        46.400          36.600
 122438738.218 6  95406839.88744  23299322.719                    23299325.355
        41.700          27.200
 16  9 14  0 50  0.0000000  0  9G28G13G30G20G05G15G17G24G18
 116110168.698 7  90475513.86845  22095031.672                    22095034.965
        45.400          34.700
 107095197.811 8  83450940.04546  20379554.828                    20379558.262
        50.000          41.300
 129648847.749 6 101025212.08343  24671369.555                    24671376.836
        41.100          22.500
 115497259.251 7  89997924.22345  21978407.758                    21978411.977
        44.100          32.500
 128879120.682 7 100425318.38343  24524881.563                    24524885.809
        43.600          22.900
 106996548.989 8  83373982.99847  20360771.789                    20360775.754
        50.200          44.600
 125737926.899 7  97977647.50944  23927136.297                    23927140.758
        42.500          25.600
 114977539.716 7  89592952.97646  21879503.867                    21879510.379
        47.000          37.000
 122361591.310 7  95346725.40444  23284640.883                    23284644.746
        42.600          26.800
 16  9 14  0 50 30.0000000  0 10G28G13G30G20G05G19G15G17G24G18
 116143736.939 7  90501670.95445  22101419.672                    22101422.746
        45.900          35.000
 107107077.612 8  83460197.03146  20381815.563                    20381819.297
        50.800          41.700
 129717915.658 6 101079031.16843  24684512.680                    24684520.121
        39.200          22.500
 115532884.149 7  90025683.85045  21985187.773                    21985191.406
        45.000          32.700
 128961915.396 7 100489833.74544  24540636.516                    24540640.660
        44.600          24.200
 130265577.040 6 101505700.76243  24788726.430                    24788728.910
        41.700          20.600
 106952812.429 8  83339902.55947  20352449.266                    20352452.699
        51.600          44.600
 125634885.484 7  97897355.55444  23907527.938                    23907532.031
        43.000          26.300
 114874278.914 7  89512490.03646  21859853.813                    21859860.574
        47.100          36.900
 122284905.304 7  95286970.08144  23270048.828                    23270051.684
        42.400          25.300
 16  9 14  0 51  0.0000000  0 10G28G13G30G20G05G19G15G17G24G18
 116177686.552 8  90528125.20045  22107880.422                    22107883.887
        49.300          35.600
 107119416.830 8  83469811.99547  20384164.109                    20384167.836
        50.800          42.300
 129787012.735 6 101132873.01843  24697661.391                    24697668.398
        40.500          20.900
 115568968.080 7  90053801.19445  21992053.867                    21992057.969
        47.600          33.900
 129044727.554 7 100554362.73743  24556394.977                    24556399.133
        43.700          23.000
 130132112.051 6 101401702.06343  24763328.391                    24763331.434
        37.800          20.900
 106909570.378 8  83306207.44947  20344220.531                    20344224.203
        51.200          44.500
 125532135.159 7  97817290.39644  23887975.898                    23887979.680
        43.600          26.400
 114771271.527 7  89432224.55646  21840251.422                    21840258.605
        46.100          36.200
 122208679.831 7  95227573.61044  23255543.164                    23255546.121
        42.300          27.800
 16  9 14  0 51 30.0000000  0 10G28G13G30G20G05G19G15G17G24G18
 116212016.610 7  90554875.88945  22114412.711                    22114416.363
        46.000          35.700
 107132216.047 8  83479785.39247  20386599.461                    20386603.395
        50.900          42.200
 129856139.216 6 101186737.80243  24710815.617                    24710822.324
        41.300          21.100
 115605509.831 7  90082275.24945  21999008.031                    21999011.793
        44.300          33.100
 129127556.387 7 100618904.66343  24572156.391                    24572161.316
        42.700          22.000
 129998713.282 5 101297755.02843  24737943.422                    24737946.973
        34.400          20.400
 106866825.104 8  83272899.44247  20336086.164                    20336089.754
        50.200          44.700
 125429679.274 7  97737454.65544  23868479.664                    23868483.125
        43.100          27.300
 114668519.538 7  89352158.08146  21820698.859                    21820705.949
        46.500          36.600
 122132917.113 7  95168537.72344  23241126.453                    23241129.422
        43.100          27.500
 16  9 14  0 52  0.0000000  0 10G28G13G30G20G05G19G15G17G24G18
 116246720.527 8  90581917.90545  22121016.633                    22121020.449
        48.600          34.600
 107145470.718 8  83490113.70347  20389121.797                    20389125.680
        50.900          42.000
 129925290.010 6 101240621.50843  24723974.563                    24723981.625
        41.400          22.600
 115642502.450 7  90111100.65545  22006047.227                    22006051.230
        47.500          33.700
 129210394.747 7 100683454.01343  24587920.289                    24587925.176
        42.900          23.600
 129865379.578 6 101193858.71143  24712571.883                    24712575.105
        38.900          22.800
 106824573.065 8  83239975.76747  20328046.070                    20328049.480
        49.900          44.700
 125327517.413 7  97657848.02144  23849039.070                    23849043.039
        43.100          28.300
 114566019.165 7  89272287.67946  21801193.820                    21801200.344
        46.000          36.100
 122057614.508 7  95109860.35744  23226796.688                    23226799.586
        42.000          27.200
 16  9 14  0 52 30.0000000  0  9G28G13G20G05G19G15G17G24G18
 116281803.271 7  90609255.10645  22127692.625                    22127695.402
        47.900          35.000
 107159187.377 8  83500801.99046  20391732.094                    20391735.934
        49.900          41.600
 115679950.532 7  90140280.96345  22013173.414                    22013177.305
        47.900          34.600
 129293247.734 7 100748014.76144  24603687.141                    24603692.043
        42.300          25.500
 129732121.271 6 101090021.09743  24687212.984                    24687216.375
        40.100          21.800
 106782822.385 8  83207442.77047  20320101.047                    20320104.637
        50.800          44.700
 125225659.301 7  97578478.09544  23829655.375                    23829660.219
        43.200          28.100
 114463778.145 7  89192619.37646  21781737.711                    21781744.934
        46.300          36.500
 121982780.448 7  95051548.10244  23212556.109                    23212559.590
        43.600          28.300
 16  9 14  0 53  0.0000000  0  9G28G13G20G05G19G15G17G24G18
 116317261.989 7  90636885.28245  22134440.664                    22134443.145
        47.900          33.600
 107173365.063 8  83511849.52946  20394429.555                    20394433.547
        50.700          41.200
 115717851.091 7  90169813.85845  22020385.531                    22020389.344
        47.600          34.700
 129376111.623 6 100812584.03843  24619455.430                    24619460.219
        41.100          22.300
 129598941.014 6 100986244.20443  24661869.156                    24661871.617
        37.800          18.300
 106741572.800 8  83175300.24347  20312251.391                    20312255.168
        50.300          44.700
 125124106.212 7  97499345.86244  23810330.016                    23810335.320
        43.100          28.500
 114361796.511 7  89113153.18446  21762331.492                    21762337.973
        46.100          36.500
 121908415.434 7  94993601.34744  23198404.969                    23198408.449
        43.800          28.200
 16  9 14  0 53 30.0000000  0  9G28G13G20G05G19G15G17G24G18
 116353093.810 8  90664806.18945  22141259.344                    22141261.715
        48.800          34.700
 107188002.644 8  83523255.41946  20397215.109                    20397219.230
        50.500          41.400
 115756200.076 7  90199696.16245  22027683.156                    22027687.512
        47.800          33.500
 129458982.604 6 100877158.82143  24635225.164                    24635229.727
        39.200          22.200
 129465841.037 5 100882529.96042  24636539.492                    24636543.020
        33.800          17.800
 106700824.589 8  83143548.37447  20304497.617                    20304501.051
        51.700          45.100
 125022860.404 7  97420453.07644  23791063.258                    23791069.074
        43.200          28.900
 114260074.407 7  89033889.23146  21742973.992                    21742980.828
        44.400          37.300
 121834519.971 7  94936020.45644  23184343.195                    23184346.891
        43.900          29.000
 16  9 14  0 54  0.0000000  0  9G28G13G20G05G19G15G17G24G18
 116389304.501 8  90693022.31845  22148149.852                    22148152.605
        49.000          34.900
 107203107.249 8  83535025.23946  20400089.711                    20400093.605
        50.500          41.700
 115795003.036 8  90229932.22945  22035066.844                    22035070.930
        48.000          33.200
 129541866.343 6 100941743.54343  24650997.438                    24651002.926
        40.600          22.800
 129332832.718 6 100778887.18743  24611230.930                    24611234.246
        38.000          22.000
 106660586.267 8  83112193.82947  20296840.406                    20296844.031
        51.400          45.300
 124921932.469 7  97341807.96044  23771858.539                    23771862.828
        42.100          29.200
 114158620.543 7  88954834.29346  21723668.820                    21723675.188
        44.300          37.200
 121761103.521 7  94878812.81944  23170372.469                    23170375.887
        42.800          28.700
 16  9 14  0 54 30.0000000  0  9G28G13G20G05G19G15G17G24G18
 116425884.757 8  90721526.42745  22155110.594                    22155113.488
        49.100          35.000
 107218671.853 8  83547153.49246  20403051.305                    20403055.223
        50.200          41.400
 115834250.629 7  90260514.73945  22042536.117                    22042539.738
        46.200          33.500
 129624753.214 6 101006330.68044  24666770.594                    24666775.633
        40.000          24.800
 129199912.272 6 100675312.80444  24585936.438                    24585940.367
        39.700          25.100
 106620851.767 8  83081231.87947  20289279.445                    20289282.684
        50.000          45.100
 124821318.223 7  97263407.26144  23752712.000                    23752716.641
        42.300          28.500
 114057428.155 7  88875983.09846  21704412.141                    21704418.762
        44.800          36.700
 121688160.604 7  94821974.19044  23156492.414                    23156495.031
        42.400          28.600
 16  9 14  0 55  0.0000000  0  9G28G13G20G05G19G15G17G24G18
 116462834.789 8  90750318.67745  22162141.852                    22162145.223
        49.200          34.700
 107234698.124 8  83559641.48046  20406101.625                    20406104.648
        50.100          40.900
 115873942.082 7  90291443.13345  22050088.383                    22050092.754
        47.800          33.600
 129707641.984 6 101070919.32043  24682543.602                    24682548.609
        40.700          23.000
 129067084.985 6 100571811.04043  24560660.719                    24560664.484
        37.500          22.600
 106581623.952 8  83050664.75047  20281814.414                    20281817.609
        50.900          45.400
 124721022.869 6  97185255.04644  23733625.570                    23733631.137
        41.400          28.300
 113956500.346 7  88797338.07646  21685206.656                    21685212.453
        45.200          37.300
 121615694.421 7  94765507.03644  23142702.711                    23142705.355
        43.300          27.200
 16  9 14  0 55 30.0000000  0  9G28G13G20G05G19G15G17G24G18
 116500143.697 7  90779390.54345  22169241.672                    22169245.781
        47.400          35.800
 107251177.234 8  83572482.33746  20409237.570                    20409240.738
        50.500          41.600
 115914066.915 7  90322709.22845  22057724.273                    22057728.398
        45.000          33.100
 129790523.084 6 101135501.99643  24698314.391                    24698318.867
        39.400          19.900
 128934346.269 6 100468378.34543  24535399.906                    24535404.734
        36.300          19.300
 106542895.490 8  83020486.71947  20274444.547                    20274447.840
        50.400          45.000
 124621040.326 6  97107346.60644  23714599.242                    23714605.082
        40.900          27.200
 113855830.056 7  88718893.70346  21666049.258                    21666055.781
        45.800          36.900
 121543698.315 7  94709406.16944  23129002.023                    23129004.828
        42.700          27.900
 16  9 14  0 56  0.0000000  0  9G28G13G20G05G19G15G17G24G18
 116537817.468 8  90808746.70845  22176411.063                    22176414.441
        48.600          35.000
 107268116.015 8  83585681.37146  20412459.977                    20412463.848
        50.400          41.100
 115954629.575 8  90354316.46145  22065442.750                    22065446.984
        48.300          33.600
 129873400.820 6 101200082.10043  24714085.609                    24714089.863
        39.700          20.100
 128801706.493 6 100365022.61643  24510160.297                    24510163.184
        39.100          19.000
 106504674.421 8  82990704.06347  20267171.102                    20267174.871
        50.500          44.600
 124521380.906 6  97029689.93844  23695634.367                    23695640.754
        40.700          27.900
 113755424.367 7  88640655.52646  21646942.539                    21646948.918
        44.300          37.100
 121472180.600 7  94653678.09144  23115392.734                    23115395.434
        43.000          28.000
 16  9 14  0 56 30.0000000  0  9G28G13G20G05G19G15G17G24G18
 116575853.724 8  90838385.35545  22183648.797                    22183652.344
        49.400          35.500
 107285514.116 8  83599238.32446  20415771.086                    20415774.934
        50.400          41.200
 115995627.837 8  90386263.14945  22073244.930                    22073248.652
        48.100          33.800
 129956272.876 6 101264657.72244  24729856.164                    24729861.766
        40.500          24.300
 128669169.246 6 100261746.85143  24484939.734                    24484942.301
        41.300          23.900
 106466961.259 8  82961317.18147  20259994.711                    20259998.348
        50.500          44.500
 124422047.764 7  96952287.52144  23676732.852                    23676738.129
        42.100          28.300
 113655285.093 7  88562624.93446  21627886.602                    21627893.059
        44.800          37.000
 121401143.104 6  94598324.20144  23101874.391                    23101877.785
        41.600          27.700
 16  9 14  0 57  0.0000000  0  9G28G13G20G05G19G15G17G24G18
 118189668.914 8  92095903.68745  22490747.492                    22490751.277
        49.500          34.900
 108878790.750 8  84840752.57746  20718961.188                    20718965.547
        51.200          41.000
 117612477.541 8  91646146.00945  22380921.203                    22380924.984
        48.200          33.200
 131614553.842 6 102556824.68344  25045416.648                    25045421.996
        40.900          25.500
 130112162.368 6 101386157.09244  24759532.898                    24759535.727
        41.000          26.500
 108005178.903 8  84159928.33047  20552707.789                    20552711.281
        49.700          44.800
 125898466.907 7  98102744.01844  23957686.336                    23957690.914
        42.700          29.600
 115130836.120 7  89712404.97346  21908674.641                    21908681.254
        45.500          37.300
 122906009.445 6  95770947.33244  23388240.742                    23388244.273
        41.800          28.500
 16  9 14  0 57 30.0000000  0  9G28G13G20G05G19G15G17G24G18
 118228426.796 8  92126104.64645  22498123.148                    22498126.609
        49.600          35.500
 108897109.646 8  84855027.02447  20722447.477                    20722451.883
        49.900          42.000
 117654341.861 8  91678767.54645  22388887.820                    22388891.465
        48.000          33.300
 131697409.899 6 102621387.80943  25061182.695                    25061188.898
        39.100          22.300
 129979843.474 6 101283051.48743  24734353.117                    24734356.758
        39.600          23.900
 107968488.384 8  84131338.32047  20545725.414                    20545729.543
        50.000          44.300
 125799797.579 6  98025858.85044  23938909.844                    23938914.844
        41.800          28.700
 115031234.477 7  89634793.31946  21889721.031                    21889727.484
        46.000          37.500
 122835939.161 7  95716347.11744  23374907.266                    23374910.098
        42.300          27.700
 16  9 14  0 58  0.0000000  0  9G28G13G20G05G19G15G17G24G18
 118267538.257 8  92156581.10245  22505565.648                    22505569.762
        48.100          35.200
 108915884.501 8  84869656.77446  20726020.063                    20726024.344
        49.600          41.000
 117696631.467 8  91711720.46145  22396935.250                    22396939.020
        48.400          33.200
 131780250.001 6 102685938.51043  25076947.703                    25076952.477
        37.600          22.200
 129847634.686 6 101180031.72343  24709193.758                    24709197.871
        38.500          23.400
 107932306.121 8  84103144.34647  20538840.516                    20538844.730
        50.500          44.900
 125701460.042 6  97949232.22944  23920197.078                    23920201.473
        40.200          26.900
 114931898.858 7  89557388.95646  21870818.461                    21870824.867
        45.900          37.400
 122766350.362 7  95662122.06944  23361664.031                    23361668.027
        43.800          28.000
 16  9 14  0 58 30.0000000  0  9G28G13G20G05G19G15G17G24G18
 118307002.210 8  92187332.22945  22513075.133                    22513078.512
        48.500          34.700
 108935115.251 8  84884641.75346  20729679.523                    20729683.965
        49.800          41.100
 117739344.438 8  91745003.28045  22405063.367                    22405067.035
        48.100          33.800
 131863072.388 6 102750475.42943  25092708.242                    25092712.313
        38.400          20.100
 129715540.246 6 101077101.02143  24684056.891                    24684061.227
        40.200          21.700
 107896633.598 8  84075347.57747  20532052.219                    20532056.109
        50.400          44.900
 125603457.595 6  97872866.72244  23901547.547                    23901551.848
        41.900          28.300
 114832830.672 7  89480192.97946  21851966.313                    21851972.496
        47.100          37.600
 122697245.293 7  95608273.96944  23348513.945                    23348517.125
        44.300          28.600
 16  9 14  0 59  0.0000000  0 10G28G13G10G20G05G19G15G17G24G18
 118346812.395 8  92218353.15045  22520651.094                    22520654.523
        48.400          35.200
 108954797.424 8  84899978.49546  20733425.414                    20733429.227
        49.500          41.300
 131813751.795 7 102712058.90244  25083328.945                    25083334.711
        43.300          26.400
 117782474.206 8  91778610.87545  22413270.484                    22413274.652
        48.300          33.400
 131945870.973 6 102814993.90643  25108464.641                    25108468.172
        40.300          22.300
 129583559.666 6 100974258.92843  24658942.648                    24658944.910
        41.800          22.600
 107861467.438 8  84047945.37747  20525360.391                    20525364.098
        50.200          44.500
 125505789.519 6  97796761.74344  23882961.922                    23882966.895
        41.100          28.800
 114734026.520 7  89403202.75046  21833164.313                    21833170.535
        46.300          37.400
 122628621.611 7  95554800.97344  23335455.250                    23335458.777
        43.500          29.100
 16  9 14  0 59 30.0000000  0 10G28G13G10G20G05G19G15G17G24G18
 118386966.273 7  92249641.88645  22528292.086                    22528295.879
        47.600          35.500
 108974930.587 8  84915666.66746  20737256.305                    20737260.309
        49.900          41.600
 131699566.457 7 102623083.32444  25061600.117                    25061605.773
        43.400          27.000
 117826018.044 7  91812541.13745  22421556.578                    22421560.777
        46.500          33.400
 132028643.354 6 102879491.87843  25124215.055                    25124220.336
        38.800          22.800
 129451696.036 6 100871508.02343  24633850.250                    24633852.656
        41.000          23.900
 107826808.313 8  84020938.25947  20518765.094                    20518768.891
        50.200          44.800
 125408458.556 6  97720919.45445  23864440.297                    23864445.500
        41.500          30.300
 114635487.745 7  89326419.29946  21814413.336                    21814419.754
        47.000          38.000
 122560479.985 7  95501703.59544  23322488.609                    23322491.504
        44.300          29.200
                            4  1
RINEX FILE SPLICE; other post-header comments skipped       COMMENT
 16  9 14  1  0  0.0000000  0 10G28G13G10G20G05G19G15G17G24G18
 118427462.609 8  92281197.47445  22535998.570                    22536001.820
        48.900          35.100
 108995514.689 8  84931706.20746  20741173.594                    20741177.371
        50.300          41.300
 131585731.251 7 102534380.55844  25039937.797                    25039943.902
        43.600          27.100
 117869973.721 8  91846792.28745  22429921.578                    22429925.055
        48.100          33.600
 132111387.267 6 102943967.55943  25139961.094                    25139965.949
        36.600          21.700
 129319953.293 6 100768851.35644  24608779.789                    24608784.105
        40.300          25.800
 107792657.669 8  83994327.36347  20512266.281                    20512269.930
        51.300          44.400
 125311467.336 7  97645341.90245  23845983.813                    23845989.176
        43.200          30.400
 114537214.887 8  89249843.06246  21795712.734                    21795719.211
        48.000          38.300
 122492822.221 7  95448983.25744  23309614.102                    23309617.234
        44.000          29.300
 16  9 14  1  0 30.0000000  0 10G28G13G10G20G05G19G15G17G24G18
 118468304.593 8  92313022.39045  22543770.414                    22543773.527
        48.700          34.600
 109016554.424 8  84948100.79846  20745177.094                    20745180.762
        49.900          40.800
 131472254.109 7 102445956.83244  25018343.625                    25018350.090
        43.300          26.500
 117914343.583 8  91881366.18445  22438364.641                    22438368.133
        48.400          32.800
 132194105.536 6 103008423.27143  25155702.109                    25155706.969
        38.400          22.800
 129188340.487 6 100666295.95944  24583733.555                    24583738.648
        36.600          24.700
 107759021.548 8  83968117.39847  20505865.430                    20505868.926
        51.300          45.200
 125214824.254 6  97570035.61645  23827593.195                    23827598.438
        41.600          30.400
 114439214.415 7  89173479.07146  21777063.469                    21777069.918
        46.600          37.800
 122425654.765 7  95396644.97944  23296832.250                    23296835.086
        43.900          29.400
 16  9 14  1  1  0.0000000  0  9G28G13G10G20G19G15G17G24G18
 118509488.463 7  92345113.72945  22551607.148                    22551610.414
        47.400          34.700
 109038047.899 8  84964848.95646  20749267.141                    20749271.496
        50.000          41.500
 131359136.053 7 102357812.87044  24996818.313                    24996824.688
        44.100          25.300
 117959123.906 7  91916259.92445  22446886.305                    22446889.594
        47.800          33.200
 129056859.282 6 100563843.18544  24558713.555                    24558718.488
        39.300          25.800
 107725898.875 8  83942307.51547  20499562.492                    20499566.508
        50.900          44.700
 125118530.392 7  97495001.44844  23809269.172                    23809273.605
        42.000          29.900
 114341485.695 8  89097326.83946  21758466.547                    21758472.477
        48.100          38.300
 122358977.537 7  95344688.70244  23284144.438                    23284147.707
        43.300          29.800
 16  9 14  1  1 30.0000000  0  9G28G13G10G20G19G15G17G24G18
 118551006.044 8  92377465.07745  22559507.750                    22559511.266
        48.400          34.100
 109059988.767 8  84981945.72646  20753442.484                    20753446.234
        50.100          41.100
 131246373.871 7 102269946.22244  24975360.570                    24975366.094
        43.200          27.500
 118004305.813 8  91951466.58845  22455483.961                    22455487.836
        48.200          32.600
 128925507.084 6 100461490.84143  24533718.961                    24533722.449
        41.700          22.800
 107693284.639 8  83916893.81647  20493356.219                    20493359.785
        51.000          44.700
 125022582.650 7  97420237.00344  23791010.438                    23791015.188
        42.300          28.500
 114244023.157 8  89021382.01946  21739919.805                    21739926.500
        48.100          38.800
 122292785.787 7  95293110.71545  23271548.219                    23271551.512
        43.500          30.600
 16  9 14  1  2  0.0000000  0  9G28G13G10G20G19G15G17G24G18
 118592860.568 8  92410078.97745  22567472.859                    22567476.168
        48.800          34.800
 109082381.541 8  84999394.61846  20757703.578                    20757707.797
        50.000          40.600
 131133975.291 7 102182362.92044  24953971.469                    24953977.992
        43.100          27.100
 118049891.910 7  91986988.20745  22464158.133                    22464161.996
        47.900          32.400
 128794292.715 6 100359245.82743  24508749.563                    24508752.855
        41.500          22.000
 107661184.574 8  83891880.78047  20487248.063                    20487251.137
        51.500          44.700
 124926988.895 7  97345748.40144  23772819.258                    23772824.805
        42.600          29.100
 114146832.976 8  88945649.42846  21721424.875                    21721431.320
        48.300          38.400
 122227085.609 7  95241915.77844  23259046.211                    23259049.203
        43.900          29.300
 16  9 14  1  2 30.0000000  0  9G28G13G10G20G19G15G17G24G18
 118635050.705 8  92442954.40045  22575501.719                    22575504.902
        49.300          35.200
 109105226.462 8  85017195.83346  20762050.875                    20762055.027
        50.100          40.200
 131021943.715 7 102095065.57344  24932652.953                    24932658.793
        43.500          27.600
 118095880.173 8  92022823.20245  22472910.227                    22472913.363
        48.000          32.400
 128663219.986 6 100257111.17743  24483806.859                    24483810.137
        38.900          21.300
 107629599.853 8  83867269.31047  20481237.391                    20481241.289
        50.200          45.100
 124831752.015 7  97271537.88244  23754696.398                    23754701.512
        42.600          29.800
 114049916.737 8  88870130.28946  21702982.414                    21702988.809
        49.200          38.300
 122161879.488 7  95191105.80745  23246637.586                    23246641.086
        43.300          30.000
 16  9 14  1  3  0.0000000  0  9G28G13G10G20G19G15G17G24G18
 118677575.189 8  92476090.37445  22583593.047                    22583596.230
        49.500          34.900
 109128524.049 8  85035349.78046  20766484.477                    20766488.543
        50.700          41.100
 130910282.726 7 102008057.00044  24911404.211                    24911410.590
        43.200          27.500
 118142269.028 7  92058970.33045  22481737.500                    22481741.629
        47.300          32.300
 128532293.784 6 100155090.82143  24458892.664                    24458895.406
        40.600          22.000
 107598532.424 8  83843060.90747  20475325.625                    20475329.234
        51.300          44.900
 124736876.560 7  97197608.99145  23736642.828                    23736647.527
        43.500          30.400
 113953276.199 8  88794825.98846  21684592.305                    21684598.676
        48.700          38.200
 122097169.277 7  95140682.27145  23234323.758                    23234326.770
        43.600          30.700
 16  9 14  1  3 30.0000000  0  9G28G13G10G20G19G15G17G24G18
 118720430.375 8  92509484.02845  22591748.336                    22591751.461
        49.100          34.000
 109152271.927 8  85053854.60546  20771003.641                    20771007.313
        50.200          41.800
 130798993.431 7 101921338.07144  24890226.430                    24890232.348
        42.600          27.200
 118189054.258 8  92095426.33345  22490640.430                    22490644.254
        48.100          32.000
 128401515.760 7 100053185.89444  24434006.938                    24434009.809
        42.800          26.400
 107567981.188 8  83819254.74647  20469511.984                    20469515.449
        52.500          44.800
 124642363.401 7  97123962.40744  23718657.445                    23718661.824
        43.200          29.900
 113856910.253 8  88719735.65946  21666254.539                    21666261.402
        48.700          38.000
 122032954.744 7  95090644.97445  23222104.438                    23222107.422
        42.700          30.400
 16  9 14  1  4  0.0000000  0  9G28G13G10G20G19G15G17G24G18
 118763613.706 7  92543133.36345  22599965.820                    22599968.797
        47.900          34.000
 109176469.187 8  85072709.59346  20775608.039                    20775611.773
        50.200          41.300
 130688077.772 7 101834910.28944  24869120.125                    24869125.719
        42.300          26.800
 118236232.528 7  92132188.61445  22499618.016                    22499621.449
        47.000          32.000
 128270889.049 7  99951398.90344  24409149.320                    24409153.488
        44.200          28.400
 107537946.448 8  83795851.05347  20463796.148                    20463800.094
        50.400          45.100
 124548214.640 7  97050599.77244  23700741.844                    23700745.410
        43.500          29.800
 113760819.688 8  88644859.90846  21647969.469                    21647976.078
        48.800          38.700
 121969236.166 7  95040994.13844  23209978.766                    23209982.199
        43.600          29.200
 16  9 14  1  4 30.0000000  0  9G28G13G10G20G19G15G17G24G18
 118807119.729 8  92577034.17345  22608244.516                    22608247.094
        48.200          33.100
 109201112.021 8  85091911.78446  20780297.641                    20780301.164
        50.000          41.200
 130577535.057 7 101748773.10444  24848084.047                    24848090.434
        42.600          27.200
 118283797.687 7  92169252.35345  22508669.578                    22508673.215
        47.800          32.300
 128140413.604 7  99849729.71544  24384320.945                    24384324.473
        43.800          25.300
 107508425.366 8  83772847.61047  20458178.586                    20458182.363
        50.100          44.300
 124454429.393 7  96977520.38845  23682894.586                    23682898.906
        44.000          30.000
 113665001.631 8  88570196.49246  21629735.172                    21629742.137
        48.900          39.000
 121906011.756 7  94991728.35645  23197947.336                    23197950.988
        43.400          30.000
 16  9 14  1  5  0.0000000  0  9G28G13G10G20G19G15G17G24G18
 118850949.126 7  92611186.95845  22616585.016                    22616588.184
        47.800          33.600
 109226202.433 8  85111462.75246  20785072.086                    20785075.902
        50.000          40.400
 130467370.841 7 101662930.85844  24827120.469                    24827126.941
        43.100          26.500
 118331750.002 7  92206617.77745  22517794.617                    22517798.582
        47.500          32.400
 128010095.832 7  99748183.42443  24359522.477                    24359524.813
        42.600          23.900
 107479421.349 8  83750247.06747  20452659.477                    20452663.465
        50.400          44.700
 124361013.379 7  96904728.71144  23665118.195                    23665122.465
        42.800          29.600
 113569460.154 8  88495748.59446  21611554.672                    21611561.406
        49.600          39.400
 121843285.280 7  94942850.59144  23186011.227                    23186014.547
        43.900          29.800
 16  9 14  1  5 30.0000000  0  9G28G13G10G20G19G15G17G24G18
 118895105.412 8  92645594.45145  22624987.953                    22624992.012
        48.100          34.000
 109251745.558 8  85131366.47546  20789932.938                    20789936.414
        50.500          40.900
 130357593.189 7 101577389.82744  24806231.383                    24806237.297
        42.100          27.500
 118380092.367 7  92244287.14645  22526993.656                    22526997.859
        47.700          32.200
 127879944.945 7  99646767.13943  24334755.227                    24334757.895
        42.500          22.500
 107450940.883 8  83728054.49547  20447239.828                    20447243.523
        50.900          44.600
 124267974.511 7  96832230.90445  23647413.563                    23647417.945
        44.100          30.200
 113474201.418 8  88421521.01446  21593427.719                    21593434.059
        49.100          39.700
 121781063.419 7  94894366.02744  23174170.414                    23174174.016
        43.700          28.900
 16  9 14  1  6  0.0000000  0  9G28G13G10G20G19G15G17G24G18
 118939578.524 8  92680248.81345  22633450.641                    22633454.988
        48.500          34.500
 109277733.161 8  85151616.53846  20794877.680                    20794882.047
        49.800          40.500
 130248197.103 6 101492146.14444  24785413.734                    24785419.730
        41.800          25.900
 118428814.326 7  92282252.27945  22536265.305                    22536269.305
        47.400          32.000
 127749956.591 7  99545477.52444  24310019.344                    24310022.398
        43.500          25.700
 107422976.646 8  83706264.18147  20441918.469                    20441922.414
        50.700          44.600
 124175308.302 7  96760023.48145  23629779.711                    23629784.172
        43.400          30.800
 113379218.318 8  88347508.22346  21575352.453                    21575359.516
        49.100          38.400
 121719339.808 7  94846269.71744  23162424.992                    23162428.492
        43.000          29.200
 16  9 14  1  6 30.0000000  0  9G28G13G10G20G19G15G17G24G18
 118984368.856 7  92715150.36045  22641973.547                    22641978.063
        47.800          34.400
 109304166.793 8  85172214.16346  20799908.141                    20799911.895
        49.800          41.100
 130139187.382 6 101407203.49644  24764669.539                    24764675.773
        41.800          26.200
 118477915.418 7  92320512.84945  22545609.227                    22545613.188
        47.000          31.200
 127620136.567 7  99444319.10344  24285315.234                    24285318.441
        44.100          26.400
 107395531.499 8  83684878.35147  20436695.547                    20436699.664
        50.200          44.600
 124083019.533 7  96688110.17444  23612217.477                    23612222.215
        43.200          29.900
 113284514.139 8  88273712.77046  21557330.969                    21557337.695
        48.800          39.400
 121658117.550 7  94798564.06045  23150774.883                    23150777.875
        43.800          30.400
 16  9 14  1  7  0.0000000  0  9G28G13G10G20G19G15G17G24G18
 119029473.090 7  92750296.48645  22650557.352                    22650560.930
        47.200          33.500
 109331044.592 8  85193157.88246  20805023.203                    20805027.387
        49.800          41.400
 130030565.203 6 101322562.85744  24743999.773                    24744006.164
        41.100          26.200
 118527391.514 7  92359065.63745  22555024.156                    22555027.359
        47.200          30.700
 127490487.022 7  99343293.49244  24260643.867                    24260646.758
        43.900          28.100
 107368604.846 8  83663896.52847  20431571.680                    20431575.492
        51.500          44.400
 123991109.273 7  96616491.85145  23594727.125                    23594732.430
        43.400          30.400
 113190088.306 8  88200134.20546  21539362.648                    21539368.871
        48.600          39.100
 121597396.401 7  94751248.88445  23139220.109                    23139223.105
        43.000          30.600
 16  9 14  1  7 30.0000000  0  9G28G13G10G20G19G15G17G24G18
 119074888.034 7  92785684.73845  22659199.570                    22659203.109
        47.200          32.200
 109358365.141 8  85214446.60146  20810221.922                    20810225.637
        49.500          40.900
 129922332.374 6 101238225.59444  24723403.461                    24723409.777
        41.300          26.000
 118577239.178 7  92397907.96945  22564509.563                    22564512.887
        47.800          30.900
 127361010.623 7  99242402.81844  24236004.953                    24236008.531
        43.900          27.600
 107342195.985 8  83643318.19347  20426546.344                    20426549.895
        51.000          44.900
 123899579.530 7  96545170.00145  23577309.883                    23577314.840
        44.200          31.100
 113095940.558 8  88126772.33446  21521446.688                    21521453.219
        48.000          40.000
 121537176.540 7  94704324.30645  23127760.602                    23127763.875
        43.400          30.100
 16  9 14  1  8  0.0000000  0 10G28G13G10G20G19G15G17G24G18G12
 119120615.447 8  92821316.49745  22667901.133                    22667904.070
        48.300          33.500
 109386131.331 8  85236082.57546  20815505.453                    20815509.445
        50.400          41.000
 129814494.987 6 101154196.46744  24702882.656                    24702889.332
        41.200          26.200
 118627459.223 7  92437040.44544  22574066.234                    22574069.488
        46.700          29.600
 127231714.484 7  99141652.59544  24211400.766                    24211403.859
        43.300          25.000
 107316309.337 8  83623146.77847  20421620.266                    20421623.902
        48.800          44.800
 123808436.343 7  96474149.34645  23559966.141                    23559970.418
        44.400          30.400
 113002075.508 8  88053630.74646  21503584.633                    21503591.527
        48.100          39.200
 121477463.094 7  94657794.36244  23116397.375                    23116400.910
        43.800          29.800
 129701979.921 6 101066515.56743  24681471.836                    24681476.332
        40.800          21.100
 16  9 14  1  8 30.0000000  0 10G28G13G10G20G19G15G17G24G18G12
 119166644.838 8  92857183.55845  22676660.477                    22676662.832
        48.100          32.400
 109414334.415 8  85258058.99546  20820872.422                    20820876.359
        49.600          40.200
 129707047.558 6 101070471.20544  24682436.516                    24682442.543
        40.600          24.900
 118678040.405 7  92476454.32545  22583691.602                    22583694.797
        46.600          30.200
 127102594.003 6  99041039.26444  24186829.625                    24186832.762
        41.600          24.400
 107290936.912 8  83603376.04947  20416792.352                    20416795.496
        51.200          44.800
 123717674.213 7  96403425.62745  23542695.078                    23542698.895
        43.900          31.900
 112908485.871 8  87980703.77246  21485775.281                    21485781.941
        48.300          39.900
 121418248.480 7  94611653.09545  23105129.828                    23105132.348
        45.000          30.800
 129553180.068 6 100950567.67243  24653156.086                    24653161.738
        40.500          22.000
 16  9 14  1  9  0.0000000  0 10G28G13G10G20G19G15G17G24G18G12
 119212973.915 8  92893284.15145  22685476.398                    22685479.414
        48.300          32.500
 109442973.433 8  85280375.08946  20826322.102                    20826326.121
        49.400          40.000
 129599992.416 6 100987051.60044  24662064.250                    24662069.762
        40.100          24.900
 118728980.119 7  92516147.60344  22593384.328                    22593388.371
        46.900          29.900
 126973652.377 7  98940565.28644  24162293.594                    24162296.305
        42.300          25.500
 107266079.711 8  83584006.79547  20412062.023                    20412065.648
        51.500          44.500
 123627295.717 7  96333000.86245  23525496.070                    23525500.895
        44.800          31.600
 112815172.090 8  87907991.74246  21468018.531                    21468025.145
        48.500          39.200
 121359533.239 7  94565900.95345  23093956.367                    23093959.094
        45.100          30.200
 129404454.260 6 100834677.45543  24624855.219                    24624859.605
        41.300          23.000
 16  9 14  1  9 30.0000000  0 10G28G13G10G20G19G15G17G24G18G12
 119259606.104 8  92929620.92945  22694349.688                    22694352.738
        48.000          32.100
 109472053.249 8  85303034.66846  20831855.734                    20831859.473
        48.900          40.200
 129493337.573 6 100903943.94044  24641769.078                    24641774.543
        39.800          26.400
 118780281.029 7  92556122.30744  22603147.039                    22603150.734
        46.700          29.100
 126844899.001 7  98840237.96944  24137792.844                    24137795.082
        42.600          25.700
 107241743.320 8  83565043.37347  20407430.656                    20407434.551
        50.900          45.300
 123537308.844 7  96262881.26845  23508371.516                    23508377.172
        44.600          30.700
 112722140.584 8  87835499.66746  21450315.258                    21450321.836
        48.100          40.000
 121301324.153 7  94520543.21445  23082879.461                    23082882.082
        43.900          30.300
 129255810.432 6 100718851.10043  24596568.820                    24596573.367
        39.500          20.400
 16  9 14  1 10  0.0000000  0 10G28G13G10G20G19G15G17G24G18G12
 119306532.171 7  92966186.67445  22703279.977                    22703282.766
        47.800          31.500
 109501566.123 8  85326031.70746  20837471.883                    20837475.746
        48.900          40.100
 129387078.380 6 100821144.57244  24621548.109                    24621554.148
        39.800          25.300
 118831932.929 7  92596370.52945  22612976.367                    22612980.035
        46.200          30.200
 126716329.898 7  98740054.25644  24113326.789                    24113329.676
        44.300          27.900
 107217920.826 8  83546480.39147  20402897.500                    20402901.090
        50.600          44.300
 123447708.987 7  96193063.24345  23491322.055                    23491327.070
        43.900          31.100
 112629385.153 8  87763222.72346  21432663.945                    21432670.859
        48.000          39.400
 121243615.219 7  94475575.20244  23071897.805                    23071901.145
        44.100          29.700
 129107243.529 6 100603084.60343  24568297.406                    24568301.734
        40.900          19.300
 16  9 14  1 10 30.0000000  0 10G28G13G10G20G19G15G17G24G18G12
 119353757.281 8  93002985.48845  22712266.023                    22712268.535
        48.100          30.800
 109531518.200 8  85349370.96546  20843171.734                    20843175.586
        49.500          41.000
 129281224.417 6 100738660.96044  24601404.523                    24601411.055
        39.600          24.500
 118883940.361 7  92636895.77944  22622872.914                    22622876.918
        46.100          29.100
 126587955.445 7  98640022.25444  24088898.172                    24088901.258
        42.800          27.700
 107194619.887 8  83528323.80847  20398463.172                    20398466.898
        51.000          44.000
 123358505.451 7  96123554.01645  23474346.906                    23474351.953
        44.400          31.600
 112536913.028 7  87691166.53746  21415067.227                    21415073.676
        47.900          39.500
 121186414.093 7  94431002.90244  23061012.898                    23061016.395
        44.300          29.900
 128958762.813 6 100487385.32743  24540043.023                    24540047.727
        40.900          22.300
 16  9 14  1 11  0.0000000  0 10G28G13G10G20G19G15G17G24G18G12
 119401271.633 8  93040009.67545  22721308.008                    22721310.695
        49.200          31.100
 109561901.048 8  85373045.90146  20848953.516                    20848957.426
        49.400          40.200
 129175770.645 6 100656489.19043  24581337.813                    24581343.754
        39.700          23.200
 118936292.969 7  92677690.02044  22632834.984                    22632839.023
        45.600          29.900
 126459772.011 7  98540139.11944  24064504.516                    24064508.621
        42.300          25.100
 107171833.464 8  83510568.14847  20394127.602                    20394131.250
        51.000          44.600
 123269693.617 7  96054350.02745  23457446.539                    23457451.148
        44.800          31.000
 112444718.031 7  87619326.28546  21397523.320                    21397529.441
        47.000          39.900
 121129714.165 7  94386821.14945  23050223.133                    23050226.449
        45.000          30.400
 128810363.270 6 100371749.38743  24511802.992                    24511807.875
        39.400          23.200
 16  9 14  1 11 30.0000000  0 10G28G13G10G20G19G15G17G24G18G12
 119449076.164 7  93077259.96445  22730404.711                    22730407.023
        47.500          31.900
 109592717.377 8  85397058.60946  20854817.789                    20854822.020
        48.400          40.500
 129070722.945 6 100574633.84043  24561347.641                    24561353.594
        39.200          23.400
 118988991.224 7  92718753.56344  22642863.438                    22642867.199
        45.700          29.000
 126331786.506 7  98440410.15244  24040150.375                    24040152.660
        43.600          26.800
 107149565.199 8  83493216.24447  20389889.859                    20389893.504
        50.800          44.900
 123181279.196 7  95985455.70944  23440622.039                    23440626.898
        43.900          29.800
 112352803.809 7  87547704.82146  21380032.625                    21380039.023
        46.700          39.000
 121073519.983 7  94343033.47645  23039529.672                    23039532.770
        45.000          30.400
 128662050.239 7 100256180.84244  24483580.789                    24483585.703
        42.100          25.800
 16  9 14  1 12  0.0000000  0 10G28G13G10G20G19G15G17G24G18G12
 119497167.585 7  93114733.81545  22739556.711                    22739559.832
        47.900          33.000
 109623965.676 8  85421407.90546  20860763.813                    20860767.711
        50.000          39.800
 128966082.546 6 100493095.85344  24541435.422                    24541441.484
        39.400          25.800
 119042031.162 7  92760083.35944  22652956.539                    22652960.230
        44.600          28.300
 126204000.992 7  98340837.01644  24015833.289                    24015835.910
        43.800          27.000
 107127814.347 8  83476267.53447  20385750.945                    20385754.539
        50.900          44.900
 123093263.363 7  95916871.96145  23423873.273                    23423877.137
        44.600          31.700
 112261170.213 8  87476302.03246  21362595.172                    21362601.637
        48.300          39.500
 121017830.847 7  94299639.33745  23028931.969                    23028935.824
        45.100          30.500
 128513824.780 6 100140680.46443  24455373.758                    24455378.680
        40.400          20.600
 16  9 14  1 12 30.0000000  0 10G28G13G10G20G19G15G17G24G18G12
 119545546.066 7  93152431.32245  22748762.750                    22748766.520
        47.500          33.200
 109655646.987 8  85446094.63046  20866792.438                    20866796.590
        49.300          40.200
 128861854.064 6 100411878.84643  24521601.180                    24521607.098
        39.300          22.900
 119095411.787 7  92801678.63944  22663114.539                    22663117.934
        44.900          28.200
 126076421.025 7  98241424.06844  23991555.828                    23991558.758
        43.000          26.200
 107106583.301 8  83459723.85447  20381710.563                    20381714.289
        50.700          44.200
 123005650.945 7  95848602.57245  23407200.852                    23407205.133
        43.200          31.700
 112169820.297 7  87405120.29246  21345212.297                    21345218.117
        47.000          39.900
 120962649.867 7  94256641.17045  23018431.930                    23018435.008
        43.000          31.000
 128365691.154 6 100025251.56343  24427184.539                    24427189.355
        38.900          20.600
 16  9 14  1 13  0.0000000  0 10G28G13G10G20G19G15G17G24G18G12
 119594208.358 8  93190349.96845  22758023.148                    22758026.719
        48.600          33.600
 109687759.449 8  85471117.30246  20872903.266                    20872907.492
        49.300          39.700
 128758039.027 6 100330984.00643  24501845.875                    24501851.609
        38.800          22.800
 119149129.489 7  92843536.58244  22673336.219                    22673340.285
        44.100          27.500
 125949049.260 6  98142173.36044  23967317.805                    23967320.809
        41.600          25.300
 107085871.769 8  83443584.99447  20377769.445                    20377773.098
        51.400          44.800
 122918443.532 7  95780648.75445  23390605.883                    23390610.617
        44.900          31.600
 112078753.759 8  87334159.36046  21327882.703                    21327889.309
        48.300          40.400
 120907977.197 7  94214039.09845  23008028.484                    23008031.785
        45.000          30.700
 128217651.002 6  99909895.64744  24399013.805                    24399019.250
        40.200          25.400
 16  9 14  1 13 30.0000000  0 10G28G13G10G20G19G15G17G24G18G12
 119643150.270 8  93228486.52845  22767336.539                    22767340.074
        48.400          35.200
 109720300.296 8  85496473.78846  20879095.750                    20879099.883
        49.500          40.000
 128654637.716 6 100250411.53643  24482168.758                    24482175.375
        38.800          22.500
 119203179.243 7  92885653.25944  22683621.938                    22683624.973
        45.000          28.900
 125821887.257 7  98043086.11644  23943119.414                    23943122.988
        43.000          28.300
 107065677.925 8  83427849.52347  20373926.805                    20373930.613
        51.700          45.000
 122831641.252 7  95713010.63245  23374088.016                    23374092.395
        44.700          32.100
 111987969.046 7  87263418.03446  21310606.820                    21310612.934
        47.800          39.800
 120853811.137 7  94171831.78545  22997720.508                    22997724.520
        45.100          31.200
 128069704.253 6  99794612.48544  24370860.680                    24370865.145
        41.400          24.800
 16  9 14  1 14  0.0000000  0 10G28G13G10G20G19G15G17G24G18G12
 119692373.452 8  93266842.25645  22776702.438                    22776706.941
        48.000          34.000
 109753272.145 8  85522166.11746  20885370.336                    20885373.910
        50.400          39.800
 128551656.321 6 100170166.28143  24462572.930                    24462579.039
        38.100          23.200
 119257561.958 7  92928029.39044  22693970.336                    22693974.457
        45.500          27.400
 125694942.183 7  97944167.89344  23918962.445                    23918965.984
        42.700          26.700
 107046005.481 8  83412520.34847  20370183.117                    20370186.973
        50.800          44.400
 122745250.374 7  95645693.08645  23357648.602                    23357652.684
        45.800          31.600
 111897470.868 8  87192899.98746  21293385.617                    21293392.129
        49.100          39.600
 120800156.092 7  94130022.65745  22987510.516                    22987514.055
        45.300          31.700
 127921856.795 6  99679406.66443  24342725.195                    24342729.949
        38.800          22.200
 16  9 14  1 14 30.0000000  0 10G28G13G10G20G19G15G17G24G18G12
 119741878.786 7  93305417.82645  22786123.016                    22786127.219
        47.000          33.300
 109786677.728 8  85548196.43446  20891727.547                    20891730.949
        50.100          40.300
 128449100.187 6 100090252.43944  24443057.094                    24443063.523
        38.600          24.400
 119312277.808 7  92970665.09344  22704383.195                    22704387.113
        45.300          28.100
 125568220.559 7  97845423.77544  23894848.148                    23894851.262
        43.000          26.100
 107026857.722 8  83397600.00147  20366539.594                    20366543.180
        52.100          44.600
 122659276.202 7  95578700.26545  23341287.805                    23341292.102
        45.700          31.000
 111807262.592 8  87122607.83446  21276219.320                    21276226.039
        48.900          39.700
 120747016.021 7  94088614.80845  22977398.359                    22977401.438
        45.300          30.500
 127774113.870 6  99564282.33043  24314610.883                    24314615.379
        37.200          19.600
 16  9 14  1 15  0.0000000  0 10G28G13G10G20G19G15G17G24G18G12
 119791659.651 7  93344208.10045  22795596.406                    22795600.129
        47.000          33.500
 109820511.428 8  85574560.34346  20898165.820                    20898169.355
        50.800          40.200
 128346967.382 6 100010668.42943  24423622.383                    24423628.324
        40.100          23.800
 119367319.240 7  93013554.50644  22714856.836                    22714860.637
        46.100          27.400
 125441721.283 7  97746852.91144  23870776.039                    23870779.461
        43.600          26.800
 107008230.885 8  83383085.58447  20362994.711                    20362999.004
        51.000          44.700
 122573716.922 7  95512030.72345  23325006.672                    23325011.176
        45.500          30.500
 111717341.022 8  87052539.08746  21259107.719                    21259114.430
        48.200          39.600
 120694387.410 7  94047605.49145  22967383.695                    22967386.348
        45.500          31.700
 127626473.232 6  99449237.65643  24286516.430                    24286520.645
        40.400          22.600
 16  9 14  1 15 30.0000000  0 10G28G13G10G20G19G15G17G24G18G12
 119841716.446 7  93383213.38945  22805121.305                    22805125.988
        47.800          32.800
 109854775.296 8  85601259.43146  20904686.180                    20904689.297
        50.900          40.400
 128245263.025 6  99931418.26844  24404267.672                    24404274.246
        40.800          25.800
 119422686.132 7  93056697.50744  22725392.539                    22725396.719
        45.000          27.000
 125315450.618 7  97648460.19044  23846747.953                    23846751.133
        42.700          26.700
 106990127.504 8  83368979.04347  20359549.852                    20359553.871
        51.300          44.900
 122488577.652 7  95445688.45345  23308804.586                    23308809.852
        44.200          30.800
 111627709.215 8  86982696.13146  21242051.359                    21242057.535
        48.500          40.200
 120642273.713 7  94006997.41245  22957466.219                    22957469.098
        45.200          31.400
 127478939.837 6  99334276.53644  24258441.922                    24258446.621
        39.900          25.800
 16  9 14  1 16  0.0000000  0 10G28G13G10G20G19G15G17G24G18G12
 119892044.354 7  93422429.92445  22814699.422                    22814703.504
        47.800          33.600
 109889465.351 8  85628290.61346  20911287.813                    20911291.230
        50.800          40.400
 128143986.567 6  99852501.54744  24384995.406                    24385001.809
        40.800          26.700
 119478372.778 7  93100089.67744  22735989.680                    22735993.316
        44.700          27.400
 125189409.274 7  97550246.19844  23822762.586                    23822766.523
        43.300          26.500
 106972545.149 8  83355278.49747  20356204.031                    20356208.148
        50.800          44.700
 122403857.635 7  95379672.88945  23292683.289                    23292687.551
        44.500          30.400
 111538365.357 8  86913077.55146  21225050.000                    21225056.418
        48.500          40.100
 120590672.286 7  93966788.49745  22947646.961                    22947650.074
        44.800          30.100
 127331513.089 6  99219398.60643  24230387.258                    24230391.930
        36.700          22.300
 16  9 14  1 16 30.0000000  0 10G28G13G10G20G19G15G17G24G18G12
 119942640.148 7  93461855.21245  22824327.258                    22824330.777
        47.600          33.000
 109924579.516 8  85655652.25946  20917969.578                    20917972.855
        51.000          39.700
 128043139.428 6  99773919.37044  24365805.633                    24365811.711
        41.400          25.100
 119534375.519 7  93143728.16844  22746646.680                    22746650.328
        44.800          26.700
 125063599.638 7  97452212.74144  23798822.414                    23798825.180
        42.400          26.000
 106955483.055 8  83341983.35447  20352957.070                    20352960.734
        51.900          44.900
 122319558.382 7  95313985.18045  23276641.711                    23276646.043
        45.400          31.500
 111449309.234 8  86843683.17946  21208103.148                    21208109.984
        49.400          40.200
 120539583.065 7  93926978.70345  22937924.875                    22937928.191
        45.700          30.400
 127184194.168 6  99104604.71343  24202352.547                    24202357.348
        37.900          22.300
 16  9 14  1 17  0.0000000  0 10G28G13G10G20G19G15G17G24G18G12
 119993505.491 7  93501490.53645  22834006.383                    22834009.801
        46.900          31.400
 109960120.947 8  85683346.83346  20924733.125                    20924736.734
        49.100          38.400
 127942727.697 6  99695676.46144  24346697.109                    24346703.918
        41.700          26.200
 119590695.002 7  93187613.47744  22757363.516                    22757367.656
        45.300          27.800
 124938029.098 7  97354365.58644  23774927.250                    23774929.961
        43.100          26.900
 106938945.250 8  83329096.74747  20349810.148                    20349813.980
        51.200          44.400
 122235686.239 7  95248630.30245  23260681.195                    23260685.395
        45.800          31.200
 111360544.980 8  86774516.23746  21191211.930                    21191218.313
        49.600          40.500
 120489010.472 7  93887571.48945  22928301.211                    22928304.137
        44.500          30.400
 127036988.843 6  98989899.20843  24174340.484                    24174345.195
        40.200          23.800
 16  9 14  1 17 30.0000000  0 10G28G13G10G20G19G15G17G24G18G12
 120044635.336 7  93541331.96945  22843736.094                    22843739.043
        47.400          31.800
 109996085.886 7  85711371.49046  20931577.180                    20931580.313
        46.400          36.900
 127842750.845 7  99617772.41344  24327672.539                    24327678.828
        42.200          27.300
 119647325.199 7  93231740.89244  22768139.813                    22768144.203
        45.400          28.600
 124812698.299 7  97256705.25244  23751076.734                    23751080.547
        42.000          26.800
 106922929.067 8  83316616.59347  20346762.453                    20346766.230
        51.500          44.600
 122152240.395 7  95183607.57945  23244802.539                    23244806.270
        46.800          31.800
 111272070.519 8  86705575.10846  21174375.844                    21174382.148
        50.000          40.400
 120438952.281 7  93848565.08745  22918775.672                    22918778.578
        46.100          30.500
 126889896.890 6  98875282.10344  24146350.070                    24146355.301
        41.200          24.900
 16  9 14  1 18  0.0000000  0 10G28G13G10G20G19G15G17G24G18G12
 120096026.837 7  93581377.30145  22853515.453                    22853518.598
        47.300          30.400
 110032472.512 7  85739724.71846  20938500.656                    20938504.328
        47.000          37.600
 127743210.622 7  99540208.61644  24308730.750                    24308736.988
        43.200          26.400
 119704262.867 7  93276107.88544  22778974.633                    22778979.191
        44.300          27.700
 124687609.962 7  97159233.81944  23727273.273                    23727276.656
        42.500          26.300
 106907433.942 8  83304542.45847  20343813.852                    20343817.762
        51.700          44.100
 122069222.525 7  95118918.36245  23229004.578                    23229008.746
        46.400          32.400
 111183886.271 8  86636860.12046  21157594.969                    21157600.914
        49.400          40.900
 120389408.675 7  93809959.67845  22909347.750                    22909350.813
        45.700          30.300
 126742919.404 6  98760754.23844  24118381.805                    24118386.309
        38.800          26.200
 16  9 14  1 18 30.0000000  0 10G28G13G10G20G19G15G17G24G18G12
 120147679.585 7  93621626.22045  22863345.289                    22863347.719
        47.900          31.000
 110069282.091 8  85768407.49946  20945504.078                    20945508.902
        49.300          37.500
 127644111.068 7  99462988.16744  24289872.000                    24289879.035
        43.000          26.500
 119761506.679 7  93320713.41344  22789868.469                    22789872.430
        43.600          28.600
 124562769.655 7  97061955.67944  23703516.859                    23703520.785
        43.000          28.800
 106892461.996 8  83292875.99747  20340965.063                    20340968.867
        51.600          45.000
 121986636.813 7  95054565.88245  23213288.797                    23213293.813
        46.800          31.800
 111095994.393 8  86568372.94946  21140869.469                    21140875.840
        49.900          40.800
 120340381.900 7  93771756.99445  22900018.086                    22900021.445
        45.900          30.200
 126596060.646 6  98646318.91944  24090434.758                    24090439.262
        39.800          25.300
 16  9 14  1 19  0.0000000  0 10G28G13G10G20G19G15G17G24G18G12
 120199596.227 7  93662080.75545  22873224.563                    22873227.180
        47.800          32.100
 110106518.135 8  85797422.58346  20952589.414                    20952594.801
        50.000          38.400
 127545459.141 7  99386116.53344  24271099.797                    24271105.813
        43.900          25.600
 119819058.316 7  93365558.84744  22800819.922                    22800823.566
        43.800          26.700
 124438185.054 7  96964876.79644  23679809.555                    23679813.203
        42.700          28.900
 106878017.604 8  83281620.62247  20338216.477                    20338219.984
        51.500          44.700
 121904490.022 7  94990555.43445  23197657.031                    23197661.457
        47.300          32.600
 111008400.419 8  86500117.91546  21124201.039                    21124207.512
        49.300          40.600
 120291876.898 7  93733960.89345  22890787.539                    22890791.543
        46.200          30.800
 126449327.693 7  98531981.52944  24062512.953                    24062516.961
        43.500          26.800
 16  9 14  1 19 30.0000000  0 10G28G13G10G20G19G15G17G24G18G12
 120251770.569 7  93702736.08345  22883152.617                    22883155.477
        46.300          30.200
 110144175.702 8  85826766.12646  20959755.875                    20959761.207
        50.300          38.600
 127447253.206 7  99309592.42944  24252411.531                    24252418.156
        43.000          26.700
 119876910.983 7  93410638.83044  22811829.031                    22811832.844
        43.800          27.000
 124313855.925 7  96867996.98244  23656150.492                    23656154.742
        43.200          28.900
 106864096.831 8  83270773.25647  20335566.828                    20335570.875
        51.800          44.700
 121822780.746 7  94926885.88245  23182108.180                    23182112.672
        46.100          32.700
 110921101.123 8  86432092.50146  21107588.578                    21107594.809
        49.400          41.100
 120243890.520 7  93696568.89645  22881656.320                    22881659.926
        46.500          31.300
 126302718.455 7  98417740.54144  24034614.344                    24034618.801
        42.300          24.400
 16  9 14  1 20  0.0000000  0 10G28G13G10G20G19G15G17G24G18G12
 120304197.678 7  93743588.36445  22893128.984                    22893131.922
        46.400          30.600
 110182250.978 8  85856435.15546  20967001.875                    20967006.504
        50.900          39.600
 127349492.740 7  99233415.44244  24233808.563                    24233814.598
        43.500          25.800
 119935059.019 7  93455948.97144  22822894.039                    22822898.309
        43.700          28.600
 124189782.862 7  96771316.71544  23632540.438                    23632543.898
        42.700          27.900
 106850697.385 8  83260332.11847  20333017.328                    20333021.203
        52.000          44.500
 121741508.410 7  94863556.80945  23166642.328                    23166646.984
        46.200          31.400
 110834094.554 8  86364295.18046  21091031.633                    21091038.031
        49.900          41.400
 120196420.617 7  93659579.34745  22872623.594                    22872626.934
        47.000          30.300
 126156232.535 6  98303595.70643  24006737.719                    24006742.910
        41.100          23.000
 16  9 14  1 20 30.0000000  0 10G28G13G10G20G19G15G17G24G18G12
 120356878.970 7  93784638.71545  22903154.406                    22903157.043
        46.400          30.200
 110220746.749 8  85886431.83846  20974327.508                    20974331.980
        51.200          39.500
 127252183.823 7  99157590.28544  24215291.344                    24215297.320
        43.700          26.700
 119993502.991 7  93501489.70244  22834016.219                    22834019.691
        43.700          27.400
 124065973.160 7  96674841.64544  23608979.781                    23608982.824
        42.600          28.600
 106837822.718 8  83250299.90447  20330567.063                    20330571.203
        51.300          44.300
 121660679.026 7  94800572.89645  23151260.688                    23151265.305
        45.700          31.800
 110747384.839 8  86296729.17846  21074531.164                    21074537.859
        49.700          41.300
 120149471.283 7  93622995.44545  22863689.664                    22863692.609
        46.800          32.400
 126009875.857 7  98189551.57244  23978887.914                    23978892.289
        43.200          27.000
 16  9 14  1 21  0.0000000  0 10G28G13G10G20G19G15G17G24G18G12
 120409813.264 7  93825886.24145  22913227.734                    22913229.512
        47.700          30.500
 110259662.778 8  85916755.99646  20981733.406                    20981737.379
        51.500          39.700
 127155329.586 7  99082119.46544  24196860.648                    24196866.984
        44.800          26.700
 120052240.762 7  93547259.36044  22845193.703                    22845197.031
        44.700          28.500
 123942431.072 7  96578575.06744  23585471.086                    23585474.492
        43.400          28.800
 106825474.153 8  83240677.63847  20328217.539                    20328221.648
        51.600          44.600
 121580295.286 7  94737936.25445  23135964.570                    23135968.488
        45.700          32.300
 110660973.602 8  86229395.76046  21058087.695                    21058094.352
        49.400          40.600
 120103043.610 7  93586818.03345  22854854.242                    22854857.914
        46.800          31.500
 125863651.204 7  98075610.28344  23951062.438                    23951067.137
        42.800          28.900
 16  9 14  1 21 30.0000000  0 10G28G13G10G20G19G15G17G24G18G12
 120462998.676 7  93867329.45045  22923347.977                    22923350.910
        47.700          31.100
 110298998.409 8  85947407.10746  20989218.594                    20989222.477
        52.100          40.300
 127058932.231 7  99007004.61944  24178516.789                    24178522.766
        43.500          26.000
 120111269.846 7  93593256.03244  22856426.141                    22856430.137
        43.600          27.500
 123819160.645 7  96482520.20344  23562013.273                    23562016.219
        43.200          29.000
 106813652.016 8  83231465.57747  20325967.883                    20325971.645
        51.500          44.300
 121500360.006 7  94675649.04145  23120753.617                    23120757.629
        47.600          33.500
 110574862.289 8  86162296.03746  21041701.633                    21041707.711
        49.700          40.800
 120057138.585 7  93551047.88345  22846119.102                    22846122.191
        46.700          31.000
 125717560.989 7  97961773.76944  23923262.672                    23923266.309
        42.400          26.000
 16  9 14  1 22  0.0000000  0 10G28G13G10G20G19G15G17G24G18G12
 120516427.396 7  93908962.18745  22933514.609                    22933519.004
        45.400          30.600
 110338746.376 8  85978379.52446  20996782.727                    20996786.574
        51.800          39.600
 126962988.249 7  98932243.07644  24160258.906                    24160265.105
        43.400          27.000
 120170581.026 7  93639472.51344  22867712.508                    22867716.230
        43.900          27.800
 123696159.180 7  96386674.93244  23538606.664                    23538609.906
        43.700          29.100
 106802350.106 8  83222658.88747  20323817.250                    20323820.824
        51.200          44.600
 121420869.182 7  94613708.17045  23105626.594                    23105630.488
        46.800          32.100
 110489044.962 8  86095425.40646  21025370.734                    21025377.102
        49.600          41.100
 120011750.552 7  93515680.56845  22837482.461                    22837485.105
        46.500          30.300
 125571601.487 7  97848039.07344  23895487.094                    23895490.844
        42.400          25.600
 16  9 14  1 22 30.0000000  0 10G28G13G10G20G19G15G17G24G18G12
 120570101.849 7  93950786.40745  22943729.883                    22943733.070
        46.200          31.800
 110378911.114 8  86009676.69846  21004426.367                    21004430.148
        52.000          39.400
 126867504.748 7  98857840.34044  24142089.484                    24142094.988
        44.000          26.400
 120230176.412 7  93685910.45244  22879053.133                    22879057.504
        43.800          28.100
 123573434.877 7  96291045.63144  23515253.023                    23515256.020
        42.600          27.800
 106791573.316 8  83214261.38547  20321766.508                    20321770.414
        51.300          44.900
 121341830.199 7  94552119.36245  23090586.414                    23090590.738
        47.000          33.200
 110403527.714 8  86028788.60446  21009097.367                    21009103.828
        49.900          41.400
 119966884.709 7  93480720.16745  22828944.414                    22828947.258
        46.700          30.900
 125425779.923 7  97734411.90544  23867739.109                    23867742.648
        44.700          28.500
 16  9 14  1 23  0.0000000  0 10G28G13G10G20G19G15G17G24G18G12
 120624020.944 7  93992801.28945  22953990.242                    22953993.152
        45.600          31.700
 110419492.443 8  86041298.49346  21012148.680                    21012152.230
        52.000          40.200
 126772485.011 7  98783798.94444  24124008.367                    24124013.570
        44.200          27.300
 120290054.126 7  93732568.40244  22890447.969                    22890451.195
        43.900          28.500
 123450992.527 7  96195636.02544  23491953.109                    23491955.828
        43.300          28.700
 106781322.783 8  83206273.94747  20319815.766                    20319819.547
        51.400          44.700
 121263246.125 7  94490885.03745  23075631.969                    23075636.242
        46.600          32.100
 110318312.163 8  85962386.87746  20992881.516                    20992888.160
        48.700          40.900
 119922543.002 7  93446168.17145  22820506.336                    22820509.328
        46.600          30.100
 125280099.764 7  97620894.90944  23840016.844                    23840020.266
        45.100          27.700
 16  9 14  1 23 30.0000000  0 10G28G13G10G20G19G15G17G24G18G12
 120678176.613 7  94035000.51045  22964295.180                    22964298.516
        45.600          30.600
 110460482.936 8  86073239.12046  21019948.586                    21019952.395
        52.700          40.000
 126677925.023 7  98710115.84144  24106013.359                    24106019.574
        43.900          26.500
 120350205.118 7  93779439.27944  22901894.242                    22901898.434
        44.900          28.300
 123328829.271 7  96100443.91144  23468705.375                    23468708.488
        43.000          27.400
 106771592.403 8  83198691.82047  20317964.078                    20317967.641
        51.400          44.300
 121185113.101 7  94430002.19845  23060763.633                    23060767.922
        46.400          33.300
 110233392.684 8  85896215.86346  20976721.945                    20976728.094
        49.500          40.600
 119878719.348 7  93412019.86445  22812166.859                    22812170.047
        45.800          30.500
 125134556.852 7  97507484.84544  23812320.172                    23812324.234
        43.000          27.700
 16  9 14  1 24  0.0000000  0 10G28G13G10G20G19G15G17G24G18G12
 120732567.511 7  94077383.03345  22974645.367                    22974648.773
        45.100          30.900
 110501882.666 8  86105498.62446  21027826.719                    21027830.273
        52.100          40.100
 126583828.061 7  98636793.52844  24088107.391                    24088113.957
        43.300          27.900
 120410627.271 7  93826521.45044  22913392.242                    22913396.027
        45.400          28.100
 123206949.743 7  96005472.87844  23445512.609                    23445515.832
        43.300          27.800
 106762383.111 8  83191515.74347  20316212.031                    20316215.555
        50.900          44.900
 121107434.012 7  94369473.07045  23045981.820                    23045986.504
        46.500          32.600
 110148771.140 8  85830277.01146  20960619.109                    20960625.160
        49.100          41.400
 119835415.333 7  93378276.47544  22803926.531                    22803929.348
        46.600          29.500
 124989154.081 7  97394184.02144  23784650.766                    23784655.063
        43.400          26.000
 16  9 14  1 24 30.0000000  0 10G28G13G10G20G19G15G17G24G18G12
 120787195.571 7  94119950.33745  22985040.172                    22985044.691
        44.500          30.200
 110543694.368 8  86138079.14546  21035783.469                    21035786.773
        51.600          39.400
 126490200.194 7  98563836.76444  24070290.852                    24070297.125
        43.200          27.300
 120471321.217 7  93873815.42644  22924941.500                    22924945.805
        45.100          29.600
 123085361.449 7  95910728.78044  23422375.406                    23422378.391
        42.200          25.700
 106753698.831 8  83184748.76347  20314559.344                    20314562.695
        50.900          44.200
 121030215.164 7  94309302.57945  23031287.477                    23031292.094
        46.400          34.700
 110064452.089 8  85764573.85746  20944573.438                    20944579.609
        49.700          41.100
 119792634.915 7  93344941.05544  22795785.203                    22795788.410
        46.300          29.900
 124843898.088 7  97280997.51944  23757010.375                    23757013.121
        45.000          26.900
 16  9 14  1 25  0.0000000  0 10G28G13G10G20G19G15G17G24G18G12
 122417475.503 7  95390298.32545  23295272.766                    23295276.191
        44.000          30.500
 112161334.624 8  87398578.01346  21343610.172                    21343613.887
        51.700          39.800
 127972465.659 7  99718848.79644  24352357.203                    24352363.023
        43.600          26.700
 122107701.365 7  95148916.82744  23236334.742                    23236338.383
        45.000          28.900
 124539490.854 6  97043816.64044  23699085.875                    23699089.977
        41.800          27.300
 108320958.644 8  84405990.16047  20612798.672                    20612802.305
        51.100          44.100
 122528879.899 7  95477093.31145  23316474.055                    23316478.828
        46.100          34.600
 111555857.857 8  86926708.23846  21228378.430                    21228385.109
        49.900          41.300
 121325799.006 7  94539614.36845  23087536.938                    23087540.203
        46.700          30.500
 126274214.652 7  98395529.88444  24029189.680                    24029193.668
        44.700          26.800
 16  9 14  1 25 30.0000000  0 10G28G13G10G20G19G15G17G24G18G12
 122472567.302 7  95433227.00245  23305756.172                    23305759.809
        44.600          31.100
 112203963.321 8  87431795.15946  21351722.250                    21351725.813
        52.400          39.900
 127879778.496 7  99646625.03844  24334718.875                    24334724.934
        43.300          27.000
 122168926.744 7  95196624.90044  23247985.906                    23247989.547
        44.600          29.700
 124418491.208 7  96949531.23344  23676061.500                    23676064.512
        42.600          27.200
 108313320.146 8  84400038.07347  20611345.172                    20611348.445
        51.000          43.700
 122452583.416 7  95417641.52545  23301955.227                    23301960.172
        47.000          34.000
 111472142.431 8  86861475.44246  21212448.422                    21212454.473
        50.300          41.400
 121284063.501 7  94507093.19145  23079595.094                    23079598.121
        46.300          30.400
 126129254.350 7  98282573.84144  24001604.398                    24001609.363
        42.400          26.700
 16  9 14  1 26  0.0000000  0 10G28G13G10G20G19G15G17G24G18G12
 122527889.021 7  95476334.81345  23316283.406                    23316287.281
        43.200          30.200
 112247000.108 8  87465330.29646  21359911.672                    21359915.012
        51.700          39.600
 127787566.216 7  99574771.31844  24317171.281                    24317177.258
        43.000          26.800
 122230414.204 7  95244537.19144  23259686.836                    23259690.375
        45.100          29.400
 124297792.162 7  96855480.02944  23653093.414                    23653096.270
        42.700          28.600
 108306205.657 8  84394494.29447  20609991.672                    20609995.164
        51.300          44.100
 122376752.915 7  95358552.83845  23287525.859                    23287529.871
        46.700          33.700
 111388730.598 8  86796479.22346  21196575.133                    21196581.527
        50.300          41.400
 121242852.012 7  94474980.33045  23071752.516                    23071755.867
        47.300          31.000
 125984446.523 7  98169736.66344  23974049.039                    23974053.281
        44.500          27.000
 16  9 14  1 26 30.0000000  0 10G28G13G10G20G19G15G17G24G18G12
 122583433.049 7  95519615.84344  23326852.703                    23326856.281
        42.900          26.900
 112290438.188 8  87499178.12546  21368177.563                    21368181.484
        52.200          38.900
 127695825.291 7  99503284.87544  24299713.453                    24299719.914
        43.600          27.000
 122292156.353 7  95292647.93244  23271435.930                    23271439.313
        44.000          29.000
 124177391.891 6  96761661.66844  23630181.883                    23630185.484
        41.900          29.600
 108299609.318 8  84389354.28347  20608735.906                    20608740.094
        51.300          44.700
 122301384.329 7  95299824.08945  23273183.203                    23273187.105
        47.100          34.000
 111305618.348 8  86731716.43846  21180759.398                    21180765.965
        49.800          41.300
 121202159.146 7  94443271.59945  23064009.023                    23064012.664
        46.500          31.000
 125839787.725 7  98057015.47744  23946521.383                    23946524.172
        44.300          25.500
 16  9 14  1 27  0.0000000  0 10G28G13G10G20G19G15G17G24G18G12
 122639208.254 7  95563077.06344  23337467.336                    23337469.578
        43.400          28.200
 112334287.274 8  87533346.21046  21376522.203                    21376525.590
        51.100          39.200
 127604568.672 7  99432175.82344  24282347.656                    24282354.535
        43.100          27.400
 122354159.717 7  95340962.21745  23283234.914                    23283237.836
        45.000          30.900
 124057304.617 7  96668087.19044  23607330.234                    23607333.633
        42.600          29.900
 108293541.986 8  84384626.49147  20607581.586                    20607586.191
        51.300          44.700
 122226490.872 7  95241465.57045  23258930.852                    23258936.109
        46.500          33.800
 111222816.548 8  86667195.56146  21165002.844                    21165009.016
        50.400          41.700
 121161996.016 7  94411975.64045  23056366.359                    23056369.875
        47.200          30.400
 125695290.749 7  97944420.38944  23919023.570                    23919027.359
        42.700          24.700
 16  9 14  1 27 30.0000000  0 10G28G13G10G20G19G15G17G24G18G12
 122695204.672 7  95606710.64444  23348122.836                    23348125.891
        43.000          28.600
 112378538.602 8  87567827.74746  21384942.875                    21384946.371
        51.900          39.200
 127513790.774 7  99361439.80344  24265073.820                    24265079.801
        43.100          27.500
 122416413.955 7  95389472.00344  23295080.641                    23295084.918
        44.500          29.100
 123937526.001 7  96574753.22945  23584537.195                    23584540.469
        44.600          30.100
 108287995.940 8  84380304.89647  20606525.930                    20606530.590
        50.900          44.900
 122152066.869 7  95183472.86245  23244768.641                    23244773.406
        45.300          33.700
 111140318.673 8  86602911.51446  21149304.125                    21149310.527
        50.800          41.600
 121122355.102 7  94381086.60745  23048822.758                    23048826.242
        46.400          31.500
 125550950.239 6  97831947.30044  23891556.688                    23891561.703
        41.700          25.600
 16  9 14  1 28  0.0000000  0 10G28G13G10G20G19G15G17G24G18G12
 122751417.789 7  95650513.04944  23358819.891                    23358823.652
        44.300          29.600
 112423188.855 8  87602620.14046  21393439.398                    21393442.887
        50.900          39.000
 127423491.278 7  99291076.56344  24247890.352                    24247896.465
        43.800          28.200
 122478913.812 7  95438173.19644  23306973.836                    23306977.813
        44.900          28.900
 123818057.284 7  96481660.75344  23561802.727                    23561806.320
        43.200          29.900
 108282968.352 8  84376387.29647  20605569.656                    20605574.023
        51.200          45.000
 122078111.827 7  95125845.58645  23230695.523                    23230700.121
        47.000          33.800
 111058122.576 8  86538862.62246  21133662.844                    21133669.051
        49.500          41.800
 121083234.372 7  94350602.91245  23041378.164                    23041382.000
        47.200          30.100
 125406766.163 7  97719596.11044  23864120.445                    23864124.441
        43.000          25.700
 16  9 14  1 28 30.0000000  0 10G28G13G10G20G19G15G17G24G18G12
 122807848.910 7  95694485.33144  23369558.547                    23369562.344
        44.300          28.900
 112468240.041 8  87637724.93646  21402012.180                    21402016.039
        50.800          38.100
 127333675.540 7  99221090.27444  24230798.680                    24230805.438
        43.500          27.300
 122541659.720 7  95487066.09844  23318914.016                    23318918.430
        44.100          28.800
 123698905.018 7  96388814.83344  23539128.992                    23539131.977
        44.100          29.400
 108278462.132 8  84372875.95247  20604712.172                    20604716.352
        51.500          44.900
 122004631.084 7  95068587.90445  23216712.773                    23216717.375
        46.000          34.500
 110976232.364 8  86475052.07546  21118079.555                    21118085.699
        49.500          41.300
 121044637.378 7  94320527.32245  23034034.195                    23034037.457
        46.800          30.900
 125262743.914 7  97607370.95644  23836714.477                    23836718.176
        43.200          26.500
 16  9 14  1 29  0.0000000  0 10G28G13G10G20G19G15G17G24G18G12
 122864493.464 7  95738623.93744  23380337.016                    23380341.125
        44.200          28.600
 112513688.303 8  87673139.14346  21410660.898                    21410664.684
        50.700          38.900
 127244343.405 7  99151480.83344  24213799.398                    24213806.137
        43.100          27.200
 122604646.254 7  95536146.51144  23330899.734                    23330903.684
        43.100          28.500
 123580070.664 7  96296216.66044  23516514.797                    23516518.145
        44.000          29.600
 108274475.367 8  84369769.37047  20603953.422                    20603957.645
        51.300          45.100
 121931624.388 7  95011699.61545  23202819.617                    23202825.000
        45.900          34.200
 110894646.845 8  86411478.94346  21102554.195                    21102560.742
        49.500          41.800
 121006561.829 7  94290858.05945  23026788.383                    23026791.547
        46.400          30.600
 125118883.323 6  97495271.76143  23809337.563                    23809341.563
        41.800          23.800
 16  9 14  1 29 30.0000000  0 10G28G13G10G20G19G15G17G24G18G12
 122921355.447 7  95782931.97144  23391158.305                    23391160.930
        44.500          29.500
 112559538.755 8  87708866.73946  21419386.086                    21419389.555
        50.000          38.800
 127155502.955 7  99082254.49144  24196893.391                    24196899.957
        44.500          28.100
 122667876.646 7  95585416.91244  23342932.172                    23342936.527
        44.100          29.500
 123461563.556 7  96203873.47945  23493964.445                    23493968.012
        43.600          30.300
 108271013.957 8  84367072.15947  20603294.477                    20603299.125
        51.600          44.600
 121859099.741 7  94955186.93245  23189019.383                    23189023.645
        47.000          34.800
 110813372.527 8  86348148.31846  21087088.391                    21087094.469
        50.400          41.600
 120969014.401 7  94261600.31245  23019643.047                    23019646.363
        46.400          30.000
 124975192.474 6  97383304.89343  23781993.641                    23781998.035
        41.400          23.600
 16  9 14  1 30  0.0000000  0 10G28G13G10G20G19G15G17G24G18G12
 122978433.844 7  95827408.64544  23402019.547                    23402022.180
        45.400          28.700
 112605791.626 8  87744907.91146  21428187.570                    21428191.184
        50.300          38.700
 127067157.063 7  99013413.54444  24180081.977                    24180088.645
        43.800          28.000
 122731348.384 7  95634875.39644  23355011.063                    23355014.953
        44.100          27.700
 123343388.024 7  96111788.66445  23471475.422                    23471479.121
        43.400          30.200
 108268078.387 8  84364784.69247  20602736.258                    20602740.199
        52.000          45.000
 121787059.974 7  94899052.07445  23175310.180                    23175314.797
        46.700          34.600
 110732410.816 8  86285061.28447  21071681.891                    21071688.102
        50.300          42.300
 120931995.574 7  94232754.46644  23012598.289                    23012601.980
        46.700          29.500
 124831674.216 7  97271472.50044  23754683.992                    23754688.727
        42.700          26.900
 16  9 14  1 30 30.0000000  0 10G28G13G10G20G19G15G17G24G18G12
 123035719.980 7  95872047.20144  23412921.016                    23412923.844
        45.500          29.100
 112652438.865 8  87781256.39546  21437063.883                    21437067.762
        50.800          37.700
 126979301.297 7  98944954.49744  24163363.477                    24163369.000
        43.900          27.100
 122795052.345 7  95684514.81544  23367133.195                    23367137.887
        43.900          29.200
 123225541.032 7  96019959.83644  23449050.844                    23449053.801
        44.300          28.900
 108265661.713 8  84362901.56947  20602276.133                    20602280.551
        51.500          44.600
 121715500.656 7  94843291.60445  23161692.914                    23161697.777
        45.900          34.000
 110651756.583 8  86222213.83947  21056333.922                    21056340.020
        50.900          42.100
 120895499.047 7  94204315.60744  23005653.836                    23005656.527
        46.100          29.400
 124688324.547 7  97159771.46944  23727404.805                    23727409.430
        42.100          25.600
 16  9 14  1 31  0.0000000  0 10G28G13G10G20G19G15G17G24G18G12
 123093213.791 7  95916847.56344  23423861.836                    23423864.457
        43.600          28.900
 112699481.155 8  87817912.71046  21446015.719                    21446019.543
        50.700          37.300
 126891939.577 7  98876880.41244  24146739.398                    24146745.613
        44.000          26.200
 122858987.435 7  95734334.36544  23379299.852                    23379303.586
        44.800          27.800
 123108027.957 7  95928391.21345  23426688.805                    23426691.676
        43.400          30.100
 108263765.610 8  84361424.07147  20601915.492                    20601919.828
        50.900          44.800
 121644425.602 7  94787908.47445  23148167.844                    23148172.184
        47.300          34.400
 110571411.698 8  86159607.43547  21041044.836                    21041051.098
        50.600          42.500
 120859527.020 7  94176285.42644  22998808.422                    22998811.117
        46.100          29.600
 124545148.104 6  97048205.41643  23700158.695                    23700163.570
        40.200          23.900
 16  9 14  1 31 30.0000000  0 10G28G13G10G20G19G15G17G24G18G12
 123150912.463 7  95961807.56044  23434841.141                    23434844.355
        44.600          29.600
 112746916.710 8  87854875.45446  21455042.781                    21455046.734
        49.800          38.100
 126805073.233 7  98809192.33944  24130209.297                    24130215.277
        44.000          27.200
 122923149.881 7  95784331.05744  23391509.320                    23391513.555
        44.100          28.700
 122990851.563 7  95837084.97145  23404390.508                    23404394.398
        44.600          31.200
 108262389.275 8  84360351.59447  20601653.742                    20601657.887
        50.300          44.600
 121573835.886 7  94732903.53945  23134734.859                    23134739.078
        46.900          33.900
 110491376.482 8  86097242.34047  21025814.492                    21025820.855
        51.000          42.300
 120824078.856 7  94148663.46544  22992062.797                    22992066.066
        46.300          29.700
 124402146.021 7  96936775.23644  23672947.266                    23672951.344
        42.100          26.200
 16  9 14  1 32  0.0000000  0 10G28G13G10G20G19G15G17G24G18G12
 123208811.916 7  96006924.00744  23445858.961                    23445862.352
        44.900          29.800
 112794741.996 8  87892141.88346  21464143.469                    21464147.785
        50.300          38.100
 126718702.219 7  98741890.26544  24113773.469                    24113779.281
        43.400          27.200
 122987534.801 7  95834501.11844  23403761.555                    23403765.395
        44.500          28.600
 122874013.501 7  95746042.36345  23382157.141                    23382160.801
        44.100          30.400
 108261530.278 8  84359682.23747  20601489.953                    20601493.844
        50.700          44.500
 121503731.490 7  94678276.73545  23121394.766                    23121398.172
        47.300          33.800
 110411649.803 8  86035117.66247  21010642.852                    21010649.391
        50.700          42.700
 120789152.537 7  94121448.14945  22985416.672                    22985419.754
        46.200          30.100
 124259318.462 7  96825481.00544  23645767.727                    23645772.680
        42.800          27.000
 16  9 14  1 32 30.0000000  0 10G28G13G10G20G19G15G17G24G18G12
 123266912.776 7  96052197.40044  23456915.430                    23456918.402
        44.500          29.500
 112842958.938 8  87929713.49746  21473318.922                    21473323.117
        49.300          38.200
 126632831.225 7  98674977.80544  24097432.563                    24097438.676
        43.600          26.800
 123052141.748 7  95884844.16044  23416055.625                    23416059.902
        44.500          28.300
 122757519.623 7  95655267.94445  23359989.156                    23359992.938
        44.100          31.500
 108261191.370 8  84359418.14147  20601425.805                    20601429.203
        50.200          44.100
 121434116.945 7  94624031.65245  23108147.836                    23108151.160
        47.300          35.000
 110332234.887 8  85973235.91747  20995530.453                    20995537.105
        51.500          42.200
 120754751.010 7  94094641.74444  22978870.188                    22978873.301
        46.400          29.800
 124116670.226 6  96714326.58744  23618622.953                    23618627.008
        40.800          25.100
 16  9 14  1 33  0.0000000  0 10G28G13G10G20G19G15G17G24G18G12
 123325211.564 7  96097625.04744  23468009.203                    23468012.238
        44.200          29.400
 112891564.708 8  87967588.10846  21482568.250                    21482572.723
        49.900          38.300
 126547460.879 7  98608455.44644  24081187.406                    24081193.656
        43.400          26.800
 123116966.312 7  95935356.77044  23428391.836                    23428395.445
        44.100          27.900
 122641372.132 7  95564763.42445  23337887.367                    23337890.141
        43.900          30.500
 108261370.724 8  84359557.88847  20601459.570                    20601463.656
        50.000          43.900
 121364992.858 7  94570168.74845  23094993.773                    23094997.793
        47.900          35.200
 110253131.301 8  85911596.76547  20980477.773                    20980484.281
        51.000          42.000
 120720872.769 7  94068243.11144  22972423.594                    22972426.945
        46.400          29.400
 123974202.109 7  96603312.50244  23591512.250                    23591516.590
        42.100          26.300
 16  9 14  1 33 30.0000000  0 10G28G13G10G20G19G15G17G24G18G12
 123383712.606 7  96143210.27644  23479141.508                    23479144.938
        43.100          29.400
 112940564.429 8  88005769.69146  21491892.313                    21491896.531
        49.400          36.900
 126462599.302 7  98542329.54844  24065038.211                    24065044.813
        43.400          25.800
 123182012.173 7  95986041.83744  23440769.063                    23440773.523
        43.200          27.900
 122525580.700 7  95474536.34245  23315852.695                    23315855.926
        43.900          31.100
 108262074.182 8  84360106.02247  20601593.383                    20601597.012
        51.000          43.700
 121296367.287 7  94516694.28845  23081934.805                    23081938.832
        47.500          35.000
 110174345.974 8  85850205.61146  20965485.469                    20965491.949
        50.700          41.800
 120687524.240 7  94042257.22845  22966077.844                    22966080.754
        47.000          30.800
 123831922.481 7  96492445.23744  23564437.305                    23564441.047
        44.100          26.700
 16  9 14  1 34  0.0000000  0 10G28G13G10G20G19G15G17G24G18G12
 123442407.453 7  96188946.50044  23490310.422                    23490313.887
        44.500          29.300
 112989950.453 8  88044252.29346  21501290.031                    21501293.770
        49.500          36.300
 126378242.105 7  98476596.66444  24048985.859                    24048992.035
        42.600          26.000
 123247269.711 6  96036891.88644  23453187.125                    23453191.270
        41.700          25.600
 122410142.436 7  95384584.45445  23293885.422                    23293888.656
        43.500          31.600
 108263295.201 8  84361057.46647  20601825.992                    20601829.586
        49.600          44.000
 121228235.634 8  94463604.71045  23068969.148                    23068973.793
        48.100          35.200
 110095873.080 8  85789057.89947  20950552.633                    20950558.844
        50.900          42.200
 120654698.760 7  94016678.93145  22959830.945                    22959834.293
        46.400          30.200
 123689827.006 7  96381721.51444  23537396.961                    23537401.211
        43.700          27.700
 16  9 14  1 34 30.0000000  0 10G28G13G10G20G19G15G17G24G18G12
 123501293.357 7  96234831.62244  23501516.406                    23501519.512
        44.200          28.600
 113039720.877 8  88083034.43146  21510761.445                    21510765.129
        50.500          36.500
 126294390.479 7  98411257.72144  24033029.172                    24033035.246
        42.300          25.600
 123312735.149 7  96087903.86544  23465645.422                    23465648.785
        42.700          26.000
 122295060.022 7  95294909.87944  23271985.250                    23271988.852
        42.800          29.900
 108265032.590 8  84362411.26347  20602156.516                    20602160.242
        51.300          43.500
 121160599.184 7  94410901.01445  23056098.906                    23056103.301
        47.800          34.800
 110017712.329 8  85728153.41947  20935679.305                    20935685.426
        50.900          42.200
 120622395.802 7  93991507.76945  22953683.922                    22953687.199
        45.800          30.200
 123547917.580 7  96271142.75244  23510392.648                    23510397.461
        43.800          28.500
 16  9 14  1 35  0.0000000  0 10G28G13G10G20G19G15G17G24G18G12
 123560372.406 7  96280867.22544  23512759.000                    23512762.949
        43.600          29.600
 113089878.564 8  88122118.32146  21520306.242                    21520310.539
        49.900          37.500
 126211050.450 7  98346317.44244  24017170.727                    24017176.484
        42.700          25.800
 123378409.511 7  96139078.70844  23478143.023                    23478146.723
        42.600          25.800
 122180340.982 7  95205518.44845  23250155.320                    23250158.684
        43.100          30.900
 108267290.082 8  84364170.33347  20602586.266                    20602589.957
        50.200          44.000
 121093463.783 7  94358587.74645  23043322.797                    23043327.430
        46.900          34.400
 109939869.510 8  85667496.68647  20920866.258                    20920872.652
        51.300          42.700
 120590619.418 7  93966746.95145  22947637.094                    22947640.477
        45.400          30.400
 123406200.335 7  96160713.77744  23483424.789                    23483429.496
        43.400          29.400
 16  9 14  1 35 30.0000000  0 10G28G13G10G20G19G15G17G24G18G12
 123619635.392 7  96327046.16044  23524036.047                    23524040.141
        44.300          28.900
 113140414.835 8  88161497.20046  21529922.844                    21529926.961
        49.700          37.600
 126128216.646 7  98281771.62244  24001407.953                    24001413.289
        42.600          26.600
 123444282.909 6  96190408.58144  23490677.328                    23490681.883
        40.800          26.200
 122065981.497 7  95116407.17945  23228393.773                    23228396.629
        43.400          30.400
 108270060.018 8  84366328.71847  20603113.219                    20603116.867
        49.700          43.800
 121026823.534 7  94306660.30945  23030641.641                    23030645.602
        47.400          33.800
 109862337.478 8  85607082.12047  20906112.641                    20906118.516
        51.000          43.100
 120559362.754 7  93942391.10145  22941688.938                    22941692.770
        45.000          30.200
 123264670.442 7  96050430.73344  23456492.750                    23456496.977
        43.100          29.700
 16  9 14  1 36  0.0000000  0 10G28G13G10G20G19G15G17G24G18G12
 123679083.796 7  96373369.58544  23535349.281                    23535352.219
        45.500          28.400
 113191332.012 8  88201172.89146  21539612.242                    21539616.418
        49.300          37.000
 126045894.510 7  98217624.50944  23985741.945                    23985747.742
        42.700          25.900
 123510355.945 6  96241894.05344  23503250.836                    23503255.078
        40.500          24.500
 121951988.535 7  95027581.51645  23206701.438                    23206704.680
        42.600          31.000
 108273345.734 8  84368889.00247  20603738.805                    20603742.410
        49.800          43.500
 120960684.169 7  94255123.17845  23018055.961                    23018059.434
        47.700          33.600
 109785120.784 8  85546913.26747  20891418.516                    20891424.738
        51.000          42.600
 120528628.268 7  93918442.14545  22935840.602                    22935844.070
        45.500          30.400
 123123333.069 7  95940297.73844  23429596.656                    23429601.113
        44.500          28.800
 16  9 14  1 36 30.0000000  0 10G28G13G10G20G19G15G17G24G18G12
 123738714.389 7  96419834.99244  23546696.172                    23546699.230
        44.900          28.400
 113242627.649 8  88241143.50046  21549373.203                    21549377.195
        49.500          36.200
 125964084.598 7  98153876.50944  23970174.102                    23970180.051
        42.900          25.300
 123576624.243 6  96293531.66844  23515861.438                    23515865.098
        40.500          24.900
 121838364.302 7  94939043.17245  23185080.008                    23185082.895
        42.900          30.800
 108277145.213 8  84371849.62047  20604461.813                    20604465.160
        49.500          43.200
 120895046.434 7  94203976.91245  23005565.305                    23005569.059
        47.000          34.500
 109708218.296 8  85486989.25547  20876784.789                    20876790.895
        51.500          43.000
 120498415.156 7  93894899.45045  22930091.227                    22930094.430
        46.300          30.100
 122982189.413 7  95830315.67344  23402738.195                    23402742.500
        44.500          29.600
 16  9 14  1 37  0.0000000  0 10G28G13G10G20G19G15G17G24G18G12
 123798533.131 7  96466447.00044  23558079.789                    23558082.469
        46.300          29.400
 113294308.310 8  88281414.12645  21559207.563                    21559211.145
        49.600          35.800
 125882796.651 7  98090535.24344  23954705.586                    23954711.461
        42.600          27.300
 123643092.781 6  96345325.33544  23528510.000                    23528513.375
        41.200          25.700
 121725120.062 7  94850800.92345  23163529.906                    23163533.055
        43.600          31.500
 108281466.322 8  84375216.70547  20605283.898                    20605287.633
        49.300          43.100
 120829919.706 7  94153228.83745  22993171.930                    22993176.348
        47.600          34.800
 109631638.837 8  85427316.95347  20862211.531                    20862218.195
        51.700          42.600
 120468731.369 7  93871769.21745  22924442.406                    22924445.859
        45.600          30.900
 122841249.769 7  95720492.58944  23375917.953                    23375922.418
        43.000          29.900
 16  9 14  1 37 30.0000000  0 10G28G13G10G20G19G15G17G24G18G12
 123858529.122 7  96513197.11444  23569496.227                    23569499.977
        45.800          29.700
 113346363.675 8  88321976.74346  21569113.422                    21569117.402
        49.300          36.200
 125802023.542 7  98027595.16344  23939334.930                    23939341.277
        42.600          26.600
 123709749.478 6  96397265.60044  23541194.953                    23541198.391
        39.800          25.800
 121612250.187 7  94762850.39545  23142051.039                    23142054.047
        44.100          31.400
 108286299.718 8  84378982.97847  20606203.531                    20606207.484
        50.300          42.800
 120765296.668 7  94102873.25845  22980874.852                    22980878.645
        47.600          34.800
 109555374.687 8  85367890.35147  20847699.500                    20847705.777
        51.900          42.900
 120439567.621 7  93849044.20245  22918893.336                    22918895.797
        46.100          30.000
 122700506.858 7  95610822.81344  23349135.367                    23349140.242
        43.900          29.600
 16  9 14  1 38  0.0000000  0 10G28G13G10G20G19G15G17G24G18G12
 123918705.659 7  96560087.90744  23580947.430                    23580950.441
        44.900          27.600
 113398798.045 8  88362834.69246  21579091.453                    21579095.941
        49.100          37.000
 125721772.566 7  97965061.93044  23924063.586                    23924070.129
        43.700          28.500
 123776596.784 6  96449354.38844  23553915.406                    23553919.453
        40.800          24.900
 121499763.546 7  94675198.47745  23120645.648                    23120649.164
        43.400          32.000
 108291650.280 8  84383152.23647  20607221.648                    20607225.344
        50.500          43.400
 120701184.419 7  94052915.68945  22968674.234                    22968678.070
        47.800          34.200
 109479431.485 8  85308713.83447  20833247.492                    20833253.668
        50.900          43.100
 120410929.132 7  93826728.47445  22913443.453                    22913446.230
        47.100          30.600
 122559968.727 7  95501312.59445  23322392.352                    23322396.902
        44.800          30.800
 16  9 14  1 38 30.0000000  0 10G28G13G10G20G19G15G17G24G18G12
 123979056.641 7  96607114.64744  23592431.688                    23592434.469
        44.800          28.000
 113451605.954 8  88403983.68446  21589140.055                    21589145.160
        49.300          37.000
 125642041.563 7  97902933.87444  23908891.758                    23908898.070
        43.100          27.500
 123843627.855 6  96501586.36044  23566670.523                    23566675.516
        41.300          24.200
 121387659.772 7  94587844.91045  23099313.094                    23099316.652
        44.700          31.900
 108297513.183 8  84387720.72047  20608337.719                    20608341.492
        50.200          43.300
 120637580.816 8  94003354.45245  22956570.984                    22956575.094
        48.700          34.300
 109403806.260 8  85249785.09547  20818856.680                    20818862.586
        51.300          42.000
 120382811.713 7  93804818.78444  22908093.109                    22908095.383
        47.100          29.500
 122419633.476 7  95391960.47545  23295686.703                    23295691.902
        44.200          30.600
 16  9 14  1 39  0.0000000  0 10G28G13G10G20G19G15G17G24G18G12
 124039580.672 7  96654276.24344  23603949.242                    23603952.070
        44.700          29.000
 113504786.722 8  88445423.21046  21599260.430                    21599264.941
        49.300          37.100
 125562832.755 7  97841212.71544  23893818.766                    23893824.844
        43.300          28.900
 123910840.353 7  96553959.72044  23579460.758                    23579465.453
        42.100          25.600
 121275942.495 7  94500792.49945  23078053.836                    23078057.695
        43.400          32.500
 108303888.953 8  84392688.84547  20609550.570                    20609554.609
        49.800          43.800
 120574488.034 7  93954191.25045  22944565.109                    22944569.363
        47.800          34.700
 109328500.457 8  85191105.25046  20804526.242                    20804532.496
        51.200          41.400
 120355215.931 7  93783315.55745  22902841.328                    22902844.613
        46.400          30.500
 122279503.847 7  95282768.55044  23269021.156                    23269025.742
        44.300          29.900
 16  9 14  1 39 30.0000000  0 10G28G13G10G20G19G15G17G24G18G12
 124100280.567 7  96701574.85844  23615500.219                    23615503.520
        44.900          28.100
 113558343.893 8  88487156.05146  21609452.055                    21609456.281
        49.900          36.700
 125484152.502 7  97779903.42444  23878845.961                    23878852.293
        43.000          29.700
 123978235.992 7  96606475.82043  23592286.148                    23592290.574
        42.100          23.900
 121164619.813 7  94414047.56845  23056870.352                    23056873.246
        44.000          31.800
 108310781.339 8  84398059.51847  20610862.523                    20610866.215
        50.400          43.100
 120511911.902 7  93905430.65045  22932656.656                    22932661.277
        46.400          33.900
 109253518.934 8  85132678.09247  20790258.180                    20790264.016
        51.900          42.600
 120328146.087 7  93762222.16144  22897689.852                    22897693.508
        45.800          29.700
 122139586.181 7  95173741.79845  23242396.266                    23242400.578
        44.500          31.600
 16  9 14  1 40  0.0000000  0 10G28G13G10G20G19G15G17G24G18G12
 124161151.531 7  96749006.77544  23627083.430                    23627086.621
        44.700          28.100
 113612272.802 8  88529178.56346  21619714.344                    21619718.195
        50.000          36.100
 125405999.606 7  97719005.04144  23863974.234                    23863980.090
        44.300          28.000
 124045808.544 6  96659129.73043  23605143.828                    23605148.816
        40.700          22.600
 121053692.187 7  94327610.47245  23035761.945                    23035763.930
        45.100          32.100
 108318186.958 8  84403830.11447  20612271.750                    20612275.262
        50.900          43.500
 120449851.747 7  93857072.11345  22920847.375                    22920851.484
        45.800          33.600
 109178859.290 8  85074501.75847  20776050.563                    20776056.895
        51.800          42.500
 120301599.007 7  93741536.11644  22892638.141                    22892641.836
        45.900          29.700
 121999880.311 7  95064880.10545  23215810.281                    23215815.301
        43.800          31.000
 16  9 14  1 40 30.0000000  0 10G28G13G10G20G19G15G17G24G18G12
 124222186.869 7  96796566.76044  23638697.734                    23638701.621
        44.600          29.600
 113666567.450 8  88571486.07045  21630046.344                    21630050.332
        49.600          35.100
 125328371.283 7  97658515.43044  23849201.984                    23849208.375
        43.200          28.500
 124113550.799 6  96711915.86943  23618035.398                    23618040.008
        41.600          23.400
 120943158.478 7  94241480.33045  23014727.688                    23014730.379
        44.400          32.600
 108326100.893 8  84409996.81447  20613777.391                    20613781.441
        49.600          42.800
 120388304.411 7  93809113.16745  22909134.969                    22909139.676
        45.900          33.600
 109104518.078 8  85016573.53647  20761904.070                    20761910.336
        51.200          42.900
 120275569.720 7  93721253.54344  22887684.875                    22887688.266
        45.000          29.700
 121860383.507 7  94956181.30445  23189265.594                    23189269.918
        43.500          31.400
 16  9 14  1 41  0.0000000  0 10G28G13G10G20G19G15G17G24G18G12
 124283391.827 7  96844258.92244  23650344.883                    23650348.281
        45.200          28.500
 113721234.027 8  88614083.38745  21640449.031                    21640453.031
        49.800          35.900
 125251276.534 6  97598441.60044  23834531.594                    23834537.980
        39.800          29.300
 124181467.051 6  96764837.60243  23630959.734                    23630963.793
        41.800          23.800
 120833029.021 7  94155665.21245  22993770.703                    22993773.465
        44.300          31.100
 108334529.924 8  84416564.87747  20615381.398                    20615385.637
        49.500          43.100
 120327278.638 7  93761560.63645  22897522.305                    22897527.234
        46.100          34.100
 109030503.648 8  84958899.96147  20747819.516                    20747825.844
        49.200          42.300
 120250065.439 7  93701380.07645  22882832.172                    22882835.277
        44.400          30.200
 121721105.169 7  94847652.75145  23162761.344                    23162765.980
        44.900          31.500
 16  9 14  1 41 30.0000000  0 10G28G13G10G20G19G15G17G24G18G12
 124344762.124 7  96892079.94044  23662023.281                    23662026.508
        43.700          27.200
 113776268.603 8  88656967.45446  21650921.695                    21650926.086
        49.700          36.000
 125174714.426 6  97538782.82044  23819962.766                    23819968.742
        41.800          27.700
 124249551.446 6  96817890.35843  23643916.039                    23643920.016
        40.900          22.600
 120723305.006 7  94070166.00545  22972890.820                    22972892.797
        44.600          31.400
 108343470.734 8  84423531.72447  20617082.859                    20617086.926
        50.200          43.600
 120266773.429 7  93714413.75045  22886008.711                    22886013.285
        46.900          35.400
 108956813.901 8  84901479.37847  20733796.883                    20733803.152
        51.000          43.100
 120225083.169 7  93681913.35945  22878077.711                    22878081.523
        45.300          30.000
 121582045.223 7  94739294.34445  23136299.438                    23136303.520
        44.600          30.100
 16  9 14  1 42  0.0000000  0 10G28G13G10G20G19G15G17G24G18G12
 124406292.974 7  96940026.04044  23673732.102                    23673735.582
        43.100          27.100
 113831667.011 8  88700135.01445  21661463.500                    21661467.949
        49.500          35.700
 125098683.879 7  97479538.23344  23805493.258                    23805500.684
        42.600          28.200
 124317798.536 6  96871069.89643  23656902.508                    23656906.930
        39.400          21.100
 120613986.698 7  93984982.94345  22952088.008                    22952090.145
        44.700          31.600
 108352919.966 8  84430894.75647  20618881.055                    20618885.016
        50.500          42.800
 120206787.627 7  93667671.60745  22874593.711                    22874598.246
        47.300          34.900
 108883446.198 8  84844309.73847  20719835.477                    20719841.531
        51.200          42.500
 120200619.771 7  93662850.97644  22873422.672                    22873426.410
        45.000          29.800
 121443202.728 7  94631105.40545  23109878.602                    23109883.043
        45.900          31.600
 16  9 14  1 42 30.0000000  0 10G28G13G10G20G19G15G17G24G18G12
 124467982.822 7  96988096.06244  23685471.484                    23685475.102
        43.400          26.900
 113887428.605 8  88743585.58645  21672074.742                    21672079.250
        48.800          35.900
 125023187.331 7  97420709.75944  23791127.273                    23791133.859
        42.200          28.500
 124386206.183 6  96924374.56343  23669920.430                    23669923.711
        38.600          21.700
 120505078.069 7  93900119.09345  22931363.680                    22931366.047
        44.700          31.400
 108362877.735 8  84438654.04747  20620776.039                    20620779.652
        50.600          42.900
 120147323.383 8  93621335.87745  22863278.008                    22863282.473
        48.200          34.200
 108810402.626 8  84787392.67347  20705935.672                    20705942.176
        51.200          42.800
 120176675.602 7  93644193.17144  22868866.414                    22868869.441
        45.700          29.800
 121304580.475 7  94523088.08845  23083499.109                    23083503.086
        45.400          31.300
 16  9 14  1 43  0.0000000  0 10G28G13G10G20G19G15G17G24G18G12
 124529828.697 7  97036287.63144  23697239.883                    23697243.777
        43.300          26.000
 113943550.562 8  88787316.95445  21682754.766                    21682758.945
        49.800          35.800
 124948225.100 7  97362297.64644  23776862.391                    23776868.914
        42.400          28.900
 124454770.138 6  96977801.00143  23682967.164                    23682970.965
        37.400          21.800
 120396581.313 7  93815576.20145  22910717.313                    22910720.031
        45.400          30.800
 108373342.093 8  84446808.08447  20622767.055                    20622770.855
        50.200          43.400
 120088380.885 8  93575406.66945  22852061.719                    22852066.047
        48.200          34.500
 108737682.953 8  84730727.99747  20692097.406                    20692103.566
        51.400          42.800
 120153249.092 7  93625938.73645  22864408.188                    22864411.656
        46.100          30.100
 121166179.707 7  94415243.35345  23057162.508                    23057166.641
        44.700          31.900
 16  9 14  1 43 30.0000000  0 10G28G13G10G20G19G15G17G24G18G12
 124591830.267 7  97084600.52144  23709038.836                    23709042.625
        43.200          26.900
 114000032.960 8  88831329.20045  21693503.297                    21693506.840
        50.000          35.900
 124873799.965 6  97304304.03244  23762699.531                    23762705.891
        39.800          29.200
 124523488.469 6  97031347.73943  23696044.703                    23696048.133
        40.200          22.000
 120288501.419 7  93731358.12345  22890150.023                    22890153.273
        45.600          31.600
 108384313.909 8  84455357.53147  20624855.273                    20624859.215
        50.500          42.300
 120029963.287 7  93529886.47945  22840945.773                    22840949.742
        47.300          34.200
 108665288.812 8  84674316.97747  20678321.563                    20678327.801
        50.000          42.300
 120130341.386 7  93608088.54844  22860049.242                    22860052.406
        46.700          29.900
 121028003.590 7  94307573.64645  23030868.805                    23030873.238
        45.200          32.000
 16  9 14  1 44  0.0000000  0 10G28G13G10G20G19G15G17G24G18G12
 124653985.652 7  97133033.27144  23720866.617                    23720870.152
        44.200          25.600
 114056874.695 8  88875621.44845  21704319.641                    21704323.828
        49.000          35.700
 124799914.067 7  97246730.60944  23748639.703                    23748646.480
        42.800          28.700
 124592358.814 6  97085012.93043  23709149.797                    23709153.410
        41.100          22.000
 120180842.006 7  93647467.68345  22869662.875                    22869666.621
        44.900          32.400
 108395792.887 8  84464302.18047  20627039.313                    20627043.578
        50.300          42.900
 119972072.075 7  93484776.46845  22829929.047                    22829933.063
        47.000          34.800
 108593220.850 8  84618160.12647  20664607.242                    20664613.648
        51.800          42.800
 120107952.604 7  93590642.73544  22855788.766                    22855791.680
        45.800          28.700
 120890054.660 7  94200080.98945  23004617.984                    23004622.516
        46.400          32.400
 16  9 14  1 44 30.0000000  0 10G28G13G10G20G19G15G17G24G18G12
 124716296.659 7  97181587.29944  23732724.141                    23732727.148
        43.400          25.200
 114114077.670 8  88920195.17145  21715204.922                    21715209.309
        48.400          34.700
 124726572.515 7  97189581.35044  23734683.227                    23734689.895
        43.300          28.600
 124661381.971 6  97138797.18543  23722283.969                    23722288.672
        40.500          22.800
 120073609.373 7  93563909.81045  22849257.227                    22849260.613
        45.300          32.700
 108407781.953 8  84473644.30147  20629321.336                    20629325.004
        50.700          43.400
 119914712.469 7  93440080.70445  22819013.414                    22819017.762
        46.800          33.600
 108521483.567 8  84562260.94647  20650956.375                    20650962.234
        52.000          42.400
 120086085.535 7  93573603.45544  22851627.281                    22851630.699
        46.200          28.600
 120752338.636 7  94092769.81345  22978411.430                    22978415.512
        47.300          32.600
 16  9 14  1 45  0.0000000  0 10G28G13G10G20G19G15G17G24G18G12
 124778755.928 7  97230256.86744  23744609.148                    23744612.203
        42.600          25.300
 114171635.439 8  88965045.35945  21726157.711                    21726162.125
        48.000          34.700
 124653771.412 7  97132853.22744  23720829.398                    23720836.258
        43.300          29.300
 124730549.422 6  97192693.87943  23735446.656                    23735450.160
        39.400          19.300
 119966801.396 7  93480682.83845  22828933.180                    22828935.992
        46.000          32.900
 108420274.946 8  84483379.09147  20631698.508                    20631702.586
        50.500          42.800
 119857880.481 7  93395796.04445  22808198.266                    22808202.867
        46.300          33.800
 108450072.681 8  84506616.10747  20637367.234                    20637373.270
        52.100          42.300
 120064734.286 7  93556966.09844  22847564.094                    22847567.395
        45.800          28.700
 120614852.301 7  93985637.62145  22952248.852                    22952253.090
        47.500          33.300
 16  9 14  1 45 30.0000000  0 10G28G13G10G20G19G15G17G24G18G12
 124841369.196 7  97279046.43144  23756523.961                    23756527.863
        42.100          25.000
 114229553.871 8  89010176.59445  21737179.109                    21737183.367
        48.200          34.700
 124581519.820 7  97076553.27845  23707081.211                    23707087.234
        45.200          30.200
 124799865.677 6  97246706.53443  23748637.406                    23748639.777
        40.900          20.900
 119860429.259 7  93397795.48645  22808690.594                    22808693.535
        46.000          33.000
 108433278.879 8  84493512.00947  20634173.141                    20634177.113
        51.200          43.200
 119801585.147 7  93351929.56145  22797485.797                    22797490.457
        45.700          33.400
 108378996.206 8  84451231.83847  20623841.617                    20623847.836
        51.600          42.400
 120043905.847 7  93540736.13344  22843601.234                    22843604.168
        46.000          29.800
 120477605.415 7  93878692.00245  22926131.414                    22926135.727
        46.400          32.100
 16  9 14  1 46  0.0000000  0 10G28G13G10G20G19G15G17G24G18G12
 124904129.007 7  97327950.16044  23768467.008                    23768471.090
        42.500          26.600
 114287826.233 8  89055583.61745  21748267.977                    21748272.141
        48.300          34.500
 124509813.817 7  97020678.48244  23693436.008                    23693442.121
        44.100          29.600
 124869322.370 7  97300828.68443  23761854.195                    23761857.367
        43.000          21.300
 119754491.202 7  93315246.37745  22788530.875                    22788534.293
        46.000          32.800
 108446787.461 8  84504038.16247  20636743.391                    20636747.570
        50.700          43.000
 119745822.354 7  93308478.04145  22786874.484                    22786878.906
        44.600          33.300
 108308249.278 8  84396104.36847  20610379.250                    20610385.035
        51.500          42.500
 120023594.423 7  93524909.04144  22839736.000                    22839739.270
        45.800          29.000
 120340594.492 7  93771930.23645  22900058.641                    22900063.344
        44.900          32.500
 16  9 14  1 46 30.0000000  0 10G28G13G10G20G19G15G17G24G18G12
 124967031.439 6  97376965.01444  23780437.328                    23780441.594
        41.500          26.500
 114346449.215 8  89101263.84845  21759423.891                    21759428.188
        48.200          34.800
 124438653.056 7  96965228.52044  23679893.938                    23679900.297
        45.000          29.300
 124938914.776 7  97355056.53843  23775097.211                    23775100.777
        43.100          22.900
 119648987.911 7  93233036.03645  22768454.672                    22768457.543
        46.200          31.800
 108460797.943 8  84514955.41047  20639409.672                    20639413.891
        49.900          43.000
 119690591.066 7  93265440.68445  22776364.000                    22776368.691
        45.200          33.400
 108237831.011 8  84341232.99047  20596978.836                    20596985.348
        52.100          43.200
 120003797.540 7  93509482.87844  22835968.813                    22835972.375
        45.100          29.900
 120203819.766 7  93665352.56745  22874031.531                    22874036.129
        46.000          32.400
 16  9 14  1 47  0.0000000  0 10G28G13G10G20G19G15G17G24G18G12
 125030076.163 7  97426090.75944  23792434.180                    23792437.719
        42.900          25.800
 114405422.485 8  89147217.02945  21770646.328                    21770650.645
        48.900          35.700
 124368040.520 7  96910205.77344  23666457.313                    23666463.754
        43.900          29.900
 125008641.486 6  97409389.01343  23788364.688                    23788369.297
        41.100          22.200
 119543924.249 7  93151168.27045  22748461.117                    22748464.770
        45.100          31.800
 108475311.295 8  84526264.50747  20642171.523                    20642175.445
        51.000          42.400
 119635894.530 7  93222820.02345  22765955.680                    22765959.992
        46.200          33.300
 108167743.245 8  84286619.15747  20583641.781                    20583647.777
        51.500          43.000
 119984516.791 7  93494458.91245  22832300.008                    22832303.176
        45.100          30.400
 120067284.924 7  93558961.75545  22848050.086                    22848054.707
        45.100          33.000
 16  9 14  1 47 30.0000000  0 10G28G13G10G20G19G15G17G24G18G12
 125093262.250 6  97475326.66744  23804457.914                    23804461.719
        41.000          25.600
 114464746.213 8  89193443.27345  21781934.727                    21781939.691
        49.100          35.400
 124297978.896 7  96855612.29045  23653124.609                    23653131.281
        45.100          30.900
 125078500.836 6  97463824.81943  23801659.703                    23801663.242
        41.400          22.000
 119439304.480 7  93069646.38945  22728553.008                    22728555.820
        45.900          32.200
 108490327.972 8  84537965.80247  20645028.805                    20645033.250
        50.100          42.400
 119581735.382 7  93180618.11045  22755649.789                    22755654.340
        46.600          33.600
 108097988.036 8  84232264.45547  20570367.570                    20570374.098
        52.200          42.900
 119965751.962 7  93479836.95045  22828728.953                    22828732.555
        45.500          31.000
 119930993.039 7  93452760.33745  22822114.391                    22822119.160
        43.900          32.100
 16  9 14  1 48  0.0000000  0 10G28G13G10G20G19G15G17G24G18G12
 125156582.515 6  97524667.14543  23816507.555                    23816510.754
        40.200          22.800
 114524413.579 8  89239937.30245  21793289.297                    21793293.523
        48.600          34.800
 124228464.238 7  96801445.02145  23639896.578                    23639903.410
        46.000          30.800
 125148484.386 7  97518357.46943  23814976.945                    23814980.305
        42.900          22.200
 119335126.702 7  92988468.91945  22708728.680                    22708731.664
        45.400          32.600
 108505841.652 8  84550054.37147  20647981.023                    20647985.094
        50.200          43.000
 119528109.373 7  93138831.62645  22745444.914                    22745449.723
        46.900          34.600
 108028560.795 8  84178165.30947  20557156.070                    20557162.391
        51.800          43.200
 119947497.432 7  93465612.62145  22825255.383                    22825258.441
        45.700          30.700
 119794941.000 7  93346745.74945  22796224.625                    22796228.883
        45.200          31.600
 16  9 14  1 48 30.0000000  0 10G28G13G10G20G19G15G17G24G18G12
 125220036.707 7  97574111.94944  23828583.172                    23828586.059
        42.800          26.300
 114584423.579 8  89286698.33345  21804709.008                    21804712.703
        48.900          34.600
 124159498.876 7  96747705.77345  23626772.789                    23626779.410
        44.900          30.600
 125218590.047 7  97572985.29243  23828317.625                    23828320.434
        43.200          22.300
 119231394.913 7  92907638.98045  22688989.367                    22688992.473
        45.900          33.600
 108521852.534 8  84562530.36947  20651027.688                    20651032.031
        50.300          42.700
 119475018.920 7  93097462.47145  22735342.297                    22735346.902
        47.800          35.300
 107959462.996 8  84124322.86547  20544007.344                    20544013.672
        51.900          43.100
 119929753.571 7  93451786.22945  22821878.820                    22821881.691
        45.800          30.800
 119659131.814 7  93240920.44245  22770380.984                    22770385.336
        43.400          31.200
 16  9 14  1 49  0.0000000  0 10G28G13G10G20G19G15G17G24G18G12
 125283627.052 7  97623662.86044  23840683.344                    23840687.375
        42.700          25.900
 114644779.795 8  89333729.15145  21816194.156                    21816198.289
        48.700          34.600
 124091088.731 7  96694399.19045  23613754.984                    23613761.371
        44.900          30.500
 125288819.801 7  97627709.80943  23841681.938                    23841685.066
        42.100          22.800
 119128117.077 7  92827162.77545  22669336.773                    22669339.676
        44.500          32.800
 108538364.034 8  84575396.46647  20654170.234                    20654174.078
        50.700          42.500
 119422469.908 8  93056515.22545  22725343.008                    22725347.324
        48.200          35.800
 107890700.064 8  84070741.36347  20530922.234                    20530928.488
        51.500          43.000
 119912524.315 7  93438360.81345  22818600.313                    22818603.586
        46.200          30.400
 119523571.997 7  93135289.42245  22744584.492                    22744589.344
        44.300          32.300
 16  9 14  1 49 30.0000000  0 10G28G13G10G20G19G15G17G24G18G12
 125347347.419 6  97673315.07744  23852808.477                    23852813.172
        40.400          26.300
 114705476.188 7  89381025.02945  21827744.656                    21827749.047
        47.500          34.800
 124023230.940 7  96641522.97945  23600842.633                    23600848.652
        45.400          30.200
 125359166.115 6  97682525.07744  23855067.563                    23855072.770
        40.500          24.900
 119025292.238 7  92747039.55945  22649768.922                    22649772.977
        44.500          34.100
 108555371.787 8  84588649.24747  20657406.523                    20657410.199
        50.600          43.800
 119370458.843 8  93015987.15646  22715445.461                    22715449.449
        48.500          36.200
 107822268.416 8  84017418.00247  20517900.164                    20517906.355
        51.900          42.900
 119895804.873 7  93425332.66544  22815418.703                    22815422.020
        45.400          29.100
 119388259.561 7  93029851.18845  22718835.633                    22718840.004
        43.100          31.400
 16  9 14  1 50  0.0000000  0 10G28G13G10G20G19G15G17G24G18G12
 125411196.938 6  97723067.92643  23864958.773                    23864962.527
        41.900          22.800
 114766512.389 8  89428585.67545  21839358.930                    21839363.859
        48.000          34.000
 123955927.879 7  96589079.03845  23588034.445                    23588040.844
        45.100          30.700
 125429627.254 7  97737429.79744  23868477.055                    23868481.352
        42.000          25.100
 118922924.344 7  92667272.38545  22630289.172                    22630293.121
        45.500          34.400
 108572875.884 8  84602288.78747  20660737.148                    20660741.480
        50.000          42.100
 119318988.154 8  92975880.14645  22705650.930                    22705655.555
        48.800          35.700
 107754170.018 8  83964354.31647  20504941.219                    20504947.137
        51.600          42.200
 119879595.609 7  93412702.04844  22812334.156                    22812337.160
        46.400          28.500
 119253197.855 7  92924608.33045  22693134.820                    22693138.816
        43.800          30.500
 16  9 14  1 50 30.0000000  0 10G28G13G10G20G19G15G17G24G18G12
 125475175.886 7  97772921.62143  23877133.891                    23877137.219
        42.500          22.900
 114827888.876 8  89476411.48945  21851038.961                    21851042.773
        48.100          34.200
 123889182.945 7  96537070.00145  23575333.500                    23575340.152
        45.000          31.500
 125500202.540 7  97792423.52944  23881907.391                    23881910.617
        44.500          24.900
 118821018.659 7  92587865.37645  22610897.086                    22610900.438
        46.200          34.000
 108590876.688 8  84616315.37847  20664163.016                    20664167.234
        50.300          43.000
 119268061.145 8  92936196.78846  22695960.164                    22695964.379
        48.900          36.900
 107686407.060 8  83911552.02047  20492046.852                    20492052.617
        50.800          42.700
 119863897.903 7  93400470.06044  22809346.727                    22809350.227
        45.900          29.600
 119118390.816 7  92819563.88145  22667481.484                    22667485.637
        44.300          30.900
 16  9 14  1 51  0.0000000  0 10G28G13G10G20G19G15G17G24G18G12
 125539278.278 7  97822871.56044  23889333.570                    23889334.695
        43.600          25.500
 114889599.771 8  89524497.89345  21862781.773                    21862786.309
        48.800          33.800
 123822993.203 7  96485493.57845  23562737.914                    23562744.629
        45.300          31.200
 125570884.496 7  97847500.42543  23895357.711                    23895360.902
        43.900          23.200
 118719573.958 7  92508817.56545  22591592.938                    22591596.582
        45.900          34.200
 108609370.131 8  84630725.83747  20667681.898                    20667685.980
        49.300          43.100
 119217674.825 8  92896934.73646  22686372.188                    22686376.016
        48.900          36.400
 107618976.241 8  83859008.52047  20479215.000                    20479220.965
        50.500          43.000
 119848706.821 7  93388632.82444  22806455.750                    22806459.219
        45.900          28.300
 118983836.266 7  92714716.21745  22641876.375                    22641881.008
        43.700          31.500
 16  9 14  1 51 30.0000000  0 10G28G13G10G20G19G15G17G24G18G12
 125603502.837 7  97872916.70044  23901553.984                    23901557.219
        43.400          25.600
 114951644.377 8  89572844.34145  21874588.242                    21874592.387
        48.500          33.700
 123757360.650 7  96434351.35045  23550248.492                    23550255.035
        45.100          31.400
 125641671.009 6  97902658.78043  23908827.234                    23908831.359
        41.900          22.800
 118618594.045 7  92430131.94345  22572377.508                    22572380.711
        46.700          34.000
 108628355.476 8  84645519.60647  20671294.633                    20671299.105
        49.900          42.200
 119167830.914 8  92858095.34746  22676887.320                    22676890.824
        49.200          36.500
 107551879.262 8  83806725.16447  20466446.484                    20466452.566
        51.700          42.400
 119834022.367 7  93377190.37644  22803661.852                    22803664.836
        46.300          28.800
 118849536.776 7  92610067.27245  22616319.984                    22616324.801
        44.800          31.400
 16  9 14  1 52  0.0000000  0 10G28G13G10G20G19G15G17G24G18G12
 125667851.788 6  97923058.71544  23913798.695                    23913802.449
        41.800          25.800
 115014025.112 8  89621452.68345  21886459.508                    21886463.633
        48.100          33.600
 123692290.453 7  96383647.29145  23537866.336                    23537872.516
        45.200          30.800
 125712563.188 6  97957899.40143  23922317.117                    23922322.258
        40.400          22.800
 118518086.284 7  92351814.22745  22553250.805                    22553254.617
        46.000          34.200
 108647835.853 8  84660699.10047  20675001.930                    20675005.875
        49.200          42.600
 119118534.524 8  92819682.59346  22667505.914                    22667510.035
        48.500          36.500
 107485120.695 8  83754705.50847  20453743.406                    20453748.922
        50.900          43.200
 119819847.369 7  93366144.90344  22800964.039                    22800967.410
        45.500          29.400
 118715498.542 7  92505621.91645  22590813.313                    22590818.102
        45.800          32.100
 16  9 14  1 52 30.0000000  0 10G28G13G10G20G19G15G17G24G18G12
 127307736.577 7  99200890.95144  24225858.859                    24225861.883
        42.200          25.400
 116652153.684 8  90897916.48445  22198184.938                    22198189.477
        48.300          33.800
 125203201.653 6  97560980.69344  23825382.641                    23825389.395
        41.400          29.900
 127358971.506 7  99240814.92744  24235619.414                    24235624.039
        43.600          27.700
 119993472.610 7  93501465.92845  22834007.625                    22834011.461
        45.100          33.800
 110243225.155 8  85903859.58947  20978594.203                    20978598.359
        49.300          42.000
 120645204.078 8  94009295.25346  22958021.461                    22958025.383
        49.800          36.400
 108994118.854 8  84930548.24647  20740895.602                    20740901.926
        49.100          42.700
 121381597.538 7  94583093.07544  23098155.844                    23098158.918
        45.700          29.700
 120157143.577 7  93628981.69945  22865149.172                    22865153.891
        45.100          31.100
 16  9 14  1 53  0.0000000  0 10G28G13G10G20G19G15G17G24G18G12
 127372320.188 6  99251215.85644  24238149.086                    24238151.789
        41.000          25.000
 116715193.623 7  90947038.49345  22210180.859                    22210185.598
        46.600          34.000
 125139251.909 7  97511149.71445  23813213.336                    23813220.145
        44.800          30.400
 127430058.199 7  99296207.14644  24249146.164                    24249151.336
        43.900          26.100
 119893909.991 7  93423884.69245  22815061.750                    22815065.180
        46.200          34.000
 110263684.752 8  85919802.12047  20982487.922                    20982491.617
        48.500          42.400
 120596998.160 8  93971732.20945  22948848.539                    22948851.465
        49.100          35.900
 108928030.854 8  84879051.09847  20728319.445                    20728325.773
        50.100          42.700
 121368431.909 7  94572834.12844  23095650.141                    23095653.879
        45.100          29.100
 120023625.727 7  93524941.84045  22839741.281                    22839745.914
        45.400          31.700
 16  9 14  1 53 30.0000000  0 10G28G13G10G20G19G15G17G24G18G12
 127437017.125 6  99301629.07244  24250460.422                    24250462.824
        40.800          24.700
 116778559.138 7  90996414.19245  22222238.820                    22222243.473
        46.900          33.500
 125075862.412 7  97461755.30145  23801151.008                    23801157.211
        45.600          30.200
 127501236.239 6  99351670.59143  24262690.539                    24262694.766
        41.800          22.600
 119794822.842 7  93346673.94845  22796205.805                    22796208.680
        47.200          34.000
 110284631.051 8  85936123.90147  20986473.523                    20986477.566
        49.200          42.500
 120549337.137 8  93934593.76746  22939778.938                    22939781.852
        49.400          36.700
 108862277.212 8  84827814.49747  20715806.938                    20715812.949
        49.600          43.100
 121355767.786 7  94562965.96444  23093240.547                    23093244.148
        46.000          29.300
 119890369.206 7  93421105.62945  22814383.883                    22814388.180
        46.200          31.900
 16  9 14  1 54  0.0000000  0 10G28G13G10G20G19G15G17G24G18G12
 127501827.086 7  99352130.35643  24262793.148                    24262796.211
        42.000          22.800
 116842250.454 7  91046043.78245  22234359.188                    22234362.953
        47.000          32.600
 125013036.031 7  97412799.67345  23789195.508                    23789201.977
        45.800          30.000
 127572504.055 6  99407203.94943  24276252.133                    24276256.004
        39.400          21.500
 119696215.980 7  93269837.45445  22777441.992                    22777444.781
        46.500          33.900
 110306064.297 8  85952825.11747  20990552.234                    20990556.402
        48.500          42.900
 120502223.741 8  93897882.05846  22930813.406                    22930816.598
        50.200          36.300
 108796860.300 8  84776840.27647  20703358.664                    20703364.734
        49.300          43.000
 121343606.238 7  94553489.41844  23090926.766                    23090929.488
        44.900          29.700
 119757378.116 7  93317476.22145  22789076.711                    22789080.512
        45.700          31.200
 16  9 14  1 54 30.0000000  0 10G28G13G10G20G19G15G17G24G18G12
 127566750.177 6  99402719.73343  24275147.273                    24275151.133
        40.900          23.200
 116906267.670 7  91095927.32745  22246541.484                    22246545.289
        47.800          33.200
 124950775.798 6  97364285.19745  23777348.070                    23777354.074
        41.700          31.300
 127643860.974 6  99462806.74143  24289831.797                    24289835.168
        40.300          23.000
 119598094.133 7  93193378.89345  22758770.180                    22758772.547
        46.300          34.700
 110327985.481 8  85969906.55146  20994723.547                    20994727.715
        48.500          41.400
 120455661.096 8  93861599.50146  22921952.906                    22921956.000
        49.800          36.400
 108731782.694 8  84726130.45547  20690974.703                    20690980.645
        48.100          43.000
 121331948.362 7  94544405.34745  23088708.227                    23088711.371
        44.900          30.000
 119624656.295 7  93214056.65145  22763819.961                    22763824.551
        45.200          31.700
 16  9 14  1 55  0.0000000  0 10G28G13G10G20G19G15G17G24G18G12
 127631782.920 7  99453394.56544  24287522.961                    24287526.664
        42.600          26.400
 116970608.049 8  91146062.68145  22258784.938                    22258789.063
        48.900          33.400
 124889081.586 6  97316211.77445  23765608.078                    23765614.219
        41.600          30.900
 127715302.346 7  99518475.31944  24303427.586                    24303430.660
        42.000          25.500
 119500459.224 7  93117299.76745  22740190.961                    22740193.527
        46.100          34.100
 110350392.406 8  85987366.49047  20998987.531                    20998991.469
        48.800          42.100
 120409648.591 8  93825745.63546  22913196.758                    22913200.109
        49.600          36.300
 108667044.144 7  84675684.83947  20678655.477                    20678661.727
        47.900          43.000
 121320791.895 7  94535711.97544  23086584.555                    23086588.371
        44.000          29.100
 119492204.348 7  93110847.34845  22738615.477                    22738619.523
        45.100          31.100
 16  9 14  1 55 30.0000000  0 10G28G13G10G20G19G15G17G24G18G12
 127696922.006 7  99504152.28044  24299918.773                    24299922.758
        43.700          25.600
 117035268.265 8  91196447.25645  22271089.070                    22271093.695
        48.300          33.100
 124827952.763 7  97268578.92044  23753975.609                    23753981.492
        42.900          29.600
 127786824.089 7  99574206.58144  24317036.586                    24317040.652
        42.600          25.600
 119403312.383 7  93041600.95245  22721703.594                    22721706.727
        45.400          34.400
 110373282.479 8  86005202.89147  21003343.531                    21003347.559
        48.400          42.500
 120364185.794 8  93790320.11046  22904545.859                    22904548.785
        49.400          36.700
 108602643.276 8  84625502.34047  20666400.508                    20666406.914
        49.200          43.400
 121310134.369 7  94527407.41144  23084556.367                    23084559.852
        44.700          29.800
 119360022.862 7  93007848.79745  22713462.477                    22713467.207
        45.200          32.400
 16  9 14  1 56  0.0000000  0 10G28G13G10G20G19G15G17G24G18G12
 127762174.583 7  99554998.43944  24312335.031                    24312339.320
        43.200          24.700
 117100255.394 8  91247086.54745  22283455.641                    22283460.352
        48.200          32.200
 124767399.117 7  97221394.26045  23742452.820                    23742458.891
        45.300          30.600
 127858431.576 6  99630004.56443  24330661.453                    24330666.992
        37.500          21.500
 119306665.452 7  92966291.68545  22703312.375                    22703315.641
        43.500          34.700
 110396663.015 8  86023421.46947  21007792.289                    21007796.992
        48.800          42.000
 120319282.197 8  93755330.32845  22896000.570                    22896004.734
        49.300          35.600
 108538589.703 8  84575590.47047  20654211.141                    20654217.492
        48.100          43.300
 121299983.549 7  94519497.67144  23082624.906                    23082628.574
        44.000          28.600
 119228122.271 7  92905069.14345  22688362.352                    22688366.676
        45.500          31.800
 16  9 14  1 56 30.0000000  0 10G28G13G10G20G19G15G17G24G18G12
 127827533.680 7  99605927.60543  24324772.875                    24324776.023
        42.200          23.600
 117165562.901 8  91297975.49645  22295883.539                    22295887.672
        48.000          32.200
 124707416.897 7  97174654.86545  23731038.258                    23731044.535
        44.700          31.000
 127930117.769 6  99685863.87543  24344304.570                    24344307.938
        39.200          20.400
 119210516.731 7  92891370.62545  22685015.688                    22685019.480
        45.100          34.600
 110420528.524 8  86042017.95547  21012334.609                    21012338.570
        48.500          42.300
 120274933.916 8  93720773.24845  22887561.086                    22887565.922
        48.400          35.700
 108474879.080 8  84525945.83647  20642087.406                    20642094.074
        50.200          43.400
 121290333.272 7  94511977.96444  23080788.609                    23080792.059
        44.800          28.900
 119096499.916 7  92802506.27345  22663314.867                    22663319.359
        45.400          31.500
 16  9 14  1 57  0.0000000  0 10G28G13G10G20G19G15G17G24G18G12
 127892998.719 7  99656939.31743  24337230.406                    24337233.242
        43.100          22.900
 117231190.111 8  91349113.56345  22308372.180                    22308376.160
        48.700          33.000
 124648008.162 7  97128362.34245  23719733.844                    23719739.992
        43.700          31.000
 128001880.342 7  99741782.85443  24357960.328                    24357963.570
        42.100          22.000
 119114869.721 7  92816840.51145  22666815.383                    22666818.375
        44.600          34.800
 110444878.791 8  86060992.17247  21016968.016                    21016971.758
        49.600          42.500
 120231142.860 8  93686650.36946  22879228.125                    22879232.125
        48.200          36.000
 108411513.077 8  84476569.73047  20630029.445                    20630035.770
        48.900          43.500
 121281183.948 7  94504848.60444  23079047.727                    23079050.676
        44.800          29.000
 118965158.445 7  92700162.29745  22638321.508                    22638326.102
        46.400          33.000
 16  9 14  1 57 30.0000000  0 10G28G13G10G20G19G15G17G24G18G12
 127958568.049 7  99708032.30744  24349708.047                    24349711.238
        43.300          24.000
 117297135.636 8  91400499.67345  22320920.742                    22320925.203
        48.700          32.800
 124589174.061 7  97082517.58845  23708537.539                    23708543.992
        44.600          30.700
 128073716.415 6  99797759.06543  24371630.344                    24371634.238
        40.100          22.500
 119019728.001 7  92742704.12545  22648710.461                    22648713.500
        47.000          34.700
 110469713.219 8  86080343.67047  21021693.516                    21021697.586
        48.500          42.300
 120187909.955 7  93652962.40945  22871000.352                    22871005.543
        47.200          35.200
 108348492.528 8  84427462.81347  20618036.719                    20618043.656
        49.000          42.900
 121272534.621 7  94498108.83844  23077401.984                    23077405.371
        45.200          29.000
 118834100.379 7  92598039.14345  22613382.547                    22613386.480
        46.500          33.200
 16  9 14  1 58  0.0000000  0 10G28G13G10G20G19G15G17G24G18G12
 128024230.723 7  99759198.01744  24362202.930                    24362207.309
        42.900          24.700
 117363388.546 7  91452125.29245  22333528.586                    22333533.141
        47.300          32.700
 124530906.431 7  97037114.25245  23697449.281                    23697456.152
        44.000          31.300
 128145614.244 6  99853783.34343  24385311.086                    24385315.797
        37.900          21.100
 118925085.051 7  92668956.39345  22630700.297                    22630703.016
        45.900          35.700
 110495021.145 8  86100064.12847  21026509.773                    21026513.676
        49.500          42.000
 120145226.835 7  93619702.85245  22862878.094                    22862883.199
        47.200          35.400
 108285809.044 8  84378618.54547  20606108.742                    20606114.906
        48.500          43.300
 121264375.279 7  94491750.88944  23075849.328                    23075852.156
        44.900          27.700
 118703317.965 7  92496130.80445  22588494.969                    22588499.473
        47.000          34.000
 16  9 14  1 58 30.0000000  0 10G28G13G10G20G19G15G17G24G18G12
 128089988.308 6  99810437.69444  24374715.922                    24374720.004
        41.200          24.100
 117429950.608 7  91503991.80645  22346194.922                    22346199.363
        47.900          32.700
 124473209.557 7  96992155.66345  23686469.563                    23686476.852
        44.100          30.000
 128217574.284 6  99909856.01743  24399005.078                    24399009.867
        36.700          21.100
 118830947.263 7  92595602.29845  22612786.273                    22612788.891
        46.000          34.400
 110520805.044 8  86120155.46147  21031416.023                    21031420.438
        48.700          42.000
 120103097.927 7  93586875.13845  22854861.383                    22854866.078
        47.700          35.000
 108223466.097 8  84330039.62247  20594245.102                    20594251.414
        49.100          43.600
 121256708.531 7  94485776.77444  23074390.500                    23074393.516
        44.700          29.300
 118572817.155 7  92394441.87545  22563661.609                    22563665.871
        47.400          33.400
 16  9 14  1 59  0.0000000  0 10G28G13G10G20G19G15G17G24G18G12
 128155844.349 6  99861754.06543  24387247.719                    24387251.617
        41.800          22.200
 117496825.633 8  91556102.22245  22358920.805                    22358924.359
        48.500          32.300
 124416089.624 7  96947646.62545  23675600.227                    23675606.871
        44.600          30.700
 128289598.871 6  99965979.05143  24412711.438                    24412715.602
        39.600          21.500
 118737322.608 7  92522648.04745  22594970.117                    22594972.789
        45.700          34.000
 110547068.693 8  86140620.63546  21036413.703                    21036418.141
        49.200          41.800
 120061529.056 7  93554483.81845  22846951.031                    22846955.301
        47.000          34.600
 108161470.504 8  84281731.38047  20582447.922                    20582454.234
        49.100          42.900
 121249538.418 7  94480189.65544  23073026.078                    23073028.965
        45.100          29.700
 118442605.227 7  92292978.05645  22538883.664                    22538887.727
        47.400          33.200
 16  9 14  1 59 30.0000000  0 10G28G13G10G20G19G15G17G24G18G12
 128221793.440 6  99913142.94443  24399798.367                    24399801.059
        40.100          22.900
 117564007.978 7  91608452.09945  22371705.086                    22371709.238
        47.600          32.100
 124359543.732 7  96903584.89545  23664840.273                    23664846.723
        44.100          30.600
 128361681.028 6 100022146.99043  24426427.680                    24426432.133
        40.000          20.900
 118644210.417 7  92450093.10745  22577251.555                    22577254.133
        45.500          34.200
 110573807.228 7  86161455.84946  21041501.805                    21041505.602
        47.500          41.300
 120020516.947 7  93522526.34345  22839146.547                    22839151.043
        47.000          34.200
 108099818.562 8  84233690.90347  20570715.813                    20570722.242
        49.300          42.800
 121242859.802 7  94474985.51844  23071755.000                    23071758.277
        44.500          28.300
 118312680.012 7  92191737.64245  22514159.383                    22514163.359
        47.300          34.200
                            4  1
RINEX FILE SPLICE; other post-header comments skipped       COMMENT
 16  9 14  2  0  0.0000000  0 10G28G13G10G20G19G15G17G24G18G12
 128287837.529 7  99964605.87143  24412366.219                    24412368.211
        42.300          23.800
 117631500.104 7  91661043.36145  22384548.070                    22384553.129
        46.800          32.600
 124303576.938 7  96859974.41245  23654190.281                    23654196.520
        45.000          30.400
 128433822.397 6 100078361.07843  24440155.758                    24440158.680
        36.700          18.300
 118551617.498 7  92377942.81845  22559631.336                    22559634.332
        45.300          34.800
 110601023.775 8  86182663.53146  21046681.023                    21046685.242
        49.200          41.600
 119980067.057 7  93491006.94945  22831450.188                    22831453.695
        47.000          35.000
 108038515.366 8  84185922.17347  20559050.266                    20559056.672
        49.100          43.300
 121236676.166 7  94470167.09044  23070577.734                    23070581.488
        44.600          28.700
 118183047.654 7  92090725.43845  22489491.117                    22489495.492
        47.900          34.900
 16  9 14  2  0 30.0000000  0 10G28G13G10G20G19G15G17G24G18G12
 128353978.569 7 100016144.37243  24424952.766                    24424954.891
        43.400          22.600
 117699303.802 7  91713877.38145  22397451.070                    22397456.172
        47.300          32.300
 124248193.818 7  96816818.73645  23643651.195                    23643657.461
        44.100          30.000
 128506023.968 5 100134622.04343  24453896.469                    24453899.391
        35.500          19.300
 118459550.409 7  92306202.26445  22542111.531                    22542115.195
        46.000          35.100
 110628720.736 8  86204245.56846  21051951.813                    21051956.246
        49.600          41.900
 119940183.651 7  93459928.98446  22823860.656                    22823864.609
        47.700          36.500
 107977564.941 8  84138428.33947  20547451.836                    20547458.230
        49.900          43.700
 121230989.933 7  94465736.24844  23069496.094                    23069499.535
        43.400          29.300
 118053713.741 8  91989945.78645  22464879.922                    22464884.594
        48.300          35.300
 16  9 14  2  1  0.0000000  0 10G28G13G10G20G19G15G17G24G18G12
 128420204.570 7 100067749.06943  24437554.617                    24437557.242
        43.100          22.200
 117767407.107 8  91766944.87145  22410411.328                    22410415.363
        48.200          32.900
 124193384.667 7  96774110.30545  23633221.430                    23633227.758
        44.200          30.400
 128578272.281 6 100190919.34843  24467644.070                    24467648.082
        37.600          21.100
 118368001.708 7  92234865.62945  22524690.406                    22524694.105
        45.600          34.900
 110656886.557 8  86226192.94546  21057311.719                    21057316.258
        48.900          41.900
 119900856.896 8  93429284.77946  22816377.727                    22816381.352
        49.400          37.100
 107916957.251 8  84091201.56347  20535918.680                    20535924.680
        49.600          43.500
 121225789.287 7  94461683.79044  23068506.063                    23068510.559
        44.300          29.600
 117924669.688 8  91889391.99345  22440323.344                    22440328.090
        49.100          35.500
 16  9 14  2  1 30.0000000  0 10G28G13G10G20G19G15G17G24G18G12
 128486519.599 6 100119423.08743  24450173.359                    24450177.047
        41.600          22.000
 117835813.833 7  91820248.80845  22423428.242                    22423432.156
        47.600          32.300
 124139156.047 7  96731854.24244  23622902.445                    23622908.211
        45.000          29.900
 128650569.743 6 100247255.02743  24481402.141                    24481406.207
        40.500          21.700
 118276979.696 7  92163939.40745  22507370.117                    22507372.801
        45.200          35.000
 110685525.709 8  86248509.15447  21062761.422                    21062765.977
        49.100          42.000
 119862092.793 8  93399078.99746  22809001.563                    22809004.426
        49.800          37.300
 107856699.001 8  84044247.09347  20524451.789                    20524458.262
        49.800          42.900
 121221078.667 7  94458013.17344  23067609.797                    23067613.699
        44.000          28.500
 117795922.940 8  91789069.88045  22415823.406                    22415828.473
        48.500          35.500
 16  9 14  2  2  0.0000000  0 10G28G13G10G20G19G15G17G24G18G12
 128552918.849 7 100171162.73243  24462809.008                    24462812.730
        43.400          23.000
 117904519.261 7  91873785.50145  22436502.070                    22436506.336
        47.200          31.600
 124085505.528 7  96690048.64445  23612692.805                    23612698.992
        44.500          30.200
 128722910.616 6 100303624.57043  24495167.883                    24495172.508
        39.500          21.800
 118186483.943 7  92093423.24645  22490148.836                    22490151.949
        46.300          34.700
 110714633.751 8  86271190.73246  21068300.445                    21068304.813
        48.500          41.300
 119823889.206 8  93369309.99746  22801731.672                    22801734.445
        50.400          38.300
 107796787.547 8  83997562.84147  20513051.117                    20513057.223
        49.700          43.600
 121216853.908 7  94454721.12044  23066806.500                    23066809.563
        43.800          29.000
 117667472.577 7  91688978.71145  22391380.508                    22391384.574
        47.800          35.900
 16  9 14  2  2 30.0000000  0 10G28G13G10G20G19G15G17G24G18G12
 128619403.001 7 100222968.53543  24475460.398                    24475463.926
        44.300          22.500
 117973524.647 7  91927555.91045  22449633.914                    22449638.012
        47.600          31.200
 124032436.816 7  96648696.40544  23602594.047                    23602599.828
        44.700          29.100
 128795295.115 6 100360028.06143  24508940.648                    24508945.844
        38.600          18.300
 118096520.051 7  92023321.53045  22473029.477                    22473032.047
        45.500          34.400
 110744212.205 8  86294238.87146  21073928.828                    21073933.156
        48.700          40.600
 119786249.593 8  93339980.48346  22794567.977                    22794572.105
        51.400          38.100
 107737226.396 8  83951151.55647  20501717.148                    20501723.262
        50.400          43.600
 121213116.795 7  94451809.08244  23066095.219                    23066098.664
        43.100          28.200
 117539323.390 8  91589122.22645  22366994.609                    22366998.770
        48.400          35.400
 16  9 14  2  3  0.0000000  0 10G28G13G10G20G19G15G17G24G18G12
 128685973.319 7 100274841.52143  24488128.914                    24488131.973
        42.000          22.200
 118042830.775 7  91981560.67745  22462822.242                    22462826.629
        46.900          31.900
 123979953.213 7  96607800.09444  23592606.656                    23592612.645
        44.200          29.900
 128867722.915 6 100416465.35542  24522724.664                    24522728.375
        39.000          17.800
 118007093.473 7  91953638.51145  22456011.797                    22456015.129
        46.000          34.800
 110774262.655 8  86317654.79446  21079647.352                    21079651.469
        49.000          41.000
 119749177.146 8  93311092.91346  22787512.727                    22787517.281
        48.800          36.800
 107678018.695 8  83905015.68847  20490450.008                    20490456.188
        50.500          43.300
 121209869.078 7  94449278.36944  23065477.461                    23065480.105
        44.600          27.500
 117411479.639 8  91489503.74545  22342666.313                    22342670.645
        48.300          35.200
 16  9 14  2  3 30.0000000  0 10G28G13G10G20G19G15G17G24G18G12
 128752625.161 7 100326778.01543  24500812.391                    24500815.754
        42.600          22.200
 118112433.159 7  92035796.28245  22476066.695                    22476071.102
        47.500          30.500
 123928052.783 7  96567358.20245  23582730.148                    23582736.453
        44.400          30.600
 128940188.595 6 100472932.10743  24536514.383                    24536518.320
        39.500          19.900
 117918204.270 7  91884374.21145  22439096.750                    22439100.141
        47.000          35.700
 110804780.904 8  86341435.23546  21085454.992                    21085459.039
        48.900          40.900
 119712669.848 7  93282645.64745  22780565.383                    22780570.168
        46.400          34.900
 107619162.594 8  83859153.78747  20479250.242                    20479256.391
        50.800          43.900
 121207106.472 7  94447125.67044  23064951.234                    23064954.516
        44.800          28.300
 117283940.938 7  91390122.95546  22318396.641                    22318400.715
        47.900          36.000
 16  9 14  2  4  0.0000000  0 10G28G13G10G20G19G15G17G24G18G12
 128819358.236 7 100378777.83543  24513510.313                    24513514.309
        42.100          21.700
 118182331.094 7  92090262.18745  22489368.305                    22489371.785
        47.300          31.400
 123876737.450 7  96527372.24144  23572964.977                    23572971.117
        44.500          29.900
 129012690.420 6 100529427.02643  24550311.258                    24550314.961
        40.000          21.300
 117829856.630 7  91815531.91946  22422284.945                    22422288.207
        46.700          36.100
 110835767.168 8  86365580.35346  21091351.523                    21091355.734
        49.000          41.400
 119676729.200 7  93254639.94845  22773726.617                    22773730.480
        47.800          35.800
 107560659.935 8  83813567.29847  20468117.656                    20468123.586
        50.900          44.200
 121204829.157 7  94445351.11344  23064518.188                    23064521.340
        43.900          28.400
 117156710.138 7  91290982.10846  22294186.000                    22294190.133
        47.700          36.200
 16  9 14  2  4 30.0000000  0 10G28G13G10G20G19G15G17G24G18G12
 128886172.301 6 100430840.71043  24526225.102                    24526227.926
        41.300          22.500
 118252524.805 7  92144958.57845  22502725.664                    22502729.063
        47.700          31.800
 123826009.386 7  96487843.86644  23563311.523                    23563318.324
        44.600          29.800
 129085227.066 6 100585949.04643  24564114.766                    24564118.953
        40.900          20.900
 117742054.315 7  91747114.56445  22405576.617                    22405579.727
        45.300          35.200
 110867221.471 8  86390090.19146  21097337.078                    21097341.473
        48.500          41.500
 119641357.410 8  93227077.54046  22766995.297                    22766999.633
        48.900          36.000
 107502512.563 8  83768257.65647  20457052.617                    20457058.664
        50.300          43.700
 121203037.246 7  94443954.81444  23064176.930                    23064180.086
        43.100          27.400
 117029790.590 7  91192083.77045  22270033.570                    22270037.664
        47.900          35.700
 16  9 14  2  5  0.0000000  0 10G28G13G10G20G19G15G17G24G18G12
 128953065.354 6 100482965.15243  24538954.906                    24538958.129
        41.700          22.200
 118323011.970 8  92199883.64245  22516139.125                    22516143.656
        48.000          32.100
 123775868.903 7  96448773.34944  23553770.063                    23553776.629
        44.900          29.800
 129157795.409 6 100642495.85643  24577923.930                    24577927.637
        38.400          18.300
 117654799.915 7  91679124.14345  22388972.500                    22388976.195
        45.600          34.600
 110899141.925 8  86414963.27446  21103411.281                    21103416.020
        49.500          41.400
 119606554.739 8  93199958.62246  22760372.406                    22760377.332
        48.100          36.900
 107444720.868 8  83723225.17047  20446054.867                    20446061.680
        50.300          43.700
 121201729.287 7  94442935.60844  23063927.320                    23063931.188
        42.500          27.700
 116903184.111 7  91093429.40245  22245940.938                    22245945.441
        46.900          35.900
 16  9 14  2  5 30.0000000  0 10G28G13G10G20G19G15G17G24G18G12
 129020034.886 7 100535149.17644  24551698.805                    24551702.473
        42.700          24.000
 118393790.011 7  92255035.33945  22529607.773                    22529612.492
        47.600          32.400
 123726316.012 7  96410160.71845  23544340.578                    23544347.180
        45.300          30.300
 129230392.032 6 100699064.64742  24591737.992                    24591742.141
        36.900          17.800
 117568095.226 7  91611562.08245  22372473.102                    22372476.324
        45.700          34.400
 110931527.012 8  86440198.38946  21109573.914                    21109578.355
        49.300          41.200
 119572321.033 7  93173283.01245  22753857.719                    22753862.367
        46.000          35.400
 107387284.977 8  83678469.93547  20435125.422                    20435131.418
        49.800          43.300
 121200903.225 7  94442291.92244  23063770.328                    23063774.082
        42.300          28.300
 116776891.231 8  90995019.38946  22221908.336                    22221912.766
        48.400          37.100
 16  9 14  2  6  0.0000000  0 10G28G13G10G20G19G15G17G24G18G12
 129087079.411 6 100587391.66743  24564457.109                    24564460.473
        41.600          22.800
 118464857.261 7  92310412.39045  22543131.758                    22543136.625
        47.800          32.000
 123677351.348 7  96372006.43245  23535023.609                    23535029.859
        45.000          31.000
 129303013.829 6 100755653.07743  24605557.563                    24605562.152
        40.500          19.900
 117481943.252 7  91544430.68545  22356079.156                    22356082.121
        46.000          34.900
 110964375.519 8  86465794.61846  21115824.555                    21115829.344
        48.300          41.200
 119538656.771 7  93147051.12145  22747451.891                    22747456.168
        46.400          35.400
 107330205.179 8  83633992.16747  20424263.320                    20424269.309
        49.900          43.900
 121200557.769 7  94442022.72944  23063705.477                    23063709.199
        44.200          29.400
 116650914.756 8  90896855.92746  22197935.805                    22197940.078
        48.200          36.000
 16  9 14  2  6 30.0000000  0 10G28G13G10G20G19G15G17G24G18G12
 129154194.636 6 100639689.22843  24577228.336                    24577231.570
        40.900          21.300
 118536209.470 7  92366011.49445  22556709.664                    22556713.039
        46.800          30.900
 123628972.657 7  96334308.75245  23525817.688                    23525823.363
        45.700          31.400
 129375655.528 6 100812257.03043  24619381.461                    24619385.078
        41.300          21.100
 117396343.585 7  91477729.66145  22339790.148                    22339792.785
        44.700          34.800
 110997682.928 8  86491748.41446  21122163.180                    21122167.840
        49.100          41.400
 119505559.514 7  93121261.05846  22741153.789                    22741158.059
        46.400          36.100
 107273479.797 8  83589790.57747  20413468.813                    20413474.707
        49.000          43.900
 121200689.012 7  94442124.97644  23063730.313                    23063733.879
        43.400          27.900
 116525253.290 8  90798937.92746  22174023.336                    22174028.035
        48.400          36.300
 16  9 14  2  7  0.0000000  0 10G28G13G10G20G19G15G17G24G18G12
 129221384.238 6 100692044.71643  24590014.133                    24590018.125
        39.700          21.800
 118607850.180 7  92421835.43145  22570342.031                    22570345.926
        47.300          31.400
 123581186.151 7  96297072.51445  23516723.648                    23516730.000
        46.100          31.100
 129448320.202 6 100868878.85343  24633208.805                    24633213.063
        39.900          21.500
 117311304.552 7  91411465.50645  22323607.109                    22323610.719
        45.500          34.700
 111031453.294 8  86518062.97746  21128589.266                    21128593.809
        48.300          41.100
 119473035.433 7  93095917.63745  22734964.664                    22734969.086
        45.800          35.400
 107217114.831 8  83545869.82347  20402742.719                    20402748.750
        49.000          43.700
 121201300.919 7  94442601.77944  23063847.039                    23063849.867
        42.600          28.200
 116399914.346 7  90701271.24945  22150171.875                    22150176.605
        47.200          35.900
 16  9 14  2  7 30.0000000  0 10G28G13G10G20G19G15G17G24G18G12
 129288642.983 6 100744454.12943  24602812.766                    24602816.809
        40.100          22.000
 118679774.033 8  92477879.99545  22584029.016                    22584033.191
        48.000          31.400
 123533988.600 7  96260295.18245  23507742.078                    23507748.648
        46.400          30.900
 129521001.087 6 100925513.26743  24647039.688                    24647043.406
        39.800          18.600
 117226825.089 7  91345637.38146  22307530.891                    22307534.906
        44.900          36.000
 111065682.153 8  86544734.80146  21135102.977                    21135106.828
        48.600          40.800
 119441081.177 7  93071018.23145  22728884.203                    22728888.223
        46.900          35.800
 107161106.994 8  83502227.35647  20392085.117                    20392091.426
        49.000          43.600
 121202388.332 7  94443449.10444  23064053.906                    23064057.051
        43.600          29.700
 116274895.905 7  90603854.30245  22126381.781                    22126385.941
        47.300          35.800
 16  9 14  2  8  0.0000000  0 10G28G13G10G20G19G15G17G24G18G12
 129355970.124 6 100796916.85043  24615625.453                    24615628.387
        41.000          22.000
 118751980.064 7  92534144.41545  22597769.219                    22597773.496
        47.200          31.400
 123487381.410 7  96223977.87745  23498873.484                    23498879.336
        46.300          30.400
 129593696.385 6 100982158.97342  24660872.898                    24660876.121
        41.400          17.400
 117142908.289 7  91280247.69546  22291562.906                    22291566.094
        45.200          36.500
 111100368.575 8  86571763.17246  21141703.406                    21141707.379
        49.400          41.100
 119409697.901 8  93046563.75046  22722912.117                    22722915.859
        48.000          36.000
 107105458.179 8  83458864.64447  20381495.320                    20381501.598
        49.600          43.400
 121203951.280 7  94444666.96244  23064350.797                    23064354.719
        42.700          28.100
 116150201.147 7  90506689.58545  22102652.938                    22102657.195
        46.700          35.500
 16  9 14  2  8 30.0000000  0 10G28G13G10G20G19G15G17G24G18G12
 129423365.820 6 100849432.95743  24628449.477                    24628453.504
        39.600          21.300
 118824468.424 7  92590628.82845  22611562.781                    22611567.332
        47.000          30.700
 123441366.951 7  96188122.44745  23490117.055                    23490123.320
        46.000          30.400
 129666405.162 6 101038815.25643  24674708.289                    24674712.605
        41.100          18.600
 117059558.676 7  91215299.96645  22275701.680                    22275705.551
        44.700          35.600
 111135513.252 8  86599148.62046  21148391.445                    21148395.180
        49.200          40.600
 119378887.810 7  93022555.89145  22717048.891                    22717052.555
        47.300          35.900
 107050170.566 8  83415783.39247  20370973.945                    20370980.988
        49.400          43.800
 121205989.909 7  94446255.49544  23064739.078                    23064742.273
        43.700          28.200
 116025833.255 7  90409779.55445  22078986.930                    22078990.797
        47.500          35.200
 16  9 14  2  9  0.0000000  0 10G28G13G10G20G19G15G17G24G18G12
 129490825.531 6 100901998.96543  24641286.906                    24641291.125
        38.700          21.300
 118897234.438 7  92647329.58845  22625409.633                    22625414.574
        46.400          31.100
 123395942.907 7  96152727.07444  23481473.313                    23481479.109
        45.500          29.200
 129739121.640 6 101095477.44343  24688546.844                    24688551.020
        41.000          19.000
 116976776.106 7  91150794.08945  22259948.992                    22259951.879
        45.100          34.400
 111171111.833 8  86626887.76946  21155165.180                    21155169.406
        49.200          40.900
 119348648.505 8  92998992.81345  22711294.367                    22711298.746
        48.200          35.400
 106995241.963 8  83372981.88047  20360521.570                    20360528.066
        48.800          43.100
 121208499.983 7  94448211.35644  23065216.055                    23065220.207
        43.300          28.200
 115901791.289 8  90313123.50746  22055381.906                    22055386.418
        48.300          36.500
 16  9 14  2  9 30.0000000  0 10G28G13G10G20G19G15G17G24G18G12
 129558351.778 6 100954616.80543  24654136.820                    24654140.375
        40.100          22.500
 118970279.917 7  92704248.15345  22639309.602                    22639314.223
        47.000          30.200
 123351113.399 7  96117794.97545  23472942.430                    23472948.488
        44.900          30.200
 129811846.822 6 101152146.46843  24702385.445                    24702389.496
        40.800          20.600
 116894566.812 7  91086734.90845  22244304.875                    22244307.461
        44.300          34.500
 111207166.500 8  86654982.29446  21162026.469                    21162030.844
        49.100          41.300
 119318984.283 7  92975877.85445  22705649.391                    22705654.047
        46.600          35.700
 106940677.066 8  83330463.78147  20350138.406                    20350144.953
        49.600          43.800
 121211483.864 7  94450536.44044  23065784.625                    23065787.133
        42.000          26.900
 115778081.221 8  90216726.07446  22031841.203                    22031845.277
        48.100          36.000
 16  9 14  2 10  0.0000000  0 10G28G13G10G20G19G15G17G24G18G12
 129625940.715 6 101007283.47943  24666999.320                    24667002.090
        40.700          21.300
 119043601.488 7  92761381.82445  22653263.047                    22653266.766
        46.800          31.000
 123306877.076 7  96083325.10244  23464524.609                    23464530.133
        44.200          28.600
 129884576.482 6 101208818.92643  24716225.141                    24716228.992
        38.700          18.300
 116812931.692 7  91023123.14145  22228770.422                    22228772.941
        44.500          34.600
 111243674.327 8  86683429.93446  21168973.672                    21168978.266
        49.100          41.300
 119289893.422 7  92953209.64645  22700113.813                    22700117.711
        46.400          35.000
 106886474.440 8  83288227.97147  20339824.398                    20339830.789
        49.000          43.900
 121214938.474 6  94453228.31944  23066441.563                    23066445.227
        40.900          27.600
 115654702.761 8  90120587.04346  22008362.984                    22008367.695
        48.000          36.600
 16  9 14  2 10 30.0000000  0 10G28G13G10G20G19G15G17G24G18G12
 129693589.912 6 101059997.15943  24679871.641                    24679875.215
        40.800          20.600
 119117196.256 7  92818728.39045  22667267.313                    22667271.887
        47.300          31.200
 123263233.420 7  96049317.05744  23456219.414                    23456225.523
        43.700          29.900
 129957306.850 6 101265491.91243  24730065.688                    24730069.184
        37.800          19.000
 116731871.813 7  90959959.60945  22213344.875                    22213347.578
        45.400          35.100
 111280632.840 8  86712228.74846  21176007.102                    21176010.926
        48.900          41.300
 119261375.205 7  92930987.67545  22694686.891                    22694690.969
        47.600          35.300
 106832633.563 8  83246274.03947  20329578.773                    20329585.379
        50.300          43.700
 121218861.233 6  94456285.00044  23067188.570                    23067191.777
        41.700          28.100
 115531656.834 8  90024707.11546  21984947.984                    21984952.781
        48.800          36.800
 16  9 14  2 11  0.0000000  0 10G28G13G10G20G19G15G17G24G18G12
 129761307.360 6 101112763.99643  24692757.773                    24692761.148
        39.900          21.700
 119191071.731 7  92876293.69445  22681324.898                    22681329.793
        46.200          30.900
 123220192.209 7  96015778.44845  23448028.906                    23448034.891
        45.100          30.300
 130030044.370 6 101322170.51543  24743906.172                    24743910.457
        40.900          18.300
 116651399.431 7  90897253.89045  22198031.570                    22198034.477
        44.800          35.700
 111318049.897 8  86741384.88546  21183127.008                    21183131.289
        49.500          40.800
 119233439.308 7  92909219.45246  22689371.086                    22689374.215
        47.200          36.100
 106779164.648 8  83204609.95647  20319403.750                    20319410.164
        49.700          43.900
 121223260.399 7  94459712.89944  23068025.320                    23068029.160
        42.700          28.100
 115408954.944 8  89929095.26846  21961598.359                    21961602.898
        48.500          37.000
 16  9 14  2 11 30.0000000  0 10G28G13G10G20G19G15G17G24G18G12
 129829082.318 6 101165575.60943  24705655.695                    24705658.656
        40.400          20.100
 119265217.346 7  92934069.48244  22695434.539                    22695439.309
        46.100          29.500
 123177744.801 7  95982702.53944  23439951.797                    23439957.320
        45.300          29.800
 130102777.590 6 101378845.79343  24757746.742                    24757750.625
        38.900          18.300
 116571507.857 7  90835000.74046  22182828.773                    22182831.594
        46.100          36.100
 111355915.158 8  86770890.28146  21190332.555                    21190336.434
        49.000          40.900
 119206076.979 7  92887898.18145  22684163.813                    22684167.375
        46.400          35.500
 106726059.277 8  83163229.14547  20309298.117                    20309304.289
        50.200          43.700
 121228125.101 6  94463503.55644  23068951.906                    23068954.875
        41.200          27.300
 115286589.352 7  89833745.47746  21938312.984                    21938317.914
        47.800          36.300
 16  9 14  2 12  0.0000000  0  9G28G13G10G19G15G17G24G18G12
 129896916.823 6 101218433.68643  24718563.398                    24718567.441
        39.200          21.100
 119339634.719 7  92992057.04044  22709595.695                    22709600.219
        45.800          29.800
 123135894.954 7  95950092.26645  23431987.859                    23431993.965
        46.000          30.600
 116492202.908 7  90773204.69945  22167737.617                    22167740.461
        45.700          35.700
 111394230.622 8  86800746.48946  21197623.461                    21197627.430
        48.700          40.400
 119179291.925 7  92867026.73546  22679066.727                    22679070.586
        47.200          36.100
 106673321.399 8  83122134.69747  20299262.648                    20299268.891
        49.600          44.000
 121233457.226 6  94467658.43644  23069965.609                    23069969.309
        41.200          27.300
 115164565.373 7  89738661.86946  21915092.711                    21915096.762
        47.700          36.800
 16  9 14  2 12 30.0000000  0  9G28G13G10G19G15G17G24G18G12
 129964808.297 6 101271336.16043  24731483.086                    24731487.078
        39.600          21.300
 119414321.256 7  93050254.33645  22723808.352                    22723812.934
        45.600          30.200
 123094642.226 7  95917947.26445  23424137.688                    23424144.121
        46.600          31.500
 116413486.412 7  90711867.18245  22152758.508                    22152760.867
        45.500          35.700
 111432993.790 8  86830951.54046  21204999.938                    21205004.324
        49.500          40.500
 119153083.573 7  92846604.65945  22674079.680                    22674083.871
        47.300          35.800
 106620951.283 8  83081326.81447  20289296.922                    20289303.234
        50.200          44.100
 121239254.724 7  94472175.95244  23071068.953                    23071072.965
        43.500          27.100
 115042884.721 8  89643845.78946  21891938.141                    21891941.703
        48.300          36.900
 16  9 14  2 13  0.0000000  0  9G28G13G10G19G15G17G24G18G12
 130032759.513 6 101324285.10943  24744413.594                    24744417.910
        38.900          20.900
 119489279.356 7  93108663.23345  22738071.742                    22738077.188
        45.200          30.100
 123053991.032 7  95886270.99545  23416401.813                    23416408.449
        46.300          30.900
 116335364.459 7  90650992.95046  22137892.273                    22137894.742
        46.100          36.000
 111472207.606 8  86861507.73646  21212462.258                    21212466.441
        48.200          40.400
 119127456.049 7  92826635.16446  22669202.898                    22669206.961
        47.200          36.200
 106568953.287 8  83040808.90147  20279401.563                    20279407.949
        50.000          43.800
 121245520.428 6  94477058.29044  23072262.070                    23072265.152
        41.800          27.900
 114921552.749 8  89549301.42246  21868849.125                    21868852.762
        48.600          36.200
 16  9 14  2 13 30.0000000  0  9G28G13G10G19G15G17G24G18G12
 130100766.809 6 101377277.77843  24757354.953                    24757358.770
        40.300          21.500
 119564505.121 7  93167280.68144  22752387.602                    22752392.121
        45.100          29.600
 123013939.674 7  95855062.12245  23408780.430                    23408786.738
        46.400          31.000
 116257837.777 7  90590582.55645  22123138.977                    22123142.375
        45.800          35.700
 111511868.636 7  86892412.41246  21220009.555                    21220013.797
        47.900          40.800
 119102407.668 7  92807116.96445  22664435.977                    22664440.355
        45.400          35.600
 106517326.128 8  83000579.93847  20269577.734                    20269584.074
        48.600          43.800
 121252250.588 7  94482302.55044  23073541.977                    23073545.594
        42.100          27.100
 114800569.198 8  89455028.54445  21845826.586                    21845830.422
        48.200          35.900
 16  9 14  2 14  0.0000000  0  9G28G13G10G19G15G17G24G18G12
 130168824.733 6 101430309.93843  24770306.328                    24770309.820
        38.300          21.700
 119639992.758 7  93226102.21844  22766752.539                    22766756.656
        44.800          29.900
 122974484.367 7  95824317.72245  23401272.234                    23401278.773
        46.000          30.900
 116180904.453 7  90530634.52946  22108499.086                    22108502.520
        45.800          36.000
 111551970.955 8  86923660.95346  21227641.016                    21227644.938
        48.400          41.300
 119077934.907 7  92788047.31345  22659778.992                    22659783.387
        45.400          35.400
 106466066.545 8  82960637.41047  20259823.461                    20259829.410
        49.100          43.700
 121259439.771 7  94487904.49944  23074909.883                    23074913.949
        42.700          26.700
 114679932.116 7  89361025.64545  21822870.359                    21822873.574
        47.500          35.500
 16  9 14  2 14 30.0000000  0  9G28G13G10G19G15G17G24G18G12
 130236935.098 6 101483382.94643  24783267.383                    24783270.840
        40.600          20.900
 119715743.343 7  93285128.64144  22781166.695                    22781171.438
        45.300          29.600
 122935628.511 7  95794040.43244  23393878.508                    23393884.617
        45.200          29.400
 116104570.178 7  90471153.29645  22093973.438                    22093976.418
        46.600          35.900
 111592516.131 8  86955254.59146  21235356.453                    21235360.184
        49.600          40.600
 119054040.627 7  92769428.39345  22655232.266                    22655236.082
        46.000          35.700
 106415177.770 8  82920983.81747  20250139.664                    20250145.977
        49.100          44.600
 121267089.394 7  94493865.22344  23076365.047                    23076369.188
        42.500          26.600
 114559646.471 8  89267296.59046  21799980.461                    21799984.391
        48.400          36.300
 16  9 14  2 15  0.0000000  0  9G28G13G10G19G15G17G24G18G12
 130305098.041 6 101536496.92843  24796238.219                    24796242.043
        38.400          21.800
 119791756.951 7  93344360.02344  22795631.820                    22795636.137
        45.500          29.800
 122897374.078 7  95764231.79244  23386598.664                    23386604.828
        44.200          29.400
 116028839.022 7  90412142.02445  22079562.266                    22079565.340
        47.700          35.900
 111633505.202 8  86987194.11246  21243156.336                    21243160.387
        48.500          40.700
 119030726.730 7  92751261.74345  22650795.414                    22650799.520
        44.700          35.200
 106364662.491 8  82881621.26047  20240526.375                    20240532.555
        48.400          44.300
 121275199.498 7  94500184.77744  23077909.375                    23077912.770
        42.200          26.500
 114439715.189 8  89173843.65546  21777158.328                    21777162.637
        48.200          36.900
 16  9 14  2 15 30.0000000  0  9G28G13G10G19G15G17G24G18G12
 130373310.148 6 101589649.19343  24809217.758                    24809222.570
        39.400          20.600
 119868029.918 7  93403793.49644  22810145.602                    22810150.672
        45.200          28.900
 122859719.295 7  95734890.39745  23379433.711                    23379439.730
        45.800          31.000
 115953711.250 7  90353600.92245  22065265.813                    22065268.891
        47.500          35.600
 111674934.000 8  87019476.28746  21251039.852                    21251043.469
        48.500          40.500
 119007991.491 7  92733545.96046  22646469.633                    22646473.859
        46.100          36.600
 106314519.715 8  82842548.96247  20230984.758                    20230990.852
        48.900          44.100
 121283766.863 7  94506860.63544  23079539.156                    23079542.926
        42.400          26.400
 114320138.514 8  89080667.03546  21754403.586                    21754407.605
        48.800          36.600
