     2.11           OBSERVATION DATA    M (MIXED)           RINEX VERSION / TYPE
teqc  2016Apr1      anonyme             20161013 08:00:21UTCPGM / RUN BY / DATE
Linux 2.4.21-27.ELsmp|Opteron|gcc|Linux x86_64|=+           COMMENT
teqc  2009Mar23                         20161007 01:05:04UTCCOMMENT
Linux 2.4.20-8|Pentium IV|gcc -static|Linux|486/DX+         COMMENT
BIT 2 OF LLI FLAGS DATA COLLECTED UNDER A/S CONDITION       COMMENT
PRDS CACS-GSD 756047 Calgary AB Canada                      MARKER NAME
40124M001                                                   MARKER NUMBER
OPERATOR            NRCan/GEODETIC SURVEY OF CANADA         OBSERVER / AGENCY
00535               JAVAD TRE_G3TH DELTA3.6.3 Jul,01,2015   REC # / TYPE / VERS
KW-9493-01          AOAD/M_T        NONE                    ANT # / TYPE
 -1659602.8300 -3676725.7500  4925493.5900                  APPROX POSITION XYZ
        0.1000        0.0000        0.0000                  ANTENNA: DELTA H/E/N
     1     1                                                WAVELENGTH FACT L1/2
     8    L1    L2    C1    C2    P1    P2    S1    S2      # / TYPES OF OBSERV
    30.0000                                                 INTERVAL
    17                                                      LEAP SECONDS
RINEXED from Javad JPS-binary: ken.macleod@nrcan.gc.ca      COMMENT
Forced Modulo Decimation to 30 seconds                      COMMENT
This data is subject to the Open Government Licence -Canada COMMENT
http://open.canada.ca/en/open-government-licence-canada     COMMENT
 SNR is mapped to RINEX snr flag value [0-9]                COMMENT
  L1 & L2: min(max(int(snr_dBHz/6), 0), 9)                  COMMENT
pseudorange smoothing corrections not applied               COMMENT
teqc edited: all GLONASS satellites excluded                COMMENT
teqc edited: all SBAS satellites excluded                   COMMENT
teqc edited: all Galileo satellites excluded                COMMENT
  2016    10     7     0     0    0.0000000     GPS         TIME OF FIRST OBS
                                                            END OF HEADER
 16 10  7  0  0  0.0000000  0  9G21G27G32G24G18G10G14G08G11
 127554990.91746  99393486.73043  24272904.173                    24272903.569
  24272907.437          39.000          21.000
 121396821.28647  94594918.05247  23101040.927    23101044.445    23101040.834
  23101044.614          44.500          46.000
 109765627.90249  85531676.79748  20887690.939    20887694.027    20887691.250
  20887693.907          55.000          53.000
 119781098.30147  93335929.17847  22793573.897    22793578.243    22793575.180
  22793578.069          45.750          46.000
 114174175.51648  88966903.62846  21726613.324                    21726612.535
  21726613.199          50.250          39.750
 106687485.95349  83133113.67149  20301939.859    20301942.355    20301939.718
  20301942.283          57.750          55.000
 119719421.35647  93287861.96045  22781840.267                    22781839.498
  22781841.441          45.750          32.750
 119055257.95547  92770343.15747  22655458.980    22655463.552    22655459.353
  22655462.871          47.750          47.000
 123014959.68447  95855811.60344  23408966.801                    23408966.472
  23408966.279          42.250          26.750
 16 10  7  0  0 30.0000000  0  9G21G27G32G24G18G10G14G08G11
 127655264.87846  99471622.21943  24291985.858                    24291985.154
  24291988.917          39.250          22.000
 121483744.38347  94662650.29947  23117582.735    23117585.746    23117581.803
  23117585.475          45.000          45.000
 109709324.74949  85487804.23948  20876977.083    20876979.854    20876977.148
  20876979.786          55.750          53.000
 119800276.77647  93350873.46647  22797224.038    22797228.233    22797223.960
  22797227.838          45.500          46.000
 114233527.34748  89013151.80046  21737907.717                    21737906.591
  21737907.248          50.500          40.000
 106701358.76649  83143923.65349  20304579.353    20304582.074    20304579.495
  20304582.231          57.500          55.000
 119625377.30847  93214580.91845  22763943.650                    22763943.489
  22763945.099          45.250          33.000
 119079492.98847  92789227.58347  22660071.374    22660074.937    22660070.947
  22660074.065          47.500          47.000
 122923974.76346  95784914.29644  23391652.106                    23391652.290
  23391653.298          41.000          26.500
 16 10  7  0  1  0.0000000  0  9G21G27G32G24G18G10G14G08G11
 127755698.35946  99549882.00443  24311098.624                    24311097.925
  24311101.644          40.250          22.750
 121570984.11747  94730629.26847  23134183.392    23134186.655    23134183.472
  23134186.529          44.500          45.000
 109653491.15049  85444297.57348  20866352.021    20866355.175    20866352.312
  20866354.877          55.750          53.000
 119820062.60847  93366290.99847  22800989.282    22800993.272    22800989.020
  22800992.761          46.500          46.000
 114293109.30648  89059579.29146  21749245.729                    21749244.755
  21749245.667          50.250          39.750
 106715608.12849  83155027.05849  20307291.281    20307293.522    20307291.105
  20307293.982          58.000          55.000
 119531595.49647  93141504.22545  22746097.959                    22746097.822
  22746098.550          45.750          32.500
 119104303.44947  92808560.40247  22664792.099    22664796.630    22664792.184
  22664796.582          47.500          47.000
 122833372.22646  95714314.95444  23374410.044                    23374410.533
  23374412.351          41.250          26.500
 16 10  7  0  1 30.0000000  0  9G21G27G32G24G18G10G14G08G11
 127856289.67946  99628264.74443  24330241.672                    24330239.122
  24330243.282          39.750          22.250
 121658537.46047  94798852.61647  23150844.091    23150847.993    23150843.746
  23150848.328          44.500          45.000
 109598128.08449  85401157.54848  20855816.859    20855819.882    20855817.171
  20855819.585          55.750          53.000
 119840455.00347  93382181.17347  22804869.956    22804873.300    22804869.692
  22804873.316          46.000          46.000
 114352921.17048  89106185.92846  21760627.265                    21760626.681
  21760627.496          50.750          39.750
 106730233.86549  83166423.73849  20310074.276    20310076.801    20310074.336
  20310076.954          57.750          55.000
 119438077.84747  93068633.36445  22728301.914                    22728302.033
  22728302.607          45.500          32.750
 119129687.98047  92828340.54847  22669622.672    22669627.029    22669622.641
  22669626.485          46.750          47.000
 122743154.57346  95644015.53344  23357243.448                    23357242.184
  23357244.628          40.750          26.500
 16 10  7  0  2  0.0000000  0  9G21G27G32G24G18G10G14G08G11
 127957036.95046  99706769.02343  24349411.044                    24349411.075
  24349414.438          40.250          23.000
 121746401.44247  94867318.00947  23167564.331    23167567.861    23167563.861
  23167568.193          43.750          45.000
 109543236.53949  85358384.94148  20845371.469    20845374.281    20845371.601
  20845374.171          56.000          53.000
 119861453.83847  93398543.91647  22808865.205    22808869.880    22808865.772
  22808868.979          46.000          46.000
 114412962.73648  89152971.55146  21772052.726                    21772052.072
  21772052.849          50.000          39.750
 106745235.75349  83178113.52649  20312929.132    20312931.514    20312929.113
  20312931.647          57.750          55.000
 119344825.84447  92995969.48345  22710557.129                    22710556.346
  22710557.346          45.500          32.750
 119155645.34747  92848567.06547  22674561.953    22674566.744    22674561.839
  22674566.024          46.250          47.000
 122653324.93346  95574018.46844  23340150.257                    23340148.997
  23340150.202          41.250          27.000
 16 10  7  0  2 30.0000000  0  9G21G27G32G24G18G10G14G08G11
 128057938.77146  99785393.72144  24368613.172                    24368611.982
  24368616.091          40.500          24.000
 121834572.97947  94936023.06547  23184342.351    23184346.189    23184342.022
  23184345.759          43.500          45.000
 109488817.48649  85315980.50748  20835015.779    20835018.864    20835016.022
  20835018.520          56.250          53.000
 119883057.97847  93415378.29847  22812976.627    22812979.744    22812976.442
  22812980.531          46.000          46.000
 114473232.75648  89199935.18946  21783521.705                    21783521.091
  21783522.108          50.500          39.500
 106760613.62549  83190096.28349  20315855.470    20315857.702    20315855.531
  20315857.933          57.750          55.000
 119251841.26647  92923514.01145  22692862.362                    22692861.990
  22692863.211          46.000          33.250
 119182174.15947  92869238.85247  22679610.163    22679614.878    22679610.563
  22679613.988          46.750          47.000
 122563885.58947  95504325.52144  23323130.676                    23323128.103
  23323130.816          42.250          27.500
 16 10  7  0  3  0.0000000  0  9G21G27G32G24G18G10G14G08G11
 128158993.28046  99864137.39544  24387842.636                    24387842.235
  24387845.336          41.000          24.250
 121923049.06847  95004965.42647  23201178.577    23201182.946    23201178.681
  23201182.796          43.000          45.000
 109434871.86449  85273944.98748  20824750.241    20824753.455    20824750.397
  20824752.904          56.000          53.000
 119905266.99447  93432684.05347  22817202.596    22817206.904    22817202.561
  22817206.825          46.000          46.000
 114533730.97948  89247076.65046  21795034.479                    21795033.912
  21795034.056          50.250          39.750
 106776367.27749  83202371.85649  20318853.110    20318855.722    20318853.370
  20318855.911          57.750          55.000
 119159125.81647  92851268.22645  22675219.670                    22675218.578
  22675219.929          45.500          33.250
 119209273.52347  92890355.22847  22684767.264    22684771.622    22684766.890
  22684770.901          46.500          47.000
 122474839.76647  95434939.23744  23306184.738                    23306184.351
  23306185.564          42.250          28.250
 16 10  7  0  3 30.0000000  0  9G21G27G32G24G18G10G14G08G11
 128260198.63246  99942998.59543  24407102.483                    24407101.420
  24407104.250          41.500          22.750
 122011826.64747  95074142.72147  23218073.574    23218076.754    23218072.782
  23218076.080          43.500          45.000
 109381400.67549  85232279.15548  20814575.039    20814577.920    20814575.217
  20814577.555          56.000          53.000
 119928079.75447  93450460.22847  22821543.905    22821547.308    22821544.383
  22821547.712          46.500          46.000
 114594456.76448  89294395.43646  21806589.925                    21806589.459
  21806589.951          50.250          39.000
 106792496.52649  83214940.10449  20321922.441    20321924.882    20321922.602
  20321925.168          58.000          55.000
 119066681.00547  92779233.35645  22657628.059                    22657627.356
  22657628.635          45.750          33.500
 119236941.73047  92911914.86147  22690032.307    22690037.079    22690032.034
  22690036.183          46.250          47.000
 122386190.16947  95365861.67244  23289315.130                    23289315.047
  23289315.966          43.500          28.750
 16 10  7  0  4  0.0000000  0  9G21G27G32G24G18G10G14G08G11
 128361553.22346 100021976.09643  24426389.348                    24426386.974
  24426390.812          41.250          21.750
 122100902.68947  95143552.59147  23235023.933    23235027.345    23235023.492
  23235027.039          42.750          44.000
 109328404.81049  85190983.70248  20804490.161    20804493.014    20804490.312
  20804492.769          55.750          53.000
 119951496.14747  93468706.76447  22825999.313    22826004.301    22826000.122
  22826003.698          45.500          46.000
 114655409.78848  89341891.28446  21818189.304                    21818188.331
  21818188.958          49.750          38.750
 106809001.16749  83227800.86249  20325063.303    20325065.721    20325063.346
  20325065.991          57.500          55.000
 118974508.63147  92707410.75645  22640087.611                    22640086.939
  22640088.365          46.000          33.500
 119265177.74547  92933916.93147  22695405.668    22695409.853    22695405.761
  22695409.171          46.250          47.000
 122297939.10547  95297094.63644  23272521.968                    23272521.791
  23272522.358          43.250          27.500
 16 10  7  0  4 30.0000000  0  9G21G27G32G24G18G10G14G08G11
 128463055.32446 100101068.52143  24445704.657                    24445703.174
  24445706.570          40.250          20.500
 122190274.10147  95213192.60947  23252030.043    23252035.182    23252029.745
  23252034.371          42.750          45.000
 109275885.16849  85150059.33148  20794496.044    20794498.956    20794496.275
  20794498.494          56.250          53.000
 119975515.06947  93487422.81547  22830570.447    22830574.208    22830570.923
  22830574.426          45.500          46.000
 114716589.72848  89389563.95746  21829831.382                    21829830.464
  21829830.748          50.000          39.000
 106825880.97749  83240953.96649  20328275.360    20328277.673    20328275.423
  20328277.981          57.750          55.000
 118882609.99547  92635801.47745  22622599.748                    22622599.369
  22622601.426          46.000          33.250
 119293980.01347  92956360.24947  22700886.020    22700890.752    22700886.472
  22700890.230          46.000          47.000
 122210089.59747  95228640.51644  23255804.680                    23255804.349
  23255804.870          43.250          28.250
 16 10  7  0  5  0.0000000  0  9G21G27G32G24G18G10G14G08G11
 128564703.32046 100180274.65943  24465047.149                    24465046.272
  24465050.039          39.000          19.500
 122279937.90147  95283060.48047  23269093.686    23269096.921    23269093.060
  23269096.695          44.000          45.000
 109223842.68649  85109506.77448  20784592.625    20784595.679    20784592.837
  20784595.093          56.250          53.000
 120000136.44747  93506608.30947  22835256.319    22835259.705    22835256.585
  22835259.298          46.000          46.000
 114777995.78348  89437412.82546  21841516.205                    21841515.782
  21841515.971          50.000          38.750
 106843135.79349  83254399.26949  20331558.876    20331561.348    20331558.885
  20331561.446          57.750          55.000
 118790987.15447  92564407.09845  22605164.688                    22605164.172
  22605165.718          45.750          34.000
 119323346.84847  92979243.47147  22706474.902    22706478.883    22706474.543
  22706478.594          45.750          47.000
 122122644.57547  95160501.57944  23239164.462                    23239164.092
  23239164.868          43.750          29.250
 16 10  7  0  5 30.0000000  0  9G21G27G32G24G18G10G14G08G11
 128666495.48746 100259593.13542  24484418.099                    24484416.881
  24484420.325          38.250          16.000
 122369891.01947  95353153.76447  23286210.419    23286214.641    23286210.109
  23286213.887          43.250          45.000
 109172278.22949  85069326.69948  20774779.959    20774783.313    20774780.367
  20774782.984          56.250          53.000
 120025358.59647  93526261.95047  22840055.943    22840059.530    22840056.152
  22840059.425          46.000          46.000
 114839627.50048  89485437.52846  21853244.617                    21853243.888
  21853244.675          49.750          39.000
 106860765.35649  83268136.59449  20334913.762    20334915.927    20334913.635
  20334916.324          57.500          55.000
 118699641.49147  92493228.67845  22587781.514                    22587781.570
  22587783.780          45.500          34.000
 119353277.14047  93002565.76647  22712170.511    22712174.342    22712169.855
  22712173.561          45.500          47.000
 122035606.09347  95092679.42944  23222601.282                    23222600.958
  23222601.464          43.250          29.500
 16 10  7  0  6  0.0000000  0  9G21G27G32G24G18G10G14G08G11
 128768430.11346 100339022.70342  24503815.754                    24503814.855
  24503816.794          38.250          16.500
 122460130.33347  95423470.09047  23303382.160    23303386.272    23303382.555
  23303386.868          43.750          45.000
 109121192.67349  85029519.79048  20765058.833    20765062.041    20765059.013
  20765061.828          56.500          53.000
 120051181.51347  93546383.69447  22844969.845    22844973.726    22844970.152
  22844973.360          45.000          46.000
 114901484.61948  89533637.86546  21865015.496                    21865014.700
  21865015.636          49.750          38.750
 106878769.48849  83282165.78649  20338339.762    20338342.252    20338339.755
  20338342.441          57.500          55.000
 118608574.86047  92422267.70845  22570452.745                    22570452.528
  22570453.871          46.000          34.250
 119383769.73347  93026326.20947  22717972.570    22717976.727    22717972.338
  22717976.908          45.250          47.000
 121948977.42447  95025176.63444  23206115.933                    23206115.496
  23206116.274          43.000          29.500
 16 10  7  0  6 30.0000000  0  9G21G27G32G24G18G10G14G08G11
 128870505.41846 100418561.79042  24523240.278                    24523238.439
  24523242.008          36.750          15.750
 122550652.85047  95494007.06447  23320608.263    23320612.619    23320608.455
  23320612.183          43.500          45.000
 109070586.88649  84990086.72348  20755429.018    20755431.944    20755429.203
  20755431.588          56.250          53.000
 120077603.79747  93566972.51347  22849997.492    22850002.259    22849997.906
  22850001.815          45.500          46.000
 114963566.34048  89582013.22046  21876829.212                    21876828.722
  21876829.180          49.750          38.500
 106897147.97149  83296486.67649  20341837.020    20341839.488    20341837.012
  20341839.713          57.500          55.000
 118517788.73647  92351525.30145  22553176.611                    22553176.616
  22553177.602          46.000          34.500
 119414822.96647  93050523.52447  22723881.823    22723886.050    22723881.558
  22723885.676          44.750          46.000
 121862761.27447  94957995.26244  23189709.491                    23189710.504
  23189709.980          43.250          29.000
 16 10  7  0  7  0.0000000  0  9G21G27G32G24G18G10G14G08G11
 128972719.89046 100498209.35042  24542691.268                    24542690.117
  24542692.001          36.750          15.250
 122641455.47747  95564762.32847  23337887.805    23337892.254    23337887.166
  23337891.764          43.000          45.000
 109020461.69849  84951028.15348  20745890.348    20745893.360    20745890.578
  20745893.101          56.250          53.000
 120104624.41747  93588027.53947  22855139.579    22855142.965    22855139.526
  22855143.396          45.500          46.000
 115025872.34148  89630563.33946  21888685.598                    21888685.141
  21888685.626          49.500          38.500
 106915900.55349  83311099.07749  20345405.529    20345408.270    20345405.535
  20345408.176          57.750          55.000
 118427284.71447  92281002.71945  22535954.270                    22535953.984
  22535955.732          46.500          34.750
 119446435.51947  93075156.65647  22729897.842    22729901.800    22729897.420
  22729901.652          45.750          46.000
 121776960.48347  94891137.58044  23173382.541                    23173382.417
  23173382.836          43.000          28.750
 16 10  7  0  7 30.0000000  0 10G21G27G32G24G01G18G10G14G08G11
 129075071.80946 100577964.01943  24562167.787                    24562166.538
  24562170.449          36.500          19.250
 122732535.15947  95635733.45447  23355219.862    23355222.967    23355219.014
  23355222.802          43.000          45.000
 108970817.95949  84912344.73548  20736443.466    20736446.447    20736443.754
  20736446.067          56.250          53.000
 120132243.02047  93609548.52647  22860395.137    22860399.449    22860395.779
  22860399.387          45.500          46.000
 128839827.43645 100394659.04645  24517402.415    24517407.244    24517401.894
  24517403.618          33.000          31.000
 115088402.20648  89679287.90046  21900584.794                    21900584.009
  21900585.033          49.500          38.750
 106935027.03549  83326002.82749  20349045.169    20349047.685    20349045.161
  20349047.777          57.500          55.000
 118337064.40247  92210701.21845  22518785.610                    22518785.627
  22518787.021          46.500          34.750
 119478605.65947  93100224.28047  22736019.257    22736024.063    22736019.180
  22736023.061          44.750          46.000
 121691577.27047  94824605.25544  23157134.394                    23157134.267
  23157134.865          43.250          28.750
 16 10  7  0  8  0.0000000  0 10G21G27G32G24G01G18G10G14G08G11
 129177558.85646 100657823.91943  24581668.874                    24581669.159
  24581673.274          36.250          19.750
 122823888.80247  95706918.07847  23372603.394    23372607.763    23372602.917
  23372607.094          42.750          46.000
 108921656.46349  84874037.09048  20727088.392    20727091.208    20727088.513
  20727090.915          56.500          53.000
 120160458.72547  93631534.79247  22865764.637    22865768.365    22865764.994
  22865768.073          45.000          46.000
 128732898.43145 100311337.82945  24497053.914    24497057.697    24497054.490
  24497059.603          34.500          34.000
 115151155.23448  89728186.34246  21912526.362                    21912525.632
  21912526.665          49.250          38.500
 106954527.19449  83341197.75249  20352755.959    20352758.196    20352755.955
  20352758.483          57.750          55.000
 118247129.41247  92140622.06545  22501671.686                    22501671.063
  22501673.220          46.500          34.500
 119511331.84747  93125725.19847  22742247.261    22742251.140    22742246.933
  22742251.129          46.000          46.000
 121606614.58747  94758400.61344  23140966.636                    23140965.830
  23140966.607          43.750          29.000
 16 10  7  0  8 30.0000000  0 10G21G27G32G24G01G18G10G14G08G11
 129280179.41846 100737787.91143  24601197.146                    24601197.115
  24601200.987          37.250          20.000
 122915513.30747  95778313.74847  23390039.073    23390043.883    23390038.332
  23390042.839          42.750          46.000
 108872978.01249  84836105.84448  20717825.224    20717828.049    20717825.393
  20717827.720          56.500          53.000
 120189270.29247  93653985.36347  22871247.085    22871250.861    22871247.399
  22871250.846          45.000          46.000
 128626097.66345 100228116.54345  24476729.401    24476733.624    24476728.017
  24476734.190          33.750          35.000
 115214131.11048  89777258.43546  21924510.454                    21924509.549
  21924510.299          49.500          38.750
 106974400.78649  83356683.66149  20356537.788    20356540.201    20356537.754
  20356540.410          57.250          55.000
 118157481.18347  92070766.32245  22484612.180                    22484611.718
  22484613.121          46.250          34.750
 119544612.46847  93151658.12847  22748580.457    22748584.394    22748580.247
  22748583.282          45.500          46.000
 121522075.12147  94692525.76144  23124878.868                    23124878.687
  23124879.069          43.000          28.750
 16 10  7  0  9  0.0000000  0 10G21G27G32G24G01G18G10G14G08G11
 129382931.97146 100817854.70043  24620750.497                    24620751.271
  24620753.884          38.000          21.500
 123007405.65547  95849918.12447  23407525.695    23407530.367    23407524.874
  23407529.684          42.250          46.000
 108824783.40549  84798551.61949  20708654.073    20708656.838    20708654.250
  20708656.642          56.500          54.000
 120218676.54247  93676899.32847  22876843.105    22876846.695    22876842.428
  22876846.968          44.500          46.000
 128519427.27345 100144996.87145  24456431.518    24456435.871    24456431.223
  24456437.767          33.250          35.000
 115277328.91648  89826503.46346  21936536.228                    21936535.715
  21936536.371          49.250          38.500
 106994647.55749  83372460.36849  20360390.584    20360392.877    20360390.593
  20360393.205          57.500          55.000
 118068121.38647  92001135.36145  22467607.648                    22467607.165
  22467608.880          46.500          35.000
 119578446.29747  93178022.11947  22755018.642    22755022.944    22755018.882
  22755022.204          46.500          46.000
 121437961.53847  94626982.76844  23108872.393                    23108872.656
  23108873.035          43.250          27.750
 16 10  7  0  9 30.0000000  0 10G21G27G32G24G01G18G10G14G08G11
 129485814.95646 100898023.17143  24640330.940                    24640328.563
  24640332.411          38.750          21.000
 123099562.70647  95921728.76647  23425062.556    23425066.285    23425062.780
  23425065.586          42.750          45.000
 108777073.38449  84761374.99348  20699575.127    20699578.011    20699575.385
  20699577.753          56.500          53.000
 120248677.02047  93700276.31147  22882551.814    22882556.066    22882552.402
  22882555.622          45.000          46.000
 128412889.48345 100061980.48945  24436158.063    24436162.519    24436156.476
  24436163.947          33.250          34.000
 115340748.34848  89875921.19746  21948604.582                    21948603.603
  21948604.852          49.500          38.250
 107015267.28249  83388527.68349  20364314.590    20364316.843    20364314.472
  20364316.936          57.750          54.000
 117979051.87547  91931730.59145  22450658.377                    22450657.833
  22450659.142          46.750          35.250
 119612831.71147  93204815.92647  22761562.333    22761566.931    22761562.259
  22761565.657          45.750          46.000
 121354276.42047  94561773.64244  23092947.142                    23092946.637
  23092948.656          43.000          27.500
 16 10  7  0 10  0.0000000  0 10G21G27G32G24G01G18G10G14G08G11
 129588826.20446 100978291.52843  24659932.254                    24659931.862
  24659934.266          38.500          22.250
 123191981.43446  95993743.30347  23442649.699    23442653.689    23442649.640
  23442652.768          41.500          45.000
 108729848.72349  84724576.57249  20690588.664    20690591.526    20690588.803
  20690591.135          56.500          54.000
 120279270.43947  93724115.33847  22888373.617    22888377.231    22888373.479
  22888377.776          44.250          46.000
 128306486.77545                  24415910.188    24415914.748
                        33.750          34.000
 115404388.98548  89925511.28546  21960715.266                    21960714.716
  21960715.370          49.250          38.250
 107036259.74149  83404885.43849  20368309.276    20368311.649    20368309.195
  20368311.712          57.250          55.000
 117890273.82947  91862552.94345  22433764.436                    22433763.706
  22433765.593          46.750          35.500
 119647766.93347  93232038.14247  22768209.811    22768214.229    22768209.656
  22768213.696          45.500          46.000
 121271022.46947  94496900.49444  23077105.218                    23077104.558
  23077105.444          43.500          27.500
 16 10  7  0 10 30.0000000  0 10G21G27G32G24G01G18G10G14G08G11
 129691964.16246 101058658.67343  24679560.207                    24679558.298
  24679561.704          39.500          20.750
 123284658.73646  96065959.32547  23460284.341    23460288.995    23460284.375
  23460288.948          41.000          45.000
 108683110.15749  84688156.92348  20681694.463    20681697.638    20681694.782
  20681697.102          56.500          53.000
 120310456.18147  93748415.90547  22894307.957    22894311.904    22894308.429
  22894311.292          44.500          46.000
 128200221.13645  99896265.01945  24395688.024    24395691.891    24395689.817
  24395692.385          32.750          35.000
 115468250.33748  89975273.36946  21972867.491                    21972866.763
  21972867.672          49.750          38.250
 107057624.66749  83421533.43149  20372374.726    20372377.108    20372374.794
  20372377.501          57.250          55.000
 117801788.85947  91793603.67045  22416925.425                    22416925.669
  22416927.233          46.500          35.500
 119683250.33747  93259687.52847  22774962.297    22774967.006    22774961.546
  22774965.671          45.500          46.000
 121188202.11447  94432365.19944  23061345.280                    23061344.315
  23061345.193          44.000          28.250
 16 10  7  0 11  0.0000000  0 10G21G27G32G24G01G18G10G14G08G11
 129795226.72046 101139122.89643  24699210.369                    24699208.867
  24699211.898          38.250          20.250
 123377591.48846  96138374.38747  23477970.206    23477974.901    23477969.417
  23477973.335          41.750          45.000
 108636858.42449  84652116.62549  20672892.962    20672895.987    20672893.203
  20672895.818          56.750          54.000
 120342233.20647  93773177.21847  22900355.663    22900358.414    22900355.369
  22900358.261          44.250          46.000
 128094094.96045  99813569.33945  24375491.877    24375496.463    24375493.367
  24375498.154          32.000          35.000
 115532331.68348  90025206.87746  21985061.971                    21985060.917
  21985062.169          50.000          38.250
 107079361.82849  83438471.48249  20376511.161    20376513.482    20376511.141
  20376513.873          57.250          55.000
 117713598.44947  91724883.89345  22400144.254                    22400144.445
  22400145.133          47.250          35.250
 119719280.31447  93287762.83747  22781818.226    22781822.896    22781818.227
  22781821.671          45.250          46.000
 121105818.25147  94368170.04144  23045667.874                    23045667.463
  23045667.996          44.750          29.000
 16 10  7  0 11 30.0000000  0 10G21G27G32G24G01G18G10G14G08G11
 129898612.33046 101219683.02043  24718883.116                    24718881.901
  24718885.174          37.750          19.750
 123470776.58746  96210986.09747  23495702.755    23495705.670    23495701.675
  23495705.576          41.250          44.000
 108591094.19249  84616456.19649  20664184.393    20664187.537    20664184.442
  20664187.085          56.500          54.000
 120374599.97747  93798398.06847  22906513.988    22906518.455    22906513.935
  22906518.194          44.000          46.000
 127988115.48145  99730988.11846  24355323.641    24355328.760    24355323.369
  24355328.625          31.750          37.000
 115596633.01348  90075311.78846  21997297.868                    21997297.325
  21997298.164          49.250          38.000
 107101470.94249  83455699.36549  20380718.657    20380720.915    20380718.424
  20380721.095          57.500          54.000
 117625704.31447  91656395.00845  22383418.759                    22383417.762
  22383418.567          47.250          35.500
 119755855.55647  93316262.99047  22788778.337    22788782.893    22788778.181
  22788782.342          45.250          46.000
 121023873.73447  94304317.22445  23030074.427                    23030073.804
  23030075.513          45.750          30.750
 16 10  7  0 12  0.0000000  0 10G21G27G32G24G01G18G10G14G08G11
 130002119.40146 101300337.80042  24738580.332                    24738579.854
  24738580.442          36.750          16.500
 123564211.05246  96283792.11047  23513482.911    23513486.848    23513481.886
  23513485.881          41.500          44.000
 108545818.20249  84581176.22149  20655568.575    20655571.877    20655568.751
  20655571.281          56.750          54.000
 120407555.72847  93824077.87247  22912785.117    22912789.179    22912785.740
  22912788.419          44.000          46.000
 127882274.94745  99648515.05946  24335182.100    24335188.489    24335182.007
  24335188.458          31.250          37.000
 115661153.22148  90125587.27946  22009575.725                    22009575.076
  22009576.202          49.750          37.750
 107123951.76149  83473216.88549  20384996.435    20384998.874    20384996.461
  20384999.082          57.500          55.000
 117538108.01447  91588138.18445  22366749.171                    22366748.773
  22366749.675          47.250          35.500
 119792973.74047  93345186.22547  22795842.109    22795846.191    22795842.081
  22795845.861          46.000          46.000
 120942371.01947  94240808.66945  23014564.937                    23014563.977
  23014565.605          45.750          30.750
 16 10  7  0 12 30.0000000  0 10G21G27G32G24G01G18G10G14G08G11
 130105746.49146 101381086.08642  24758300.903                    24758300.582
  24758301.589          37.250          17.000
 123657891.65647  96356789.91947  23531309.630    23531313.533    23531309.006
  23531313.609          43.000          44.000
 108501031.11549  84546277.20749  20647045.954    20647048.695    20647046.036
  20647048.565          56.750          54.000
 120441099.24447  93850215.66447  22919168.896    22919172.235    22919168.442
  22919172.229          44.000          46.000
 127776580.70245  99566155.97046  24315070.550    24315075.375    24315070.546
  24315075.389          33.750          37.000
 115725892.26848  90176033.27246  22021894.919                    22021894.441
  22021894.989          48.750          38.000
 107146804.03649  83491023.85049  20389344.978    20389347.508    20389344.943
  20389347.605          57.250          54.000
 117450811.48147  91520114.95645  22350137.439                    22350136.667
  22350137.947          47.250          35.750
 119830633.59447  93374531.55547  22803008.568    22803012.670    22803008.119
  22803012.191          46.250          46.000
 120861312.80547  94177646.48945  22999139.746                    22999139.693
  22999140.339          46.000          30.250
 16 10  7  0 13  0.0000000  0 10G21G27G32G24G01G18G10G14G08G11
 130209491.16245 101461926.01242  24778042.594                    24778041.517
  24778044.593          35.750          14.000
 123751815.34047  96429977.16047  23549181.191    23549186.653    23549182.592
  23549186.363          42.000          43.000
 108456733.56549  84511759.64749  20638616.310    20638619.271    20638616.442
  20638619.071          57.000          54.000
 120475229.39747  93876810.57747  22925663.589    22925667.192    22925663.635
  22925667.053          43.500          46.000
 127671035.05445  99483912.65746  24294985.873    24294991.563    24294986.704
  24294991.483          35.000          38.000
 115790849.44948  90226649.25146  22034256.603                    22034255.277
  22034256.465          50.000          37.750
 107170027.49549  83509120.05449  20393764.237    20393766.899    20393764.332
  20393766.906          57.500          55.000
 117363815.52547  91452325.92745  22333582.715                    22333582.110
  22333583.100          47.500          35.500
 119868833.54147  93404297.72147  22810277.708    22810282.131    22810277.574
  22810280.842          46.750          45.000
 120780701.74347  94114832.70045  22983800.135                    22983799.466
  22983800.014          46.000          30.000
 16 10  7  0 13 30.0000000  0 10G21G27G32G24G01G18G10G14G08G11
 130313351.63246 101542856.14442  24797806.058                    24797805.003
  24797805.693          36.250          14.000
 123845979.02247  96503351.40847  23567101.491    23567105.651    23567101.553
  23567104.060          42.750          43.000
 108412926.24949  84477624.09049  20630280.071    20630283.027    20630280.099
  20630282.697          57.000          54.000
 120509945.27247  93903861.90347  22932269.336    22932273.646    22932270.233
  22932273.149          44.250          46.000
 127565640.27845  99401786.94446  24274928.823    24274934.492    24274930.448
  24274936.691          34.000          38.000
 115856024.69648  90277435.13946  22046658.761                    22046658.402
  22046658.512          50.000          37.750
 107193621.87649  83527505.28349  20398254.131    20398256.421    20398254.162
  20398256.849          57.500          54.000
 117277121.63347  91384772.28046  22317085.076                    22317084.708
  22317085.506          47.750          36.000
 119907571.37347  93434483.03947  22817649.007    22817653.652    22817649.301
  22817653.754          46.750          46.000
 120700540.67847  94052369.57845  22968545.998                    22968546.235
  22968546.223          46.000          30.000
 16 10  7  0 14  0.0000000  0 10G21G27G32G24G01G18G10G14G08G11
 130417326.67746 101623875.55242  24817592.636                    24817588.533
  24817594.654          36.000          14.750
 123940379.61747  96576910.25947  23585064.744    23585068.373    23585064.571
  23585068.434          42.250          42.000
 108369609.76449  84443871.00149  20622037.331    20622040.096    20622037.361
  20622039.896          57.250          54.000
 120545245.04147  93931368.20247  22938986.964    22938990.902    22938987.194
  22938990.865          44.500          46.000
 127460398.59045  99319780.49346  24254901.596    24254907.964    24254902.395
  24254908.668          34.500          38.000
 115921417.31448  90328390.41846  22059102.554                    22059101.624
  22059102.498          49.750          37.500
 107217586.88949  83546179.32249  20402814.366    20402816.798    20402814.501
  20402817.164          57.000          54.000
 117190731.85148  91317455.59746  22300645.975                    22300645.557
  22300646.375          48.000          36.250
 119946845.59347  93465086.32647  22825122.791    22825126.512    22825122.569
  22825126.390          46.750          46.000
 120620831.75647  93990258.77445  22953378.381                    22953377.262
  22953378.641          45.500          30.250
 16 10  7  0 14 30.0000000  0 10G21G27G32G24G01G18G10G14G08G11
 130521414.05745 101704982.56442  24837397.955                    24837399.007
  24837402.673          35.750          16.000
 124035013.99046  96650651.27347  23603072.921    23603078.195    23603073.119
  23603077.884          41.500          44.000
 108326784.76149  84410500.87849  20613887.778    20613890.827    20613888.003
  20613890.444          57.250          54.000
 120581128.24347  93959329.12647  22945814.614    22945818.736    22945815.097
  22945818.901          44.250          46.000
 127355312.41045  99237895.20346  24234904.733    24234909.875    24234904.829
  24234910.526          33.000          37.000
 115987026.31248  90379514.29546  22071587.512                    22071586.805
  22071587.183          49.500          37.500
 107241922.28649  83565141.96749  20407445.221    20407447.988    20407445.403
  20407448.066          57.250          54.000
 117104647.66248  91250377.04746  22284264.720                    22284264.070
  22284264.874          48.000          36.000
 119986654.00047  93496105.86247  22832698.472    22832702.178    22832697.790
  22832701.716          46.500          45.000
 120541577.63747  93928502.37845  22938296.830                    22938296.552
  22938296.795          45.000          30.500
 16 10  7  0 15  0.0000000  0 10G21G27G32G24G01G18G10G14G08G11
 130625612.12046 101786175.76942  24857225.777                    24857226.202
  24857229.006          36.250          16.250
 124129879.06647  96724572.06047  23621125.484    23621130.179    23621125.483
  23621129.705          43.000          43.000
 108284451.83049  84377514.19149  20605832.019    20605835.457    20605832.385
  20605834.929          57.250          54.000
 120617593.44647  93987743.58447  22952753.884    22952758.568    22952753.935
  22952758.144          44.000          46.000
 127250384.02145  99156132.90246  24214937.671    24214942.104    24214937.841
  24214942.844          35.750          38.000
 116052851.37648  90430806.54046  22084113.238                    22084112.810
  22084113.580          49.250          37.250
 107266627.77449  83584393.00349  20412146.440    20412149.310    20412146.705
  20412149.368          57.250          54.000
 117018870.24347  91183537.54446  22267941.842                    22267940.960
  22267942.155          47.750          36.250
 120026995.30947  93527540.62847  22840374.416    22840379.371    22840374.248
  22840378.858          45.750          45.000
 120462780.70647  93867102.22445  22923301.604                    22923301.684
  22923302.137          45.500          30.750
 16 10  7  0 15 30.0000000  0 10G21G27G32G24G01G18G10G14G08G11
 130729918.90146 101867453.71142  24877077.519                    24877077.224
  24877078.029          37.500          15.000
 124224971.73747  96798670.20247  23639221.649    23639225.469    23639221.302
  23639225.086          42.750          43.000
 108242611.53849  84344911.38449  20597870.262    20597873.381    20597870.498
  20597872.900          57.250          54.000
 120654639.45647  94016610.58647  22959804.164    22959808.064    22959803.479
  22959808.003          44.000          46.000
 127145615.73646  99074495.31446  24195001.881    24195006.460    24195000.838
  24195005.461          36.500          38.000
 116118891.84048  90482266.62446  22096680.865                    22096679.723
  22096680.758          49.750          37.250
 107291703.06649  83603932.19649  20416918.444    20416920.825    20416918.334
  20416920.940          57.250          54.000
 116933400.75148  91116937.97946  22251677.321                    22251676.767
  22251678.110          48.000          36.000
 120067867.81247  93559389.30447  22848151.846    22848157.072    22848152.306
  22848156.243          46.000          45.000
 120384443.91047  93806060.59845  22908394.428                    22908393.902
  22908395.052          44.500          30.250
 16 10  7  0 16  0.0000000  0 10G21G27G32G24G01G18G10G14G08G11
 130834332.58146 101948814.97442  24896945.764                    24896945.192
  24896948.253          37.500          14.500
 124320288.89547  96872943.26147  23657358.939    23657363.407    23657359.789
  23657363.436          43.000          43.000
 108201264.48649  84312692.91449  20590001.892    20590005.209    20590002.310
  20590004.895          57.500          54.000
 120692265.01347  94045929.20547  22966963.970    22966967.524    22966963.912
  22966967.502          44.250          46.000
 127041009.91745  98992984.34646  24175094.765    24175100.680    24175094.896
  24175100.526          35.500          38.000
 116185147.21748  90533894.17746  22109288.447                    22109288.010
  22109289.050          49.250          37.500
 107317147.88349  83623759.33249  20421760.301    20421762.472    20421760.325
  20421762.875          57.000          54.000
 116848241.27447  91050579.98446  22235471.908                    22235471.605
  22235473.051          47.750          36.500
 120109269.24447  93591650.17247  22856030.686    22856035.358    22856030.480
  22856034.057          47.000          45.000
 120306569.66747  93745379.43645  22893576.427                    22893575.539
  22893576.138          45.500          31.250
 16 10  7  0 16 30.0000000  0 10G21G27G32G24G01G18G10G14G08G11
 130938851.58046 102030258.28042  24916836.014                    24916835.484
  24916837.868          39.750          17.500
 124415827.42647  96947388.79647  23675540.344    23675544.221    23675539.890
  23675544.743          42.000          45.000
 108160411.23449  84280859.22549  20582228.110    20582231.045    20582228.354
  20582230.702          57.250          54.000
 120730468.45147  94075698.11247  22974234.357    22974237.455    22974234.049
  22974237.452          44.500          46.000
 126936568.80745  98911601.71746  24155220.446    24155225.175    24155221.850
  24155225.491          35.750          38.000
 116251617.22048  90585688.96246  22121937.735                    22121936.606
  22121937.356          49.250          37.250
 107342961.93049  83643874.17749  20426672.531    20426675.120    20426672.684
  20426675.256          57.250          54.000
 116763393.15547  90984464.60646  22219325.496                    22219325.170
  22219326.509          47.750          36.500
 120151197.70047  93624321.70147  22864010.172    22864014.114    22864009.671
  22864013.085          47.000          45.000
 120229160.56647  93685060.70045  22878845.127                    22878845.239
  22878845.665          46.250          31.750
 16 10  7  0 17  0.0000000  0 10G21G27G32G24G01G18G10G14G08G11
 131043474.06446 102111782.22242  24936743.984                    24936743.130
  24936744.994          40.000          17.750
 124511584.23947  97022004.43247  23693763.277    23693766.310    23693762.322
  23693765.202          43.250          44.000
 108120052.18949  84249410.63149  20574547.988    20574550.987    20574548.093
  20574550.689          57.500          54.000
 120769248.73147  94105916.50947  22981612.815    22981617.342    22981612.853
  22981616.715          44.500          46.000
 126832294.82946  98830349.31146  24135378.326    24135382.736    24135378.133
  24135382.783          37.000          38.000
 116318301.42548  90637650.67146  22134626.818                    22134626.473
  22134627.002          49.000          37.250
 107369144.91349  83664276.50449  20431655.185    20431657.488    20431655.170
  20431657.789          57.000          54.000
 116678857.73348  90918592.89846  22203239.088                    22203238.615
  22203239.509          48.250          36.750
 120193651.60747  93657402.65447  22872088.620    22872092.831    22872088.408
  22872091.931          46.750          45.000
 120152219.17647  93625106.40145  22864203.859                    22864203.463
  22864204.554          45.750          31.500
 16 10  7  0 17 30.0000000  0 10G21G27G32G24G01G18G10G14G08G11
 131148197.97746 102193385.22643  24956672.432                    24956671.036
  24956674.322          40.250          18.250
 124607556.19846  97096787.72847  23712025.276    23712028.796    23712025.236
  23712028.587          41.750          45.000
 108080188.11349  84218347.72249  20566962.003    20566964.838    20566962.208
  20566964.715          57.250          54.000
 120808604.67847  94136583.47747  22989102.478    22989105.992    22989102.444
  22989106.166          45.000          45.000
 126728190.31646  98749228.96046  24115567.762    24115573.206    24115567.578
  24115572.946          38.000          39.000
 116385199.23648  90689778.81946  22147357.263                    22147356.477
  22147357.345          48.750          37.000
 107395696.54549  83684966.08949  20436707.493    20436710.378    20436707.767
  20436710.315          57.000          54.000
 116594636.58948  90852966.09146  22187212.606                    22187212.237
  22187213.280          48.000          37.000
 120236629.09547  93690891.58847  22880266.979    22880271.799    22880266.928
  22880270.694          46.750          45.000
 120075748.15447  93565518.62645  22849651.773                    22849651.313
  22849652.090          46.000          31.500
 16 10  7  0 18  0.0000000  0 10G21G27G32G24G01G18G10G14G08G11
 131253021.69146 102275066.02243  24976620.067                    24976618.556
  24976622.763          41.250          19.750
 124703740.24146  97171736.27047  23730327.481    23730333.090    23730327.637
  23730333.098          41.000          45.000
 108040819.40849  84187670.82249  20559470.464    20559473.632    20559470.515
  20559473.214          57.500          54.000
 120848534.71047  94167697.77747  22996700.314    22996704.757    22996700.430
  22996705.119          44.250          46.000
 126624257.54846  98668242.43946  24095789.545    24095795.802    24095790.173
  24095795.323          38.750          40.000
 116452310.20948  90742073.06446  22160127.926                    22160127.302
  22160128.042          49.000          37.000
 107422616.51649  83705942.69449  20441830.418    20441832.890    20441830.506
  20441833.106          57.000          54.000
 116510730.94248  90787585.11946  22171245.574                    22171245.025
  22171246.496          48.250          37.000
 120280127.88847  93724786.75147  22888544.482    22888549.196    22888544.486
  22888548.051          46.500          46.000
 119999750.18047  93506299.43945  22835190.045                    22835189.310
  22835190.581          46.500          31.500
 16 10  7  0 18 30.0000000  0 10G21G27G32G24G01G18G10G14G08G11
 131357943.41146 102356823.18743  24996585.584                    24996585.339
  24996588.208          40.750          20.500
 124800133.19946  97246847.59247  23748671.766    23748676.358    23748671.240
  23748675.149          41.250          45.000
 108001946.54549  84157380.28849  20552073.263    20552076.021    20552073.408
  20552075.815          57.500          54.000
 120889037.38947  94199258.31847  23004408.158    23004412.545    23004407.568
  23004412.329          44.500          46.000
 126520498.97346  98587391.61846  24076045.602    24076050.395    24076045.607
  24076049.832          39.500          40.000
 116519633.57148  90794532.80746  22172939.322                    22172938.581
  22172939.603          49.000          36.750
 107449904.50749  83727206.06249  20447023.059    20447025.506    20447023.154
  20447025.644          56.750          54.000
 116427142.40248  90722451.23046  22155339.261                    22155338.723
  22155339.847          48.250          37.250
 120324146.07947  93759086.63847  22896921.247    22896925.377    22896920.618
  22896924.495          46.750          45.000
 119924227.14847  93447450.36045  22820818.605                    22820818.239
  22820818.782          46.250          31.250
 16 10  7  0 19  0.0000000  0 10G21G27G32G24G01G18G10G14G08G11
 131462961.34946 102438655.27343  25016568.713                    25016568.044
  25016571.408          40.250          20.000
 124896732.08246  97322119.34847  23767052.339    23767057.731    23767053.275
  23767057.492          40.250          44.000
 107963570.05549  84127476.54249  20544770.333    20544773.277    20544770.635
  20544773.075          57.500          54.000
 120930111.37147  94231264.01347  23012224.530    23012228.081    23012224.193
  23012227.886          44.750          45.000
 126416916.88946  98506678.32846  24056334.570    24056339.577    24056333.538
  24056339.404          40.000          40.000
 116587168.88848  90847157.72246  22185791.148                    22185790.281
  22185790.814          49.000          36.250
 107477560.24449  83748755.99649  20452285.756    20452288.363    20452285.737
  20452288.415          56.750          54.000
 116343872.35748  90657565.53246  22139493.505                    22139492.908
  22139494.084          48.500          37.500
 120368682.12147  93793790.02347  22905395.863    22905399.654    22905395.256
  22905398.871          46.250          45.000
 119849182.20747  93388973.80945  22806537.660                    22806537.731
  22806537.943          46.750          31.750
 16 10  7  0 19 30.0000000  0 10G21G27G32G24G01G18G10G14G08G11
 131568073.73946 102520560.97543  25036571.350                    25036570.993
  25036572.868          39.750          20.500
 124993533.62246  97397549.04247  23785474.239    23785478.376    23785473.811
  23785478.296          41.250          44.000
 107925690.37149  84097959.91849  20537562.103    20537565.029    20537562.319
  20537564.626          57.500          54.000
 120971755.36647  94263713.87647  23020149.937    23020152.541    23020148.901
  23020152.336          44.750          45.000
 126313513.67946  98426104.41446  24036658.349    24036662.707    24036656.648
  24036662.089          40.500          40.000
 116654915.65348  90899947.38746  22198682.658                    22198681.940
  22198682.393          48.750          36.500
 107505583.38149  83770592.21049  20457618.325    20457620.869    20457618.395
  20457621.087          56.750          54.000
 116260922.40748  90592929.25446  22123708.736                    22123708.450
  22123709.233          49.000          37.500
 120413733.61647  93828895.10547  22913968.601    22913972.959    22913968.382
  22913972.718          46.000          45.000
 119774617.65847  93330871.56645  22792348.884                    22792348.485
  22792348.624          46.500          32.250
 16 10  7  0 20  0.0000000  0 10G21G27G32G24G01G18G10G14G08G11
 131673278.79146 102602538.89643  25056590.862                    25056589.838
  25056594.767          39.500          18.250
 125090534.78846  97473134.29547  23803932.638    23803937.229    23803932.390
  23803937.121          41.000          44.000
 107888307.93549  84068830.75949  20530448.627    20530451.502    20530448.732
  20530451.089          57.500          54.000
 121013967.89447  94296606.74447  23028181.860    23028185.632    23028181.967
  23028185.221          44.500          46.000
 126210291.73346  98345671.71446  24017015.150    24017019.025    24017015.158
  24017019.983          41.250          41.000
 116722873.48648  90952901.53946  22211614.570                    22211614.091
  22211614.639          48.500          36.500
 107533973.63449  83792714.48249  20463020.572    20463023.592    20463020.759
  20463023.599          57.000          54.000
 116178293.75948  90528543.36146  22107985.224                    22107984.155
  22107985.751          48.500          37.750
 120459298.66047  93864400.32547  22922639.482    22922643.854    22922638.585
  22922643.182          46.250          45.000
 119700535.90447  93273145.54045  22778251.292                    22778250.844
  22778250.578          46.250          31.500
 16 10  7  0 20 30.0000000  0 10G21G27G32G24G01G18G10G14G08G11
 131778574.61146 102684587.55943  25076629.223                    25076628.509
  25076630.355          40.250          18.500
 125187732.49546  97548872.69647  23822428.936    23822433.774    23822428.532
  23822433.214          41.750          43.000
 107851423.21149  84040089.43249  20523429.400    20523432.272    20523429.700
  20523432.067          57.500          54.000
 121056747.96947  94329941.87047  23036322.682    23036326.098    23036322.400
  23036326.627          45.000          45.000
 126107253.48746  98265382.19647  23997407.946    23997412.372    23997407.839
  23997411.886          41.000          42.000
 116791042.06348  91006019.89246  22224586.760                    22224585.935
  22224586.777          48.250          36.250
 107562730.67349  83815122.56749  20468493.405    20468495.502    20468493.054
  20468495.777          57.000          54.000
 116095987.65348  90464408.78046  22092322.696                    22092321.937
  22092323.788          48.500          37.500
 120505374.99747  93900303.95147  22931407.030    22931411.438    22931407.564
  22931410.978          46.000          45.000
 119626939.57147  93215797.77145  22764246.869                    22764245.444
  22764245.928          46.750          32.000
 16 10  7  0 21  0.0000000  0  9G27G32G24G01G18G10G14G08G11
 125285123.59046  97624761.80747  23840961.335    23840966.691    23840961.960
  23840965.602          41.000          43.000
 107815036.59649  84011736.24249  20516505.391    20516508.278    20516505.517
  20516508.025          57.250          54.000
 121100093.54447  94363717.63847  23044571.082    23044574.756    23044570.831
  23044574.401          45.250          45.000
 126004401.25746  98185237.64547  23977834.765    23977840.724    23977835.826
  23977840.134          40.500          42.000
 116859420.41548  91059301.69546  22237598.738                    22237597.891
  22237598.897          48.750          36.250
 107591854.17449  83837816.20549  20474035.171    20474037.504    20474035.158
  20474037.767          56.750          54.000
 116014005.57548  90400526.69946  22076722.355                    22076721.197
  22076722.879          49.000          37.750
 120551961.19547  93936604.87847  22940272.873    22940277.269    22940272.694
  22940276.176          46.500          45.000
 119553830.98747  93158830.07545  22750333.834                    22750333.351
  22750334.763          45.750          31.250
 16 10  7  0 21 30.0000000  0  9G27G32G24G01G18G10G14G08G11
 125382704.99746  97700799.21047  23859530.659    23859534.981    23859530.464
  23859534.239          41.750          42.000
 107779148.51849  83983771.52449  20509675.786    20509678.976    20509676.214
  20509678.736          57.500          54.000
 121144003.01647  94397932.81247  23052926.635    23052930.312    23052926.456
  23052930.271          45.000          45.000
 125901737.49446  98105239.96347  23958299.615    23958304.059    23958298.273
  23958303.721          41.000          42.000
 116928008.24748  91112746.74546  22250650.365                    22250649.641
  22250650.658          48.750          36.750
 107621343.81049  83860795.14349  20479646.771    20479649.308    20479646.950
  20479649.524          56.500          55.000
 115932349.25848  90336898.44846  22061182.947                    22061182.946
  22061183.681          48.500          37.750
 120599054.71147  93973301.10647  22949234.153    22949238.980    22949234.155
  22949237.991          46.500          45.000
 119481212.61447  93102244.36045  22736514.996                    22736514.701
  22736515.293          46.000          31.500
 16 10  7  0 22  0.0000000  0  9G27G32G24G01G18G10G14G08G11
 125480473.55846  97776982.45647  23878135.823    23878140.921    23878135.236
  23878139.471          41.750          42.000
 107743759.36049  83956195.57249  20502941.419    20502944.847    20502941.810
  20502944.384          57.000          54.000
 121188475.16947  94432586.43347  23061388.723    23061393.320    23061389.639
  23061393.339          45.250          45.000
 125799264.59746  98025391.00247  23938799.789    23938804.539    23938799.213
  23938803.223          41.500          42.000
 116996804.81348  91166354.43946  22263741.936                    22263740.918
  22263742.130          48.500          36.000
 107651199.25449  83884059.12749  20485328.383    20485330.530    20485328.218
  20485330.774          56.750          54.000
 115851019.77248  90273524.88746  22045706.327                    22045705.751
  22045707.166          49.250          37.750
 120646653.62447  94010391.15547  22958291.967    22958296.102    22958291.751
  22958295.900          46.000          45.000
 119409086.96447  93046042.59645  22722789.722                    22722788.883
  22722790.662          45.750          31.500
 16 10  7  0 22 30.0000000  0  9G27G32G24G01G18G10G14G08G11
 125578426.21346  97853309.13846  23896775.306    23896779.326    23896774.939
  23896779.314          40.750          40.000
 107708869.48549  83929008.67249  20496302.269    20496305.103    20496302.511
  20496304.961          56.750          54.000
 121233508.32047  94467677.21147  23069958.707    23069962.941    23069959.259
  23069962.940          45.000          45.000
 125696984.92746  97945692.61147  23919335.921    23919340.341    23919336.886
  23919340.780          41.500          42.000
 117065809.50248  91220124.29946  22276873.198                    22276872.677
  22276873.188          49.250          36.000
 107681420.17149  83907607.89749  20491079.006    20491081.646    20491078.982
  20491081.665          56.750          54.000
 115770018.68348  90210407.20546  22030292.225                    22030291.828
  22030293.090          49.250          38.250
 120694755.95347  94047873.46347  22967445.828    22967450.101    22967445.173
  22967449.719          46.750          46.000
 119337456.60847  92990226.75945  22709159.399                    22709158.590
  22709159.549          46.250          31.750
 16 10  7  0 23  0.0000000  0  9G27G32G24G01G18G10G14G08G11
 125676559.86747  97929776.87146  23915450.220    23915454.481    23915449.095
  23915453.775          42.000          41.000
 107674479.23549  83902211.09349  20489757.900    20489761.082    20489758.204
  20489760.710          57.000          54.000
 121279100.93247  94503203.90947  23078635.637    23078638.444    23078635.059
  23078639.130          45.500          45.000
 125594900.91546  97866146.69247  23899909.747    23899915.318    23899910.349
  23899915.742          41.250          43.000
 117135022.32448  91274056.36146  22290044.188                    22290043.011
  22290043.533          48.750          36.000
 107712006.22349  83931441.18649  20496899.208    20496901.576    20496899.212
  20496901.982          56.250          54.000
 115689347.24748  90147546.40346  22014941.084                    22014940.499
  22014941.677          49.250          38.250
 120743359.44547  94085746.32347  22976694.730    22976698.979    22976694.861
  22976698.485          46.500          45.000
 119266323.86547  92934798.68345  22695623.552                    22695623.452
  22695623.541          46.750          31.750
 16 10  7  0 23 30.0000000  0  9G27G32G24G01G18G10G14G08G11
 125774871.40747  98006383.21446  23934158.280    23934161.767    23934157.149
  23934161.662          42.250          41.000
 107640588.97949  83875803.11649  20483308.830    20483311.861    20483309.142
  20483311.674          56.750          54.000
 121325251.52747  94539165.40647  23087417.369    23087421.453    23087417.563
  23087420.324          45.500          46.000
 125493015.00047  97786755.14847  23880521.729    23880526.416    23880521.883
  23880527.340          42.000          42.000
 117204442.65048  91328150.11145  22303254.307                    22303253.648
  22303254.443          48.750          35.750
 107742957.08249  83955558.73549  20502789.190    20502791.734    20502789.040
  20502791.763          56.000          54.000
 115609006.76148  90084943.48446  21999652.762                    21999652.343
  21999653.130          49.250          38.250
 120792461.71847  94124007.81947  22986038.271    22986042.998    22986039.011
  22986041.879          46.500          45.000
 119195691.14547  92879760.22445  22682181.938                    22682181.230
  22682182.471          46.250          32.000
 16 10  7  0 24  0.0000000  0  9G27G32G24G01G18G10G14G08G11
 125873357.72546  98083125.75146  23952899.289    23952903.158    23952898.621
  23952903.333          41.500          41.000
 107607199.04949  83849785.00649  20476954.952    20476958.103    20476955.187
  20476957.767          56.500          54.000
 121371958.52747  94575560.47547  23096304.798    23096308.648    23096305.213
  23096308.693          45.250          45.000
 125391329.52147  97707519.80847  23861172.320    23861175.895    23861172.001
  23861176.836          42.500          42.000
 117274069.89248  91382405.09345  22316503.906                    22316503.266
  22316503.788          48.250          35.750
 107774272.41049  83979960.29149  20508748.039    20508750.752    20508748.102
  20508750.881          56.000          54.000
 115528998.48148  90022599.42146  21984427.945                    21984427.362
  21984428.322          49.500          38.000
 120842060.92647  94162656.54247  22995476.993    22995480.694    22995476.403
  22995480.605          46.500          45.000
 119125560.76447  92825113.21345  22668835.991                    22668836.160
  22668836.935          46.000          31.750
 16 10  7  0 24 30.0000000  0  9G27G32G24G01G18G10G14G08G11
 125972015.71746  98160002.05346  23971673.674    23971677.680    23971673.384
  23971677.441          41.000          41.000
 107574309.72249  83824156.97449  20470696.398    20470699.390    20470696.634
  20470699.204          56.750          54.000
 121419220.55147  94612388.02547  23105300.090    23105302.069    23105299.725
  23105302.695          45.000          45.000
 125289846.95347  97628442.57347  23841860.126    23841864.424    23841860.252
  23841864.762          42.750          42.000
 117343903.32348  91436820.74846  22329792.783                    22329792.072
  22329793.098          49.000          36.000
 107805951.81649  84004645.54149  20514776.624    20514779.189    20514776.452
  20514779.313          56.000          54.000
 115449323.80148  89960515.30946  21969266.224                    21969265.325
  21969266.370          49.500          38.000
 120892154.77647  94201690.70147  23005009.345    23005013.786    23005009.179
  23005012.878          45.750          45.000
 119055935.29947  92770859.63045  22655587.330                    22655587.608
  22655587.411          46.500          31.500
 16 10  7  0 25  0.0000000  0  9G27G32G24G01G18G10G14G08G11
 126070842.25446  98237009.66647  23990480.102    23990483.950    23990479.973
  23990483.693          41.000          42.000
 107541921.32949  83798919.28149  20464533.158    20464536.072    20464533.440
  20464535.740          57.000          54.000
 121467035.10447  94649646.11247  23114397.842    23114401.643    23114398.135
  23114402.019          44.250          45.000
 125188569.72047  97549525.31947  23822587.309    23822592.322    23822587.854
  23822592.045          42.250          42.000
 117413942.53448  91491396.72845  22343120.891                    22343120.248
  22343121.110          48.750          35.500
 107837994.99249  84029614.24349  20520874.295    20520876.795    20520874.133
  20520876.962          56.000          54.000
 115369984.33248  89898692.39746  21954168.713                    21954167.767
  21954168.809          50.000          38.750
 120942741.11747  94241108.59447  23014635.783    23014639.985    23014635.712
  23014639.420          46.500          45.000
 118986816.99847  92717001.25445  22642434.560                    22642434.674
  22642434.727          46.750          32.000
 16 10  7  0 25 30.0000000  0  9G27G32G24G01G18G10G14G08G11
 126169834.26246  98314146.22547  24009317.218    24009322.516    24009317.322
  24009322.092          40.750          43.000
 107510034.11949  83774072.11949  20458465.271    20458468.156    20458465.455
  20458467.658          56.500          54.000
 121515401.42947  94687334.15547  23123601.881    23123605.808    23123601.468
  23123605.490          44.750          45.000
 125087500.21846  97470769.95247  23803354.768    23803359.677    23803354.958
  23803359.454          41.750          43.000
 117484187.10848  91546132.76845  22356487.897                    22356487.242
  22356488.101          48.750          35.500
 107870401.56749  84054866.12249  20527041.132    20527043.430    20527040.922
  20527043.675          56.000          54.000
 115290981.20048  89837131.55746  21939134.639                    21939133.923
  21939134.912          50.000          38.750
 120993818.01547  94280908.75747  23024355.335    23024359.701    23024354.281
  23024359.078          46.250          45.000
 118918208.15347  92663539.84745  22629378.904                    22629378.115
  22629378.593          47.250          33.250
 16 10  7  0 26  0.0000000  0  9G27G32G24G01G18G10G14G08G11
 126268988.58946  98391409.27847  24028185.558    24028191.165    24028186.104
  24028190.334          40.250          44.000
 107478648.40249  83749615.72749  20452492.825    20452495.642    20452492.922
  20452495.289          56.500          54.000
 121564317.53247  94725450.60547  23132909.408    23132913.900    23132909.857
  23132913.288          44.000          45.000
 124986640.89746  97392178.39447  23784161.715    23784166.005    23784162.243
  23784167.075          41.750          43.000
 117554636.22548  91601028.15645  22369894.117                    22369893.501
  22369894.125          48.750          35.500
 107903171.18649  84080400.89049  20533276.806    20533279.338    20533276.806
  20533279.473          55.500          54.000
 115212315.64548  89775833.76946  21924164.933                    21924164.422
  21924165.266          50.000          38.750
 121045382.93747  94321089.20347  23034168.254    23034171.679    23034167.690
  23034171.243          46.500          45.000
 118850111.08447  92610477.25145  22616420.529                    22616420.260
  22616420.125          47.250          33.000
 16 10  7  0 26 30.0000000  0  9G27G32G24G01G18G10G14G08G11
 126368302.23046  98468796.44047  24047084.831    24047089.491    24047083.764
  24047089.043          39.000          44.000
 107447764.39149  83725550.28149  20446615.626    20446618.544    20446615.905
  20446618.214          56.250          54.000
 121613781.51147  94763993.96447  23142322.081    23142325.971    23142322.710
  23142325.965          44.000          45.000
 124885994.19547  97313752.47647  23765009.888    23765013.134    23765010.169
  23765013.466          42.500          43.000
 117625289.45048  91656082.60345  22383338.930                    22383337.743
  22383339.206          48.750          35.250
 107936303.49449  84106218.26949  20539581.770    20539584.235    20539581.755
  20539584.405          55.750          54.000
 115133989.03548  89714800.09246  21909259.548                    21909259.111
  21909260.148          50.000          38.500
 121097433.72647  94361648.23147  23044072.340    23044077.183    23044072.435
  23044076.617          45.750          45.000
 118782528.29047  92557815.38245  22603559.993                    22603559.733
  22603560.058          47.250          33.000
 16 10  7  0 27  0.0000000  0  9G27G32G24G01G18G10G14G08G11
 126467772.03746  98546305.28947  24066011.885    24066019.398    24066012.900
  24066018.834          39.750          45.000
 107417382.33649  83701875.96949  20440834.133    20440836.945    20440834.327
  20440836.809          56.500          55.000
 121663791.93647  94802963.13147  23151838.538    23151842.789    23151839.121
  23151843.002          44.000          45.000
 124785562.56347  97235494.14047  23745897.936    23745901.826    23745897.678
  23745902.976          42.500          43.000
 117696146.60248  91711295.95745  22396822.222                    22396821.813
  22396822.491          48.250          34.750
 107969798.10349  84132317.96449  20545955.733    20545958.067    20545955.540
  20545958.279          56.500          54.000
 115056002.66448  89654031.53746  21894419.321                    21894418.506
  21894419.572          50.250          38.500
 121149968.30547  94402584.25447  23054069.071    23054074.176    23054069.543
  23054072.962          45.500          45.000
 118715462.36347  92505556.25845  22590797.508                    22590797.716
  22590797.566          47.500          33.500
 16 10  7  0 27 30.0000000  0  9G27G32G24G01G18G10G14G08G11
 126567394.94546  98623933.44247  24084970.683    24084975.372    24084969.696
  24084976.315          40.750          44.000
 107387502.47949  83678592.97649  20435147.954    20435151.065    20435148.322
  20435150.750          55.250          55.000
 121714347.11247  94842356.76147  23161459.627    23161463.814    23161459.930
  23161462.840          44.750          45.000
 124685348.41247  97157405.29347  23726827.277    23726831.718    23726828.194
  23726832.016          43.000          43.000
 117767206.70648  91766667.44245  22410344.740                    22410343.875
  22410344.789          48.500          35.000
 108003654.67949  84158699.71149  20552398.041    20552400.737    20552398.153
  20552400.995          55.250          54.000
 114978357.91848  89593529.17846  21879643.771                    21879643.248
  21879644.449          50.250          38.750
 121202984.02047  94443895.15847  23064158.769    23064162.303    23064158.673
  23064161.864          46.000          45.000
 118648915.23347  92453701.40145  22578134.227                    22578133.946
  22578134.083          47.500          33.250
 16 10  7  0 28  0.0000000  0  9G27G32G24G01G18G10G14G08G11
 126667167.79947  98701678.45047  24103957.276    24103963.401    24103957.520
  24103962.357          42.000          45.000
 107358124.99249  83655701.44249  20429557.788    20429560.749    20429557.997
  20429560.370          56.000          54.000
 121765445.21447  94882173.46847  23171182.845    23171186.272    23171183.529
  23171186.979          43.750          45.000
 124585354.28247  97079487.86147  23707799.573    23707803.649    23707799.447
  23707804.018          43.000          44.000
 117838469.47448  91822196.87045  22423905.739                    22423905.546
  22423905.283          48.000          34.750
 108037872.82249  84185363.19949  20558909.794    20558912.366    20558909.645
  20558912.408          55.750          54.000
 114901056.16148  89533294.06846  21864933.712                    21864933.408
  21864934.433          50.000          39.000
 121256478.82147  94485579.39547  23074337.837    23074342.689    23074337.368
  23074341.958          45.500          46.000
 118582889.18447  92402252.57445  22565569.626                    22565569.087
  22565570.330          47.000          33.750
 16 10  7  0 28 30.0000000  0  9G27G32G24G01G18G10G14G08G11
 126767087.51647  98779537.89447  24122972.569    24122975.689    24122971.418
  24122975.760          43.000          43.000
 107329250.08549  83633201.52749  20424062.900    20424066.046    20424063.101
  20424065.616          55.750          55.000
 121817084.57547  94922411.93947  23181010.743    23181013.842    23181009.928
  23181013.437          44.750          45.000
 124485582.51747  97001743.71647  23688813.468    23688817.444    23688813.318
  23688817.524          43.000          43.000
 117909934.19448  91877883.65045  22437505.015                    22437504.106
  22437505.245          48.250          34.750
 108072452.17249  84212308.15149  20565490.047    20565492.472    20565489.971
  20565492.572          55.500          54.000
 114824098.24048  89473326.88846  21850289.255                    21850289.179
  21850289.785          50.750          39.000
 121310450.40547  94527635.14747  23084608.592    23084613.302    23084608.140
  23084612.315          45.750          45.000
 118517386.69247  92351211.73645  22553104.800                    22553104.179
  22553105.069          46.750          33.500
 16 10  7  0 29  0.0000000  0  9G27G32G24G01G18G10G14G08G11
 126867151.06547  98857509.42647  24142012.676    24142018.738    24142012.996
  24142017.178          42.500          44.000
 107300877.93649  83611093.37349  20418663.938    20418666.867    20418664.185
  20418666.643          55.250          54.000
 121869262.81447  94963070.29347  23190938.475    23190943.235    23190939.099
  23190942.827          43.500          46.000
 124386035.67347  96924174.82347  23669869.930    23669874.916    23669870.112
  23669874.607          42.750          44.000
 117981600.34248  91933727.37845  22451142.823                    22451142.270
  22451142.298          48.500          34.750
 108107392.32449  84239534.24549  20572138.863    20572141.360    20572138.768
  20572141.634          55.250          54.000
 114747485.55148  89413628.72246  21835710.578                    21835709.752
  21835711.064          50.750          39.500
 121364896.57747  94570060.69747  23094968.876    23094974.217    23094968.912
  23094972.536          45.000          45.000
 118452409.99547  92300580.60045  22540740.332                    22540740.013
  22540740.500          47.000          33.500
 16 10  7  0 29 30.0000000  0  9G27G32G24G01G18G10G14G08G11
 126967355.35247  98935590.61547  24161081.959    24161085.518    24161081.107
  24161086.069          42.750          42.000
 107273008.68749  83589377.08949  20413360.674    20413363.633    20413360.941
  20413363.283          55.500          55.000
 121921978.59647  95004147.52047  23200970.759    23200973.903    23200970.605
  23200974.459          44.250          45.000
 124286716.16047  96846783.08547  23650969.798    23650974.726    23650970.304
  23650974.606          42.000          43.000
 118053467.38148  91989727.65345  22464818.523                    22464818.073
  22464818.924          48.250          34.750
 108142692.92649  84267041.20649  20578856.364    20578858.708    20578856.399
  20578858.828          55.250          54.000
 114671219.43948  89354200.61946  21821197.595                    21821197.173
  21821197.977          50.500          39.750
 121419815.00047  94612854.24547  23105419.929    23105424.077    23105419.448
  23105423.909          45.500          45.000
 118387961.28847  92250360.86645  22528476.190                    22528475.525
  22528475.992          47.500          33.500
 16 10  7  0 30  0.0000000  0  9G27G32G24G01G18G10G14G08G11
 127067697.26647  99013779.04647  24180175.356    24180180.280    24180175.239
  24180180.245          42.250          42.000
 107245642.49749  83568052.79849  20408153.054    20408155.942    20408153.195
  20408155.655          55.250          55.000
 121975230.16847  95045642.25347  23211103.432    23211107.783    23211104.245
  23211108.599          43.750          45.000
 124187626.50847  96769570.44047  23632113.695    23632117.637    23632114.640
  23632118.031          43.000          43.000
 118125535.11548  92045884.31845  22478533.060                    22478531.989
  22478532.690          48.500          34.500
 108178353.58749  84294828.73949  20585642.418    20585644.606    20585642.387
  20585644.919          55.000          54.000
 114595301.23448  89295043.60546  21806750.889                    21806749.905
  21806751.086          51.000          39.750
 121475203.36047  94656013.97447  23115959.479    23115964.322    23115959.987
  23115963.483          44.500          45.000
 118324042.87347  92200554.35045  22516312.339                    22516311.560
  22516313.039          46.750          33.750
 16 10  7  0 30 30.0000000  0  9G27G32G24G01G18G10G14G08G11
 127168173.70247  99092072.31546  24199296.220    24199299.840    24199295.236
  24199299.526          42.750          40.000
 107218779.47149  83547120.58449  20403041.358    20403044.015    20403041.405
  20403043.788          55.250          55.000
 122029015.66647  95087553.00747  23221339.679    23221342.942    23221338.908
  23221342.679          43.500          45.000
 124088769.15047  96692538.77147  23613302.099    23613305.777    23613301.843
  23613305.692          44.000          43.000
 118197802.69648  92102196.71345  22492284.714                    22492284.151
  22492284.909          48.250          34.750
 108214373.88249  84322896.50249  20592496.792    20592499.251    20592496.856
  20592499.432          54.500          54.000
 114519732.02048  89236158.53846  21792370.079                    21792369.879
  21792370.956          50.500          39.750
 121531058.90347  94699537.76147  23126589.144    23126593.411    23126588.574
  23126593.105          44.750          44.000
 118260656.86547  92151162.70845  22504250.698                    22504250.346
  22504251.144          47.000          33.750
 16 10  7  0 31  0.0000000  0 10G27G32G24G01G22G18G10G14G08G11
 127268781.60547  99170468.05246  24218441.617    24218445.469    24218441.397
  24218445.805          42.250          40.000
 107192419.74449  83526580.55249  20398025.047    20398027.915    20398025.249
  20398027.701          55.500          54.000
 122083333.24347  95129878.37447  23231674.890    23231678.389    23231675.736
  23231679.348          43.250          45.000
 123990146.55147  96615690.06247  23594534.887    23594538.742    23594535.190
  23594539.115          44.000          44.000
 132904088.16246                  25290806.956
                        40.000
 118270269.63847  92158664.43245  22506074.345                    22506073.834
  22506074.608          47.500          34.000
 108250753.44249  84351244.21149  20599419.350    20599421.680    20599419.516
  20599422.260          54.500          54.000
 114444513.10548  89177546.42346  21778056.642                    21778055.950
  21778056.998          51.000          39.750
 121587379.44547  94743423.86447  23137307.026    23137311.271    23137306.443
  23137310.126          45.250          45.000
 118197805.46547  92102187.64145  22492290.779                    22492289.992
  22492290.682          47.500          34.750
 16 10  7  0 31 30.0000000  0 10G27G32G24G01G22G18G10G14G08G11
 127369517.93946  99248963.82446  24237610.644    24237613.891    24237609.412
  24237615.042          40.750          39.000
 107166563.43049  83506432.78649  20393104.662    20393107.666    20393104.947
  20393107.406          55.250          55.000
 122138180.95347  95172616.84247  23242112.620    23242116.448    23242112.912
  23242116.525          44.250          45.000
 123891761.24047  96539026.25547  23575813.047    23575817.252    23575812.756
  23575816.720          44.250          44.000
 132808586.41246 103487203.94942  25272632.513                    25272630.737
  25272632.185          39.250          16.750
 118342935.02147  92215286.78545  22519901.878                    22519901.699
  22519902.550          47.750          34.000
 108287491.88449  84379871.57249  20606410.604    20606413.131    20606410.696
  20606413.532          54.500          54.000
 114369645.75348  89119208.25846  21763809.834                    21763809.232
  21763810.489          51.000          39.500
 121644162.82447  94787670.62547  23148111.845    23148116.209    23148111.165
  23148115.959          44.750          44.000
 118135490.99447  92053630.94945  22480431.871                    22480431.824
  22480432.131          47.000          33.500
 16 10  7  0 32  0.0000000  0 10G27G32G24G01G22G18G10G14G08G11
 127470379.57846  99327557.26346  24256802.909    24256807.600    24256803.403
  24256808.257          39.500          39.000
 107141210.56649  83486677.32149  20388280.176    20388283.171    20388280.343
  20388282.806          55.250          55.000
 122193557.10447  95215767.08247  23252650.419    23252654.330    23252650.292
  23252653.814          43.500          45.000
 123793615.69147  96462549.23447  23557136.060    23557139.629    23557135.751
  23557140.641          44.000          43.000
 132713091.78546 103412792.57142  25254461.196                    25254458.527
  25254460.113          40.000          17.000
 118415798.76747  92272063.71645  22533768.053                    22533767.674
  22533768.141          47.750          34.250
 108324588.77649  84408778.24549  20613470.002    20613472.569    20613470.023
  20613472.673          54.750          54.000
 114295131.20648  89061145.00746  21749630.296                    21749629.398
  21749630.728          51.000          39.500
 121701406.39947  94832275.98447  23159005.087    23159009.562    23159003.980
  23159008.483          44.250          44.000
 118073715.69147  92005494.39245  22468676.632                    22468676.196
  22468677.143          47.250          34.000
 16 10  7  0 32 30.0000000  0 10G27G32G24G01G22G18G10G14G08G11
 127571363.44446  99406245.94446  24276020.770    24276023.548    24276019.802
  24276023.537          39.250          39.000
 107116361.26449  83467314.24349  20383551.360    20383554.633    20383551.647
  20383554.298          55.750          55.000
 122249459.64247  95259327.48147  23263288.237    23263292.353    23263288.316
  23263291.605          43.750          45.000
 123695712.32847  96386260.96247  23538504.463    23538509.597    23538505.029
  23538509.827          43.250          43.000
 132617605.29446 103338387.56343  25236290.509                    25236289.440
  25236289.971          40.750          19.500
 118488860.51347  92328994.93145  22547671.425                    22547670.400
  22547671.362          47.750          34.250
 108362043.74549  84437963.92949  20620597.386    20620599.952    20620597.429
  20620599.919          54.250          54.000
 114220970.45848  89003357.44746  21735517.518                    21735516.990
  21735517.944          50.750          40.000
 121759107.86047  94877238.15147  23169985.083    23169989.644    23169984.846
  23169988.805          44.250          44.000
 118012481.63147  91957779.57645  22457024.695                    22457023.841
  22457024.135          47.250          34.000
 16 10  7  0 33  0.0000000  0 10G27G32G24G01G22G18G10G14G08G11
 127672466.51846  99485027.49746  24295258.643    24295264.931    24295257.236
  24295263.683          38.000          40.000
 107092015.56149  83448343.57449  20378918.757    20378921.542    20378918.831
  20378921.218          55.000          55.000
 122305886.12847  95303296.18847  23274026.213    23274029.706    23274026.053
  23274029.308          43.500          45.000
 123598053.71447  96310163.39647  23519921.832    23519925.310    23519921.385
  23519925.130          44.000          42.000
 132522127.59846 103263989.42343  25218122.052                    25218121.343
  25218123.168          40.000          19.750
 118562119.33248  92386079.69845  22561611.619                    22561611.621
  22561611.452          48.000          34.500
 108399856.34048  84467428.29649  20627792.732    20627795.290    20627792.836
  20627795.490          53.750          54.000
 114147164.61048  88945846.44146  21721472.810                    21721472.248
  21721473.177          51.000          40.000
 121817264.58347  94922555.02847  23181052.683    23181056.507    23181052.426
  23181056.310          44.500          44.000
 117951790.89047  91910488.12045  22445475.784                    22445475.159
  22445475.569          47.500          33.750
 16 10  7  0 33 30.0000000  0 10G27G32G24G01G22G18G10G14G08G11
 127773685.66446  99563899.48546  24314522.012    24314525.085    24314520.373
  24314525.851          38.750          39.000
 107068173.48949  83429765.34649  20374381.619    20374384.650    20374381.851
  20374384.326          55.500          55.000
 122362835.49247  95347672.30547  23284863.013    23284866.721    23284863.027
  23284866.660          43.500          44.000
 123500642.33847  96234258.45147  23501384.315    23501388.632    23501384.098
  23501388.735          44.000          43.000
 132426659.73146 103189598.91243  25199953.430                    25199952.924
  25199954.842          37.250          18.500
 118635574.78548  92443317.68645  22575589.986                    22575589.517
  22575589.755          48.250          34.000
 108438026.19249  84497171.03449  20635056.381    20635058.698    20635056.190
  20635059.064          54.500          54.000
 114073715.22748  88888613.18546  21707495.998                    21707495.410
  21707496.222          51.250          40.000
 121875874.47247  94968225.05747  23192205.142    23192209.737    23192204.918
  23192208.759          44.500          44.000
 117891645.42547  91863621.53745  22434030.119                    22434029.200
  22434029.785          47.750          33.500
 16 10  7  0 34  0.0000000  0 10G27G32G24G01G22G18G10G14G08G11
 127875017.89946  99642859.60146  24333802.854    24333808.999    24333803.291
  24333808.475          37.500          41.000
 107044835.09449  83411579.59849  20369940.646    20369943.231    20369940.913
  20369943.145          55.250          55.000
 122420305.54347  95392454.15647  23295798.476    23295802.656    23295798.615
  23295802.690          42.500          45.000
 123403480.69147  96158548.12847  23482895.779    23482899.615    23482894.972
  23482899.686          44.500          43.000
 132331202.27546 103115216.50742  25181787.216                    25181787.604
  25181789.473          36.250          16.500
 118709226.50947  92500708.62245  22589605.236                    22589605.351
  22589606.004          47.750          33.750
 108476552.84948  84527191.80849  20642387.634    20642390.079    20642387.693
  20642390.344          53.750          54.000
 114000623.29748  88831658.47046  21693586.897                    21693586.259
  21693587.765          51.250          40.000
 121934934.61247  95014245.92447  23203444.455    23203448.517    23203444.095
  23203447.547          44.500          44.000
 117832047.84247  91817181.87745  22422689.152                    22422688.964
  22422689.330          47.750          33.750
 16 10  7  0 34 30.0000000  0 10G27G32G24G01G22G18G10G14G08G11
 127976460.08846  99721905.38947  24353108.031    24353112.684    24353106.477
  24353111.691          37.500          42.000
 107022000.33349  83393786.28949  20365595.358    20365598.283    20365595.545
  20365597.783          55.000          55.000
 122478294.01947  95437639.96447  23306833.586    23306837.499    23306833.972
  23306837.741          42.500          44.000
 123306571.26247  96083034.29747  23464454.005    23464458.196    23464454.111
  23464458.912          44.500          43.000
 132235756.00646 103040842.87843  25163626.539                    25163624.474
  25163627.768          39.750          18.500
 118783073.70147  92558251.87245  22603658.017                    22603657.470
  22603658.208          47.250          33.750
 108515435.90648  84557490.29649  20649786.844    20649789.379    20649786.920
  20649789.725          53.500          54.000
 113927890.00248  88774983.21346  21679746.230                    21679745.732
  21679746.677          51.000          40.000
 121994442.72847  95060615.83847  23214767.913    23214772.738    23214767.984
  23214771.962          44.250          44.000
 117773000.07847  91771170.65445  22411452.573                    22411451.769
  22411452.625          47.500          33.500
 16 10  7  0 35  0.0000000  0 10G27G32G24G01G22G18G10G14G08G11
 128078009.21146  99801034.49047  24372433.318    24372438.071    24372430.819
  24372437.504          38.750          43.000
 106999669.23349  83376385.44849  20361345.890    20361348.769    20361346.126
  20361348.302          55.500          55.000
 122536798.89647  95483228.17347  23317966.840    23317970.230    23317966.518
  23317970.468          42.750          43.000
 123209916.59547  96007719.01847  23446060.914    23446065.592    23446061.251
  23446065.887          44.500          43.000
 132140321.43446 102966478.38743  25145466.666                    25145465.411
  25145467.442          40.250          19.500
 118857115.72247  92615946.91545  22617747.892                    22617746.953
  22617748.282          47.500          33.750
 108554674.95148  84588066.17449  20657253.880    20657256.290    20657253.807
  20657256.744          53.750          54.000
 113855516.56548  88718588.37846  21665974.382                    21665973.624
  21665974.121          51.250          40.250
 122054396.55047  95107333.08847  23226177.055    23226182.323    23226177.158
  23226181.131          45.000          44.000
 117714504.08147  91725589.38245  22400321.147                    22400320.562
  22400320.941          47.500          33.500
 16 10  7  0 35 30.0000000  0 10G27G32G24G01G22G18G10G14G08G11
 128179662.14546  99880244.53547  24391776.674    24391779.768    24391775.870
  24391780.804          39.000          42.000
 106977841.77849  83359377.05649  20357192.214    20357195.004    20357192.383
  20357194.737          55.250          55.000
 122595818.53047  95529217.47747  23329197.381    23329202.553    23329198.212
  23329201.538          42.500          44.000
 123113519.15647  95932604.15347  23427717.584    23427721.045    23427717.481
  23427720.794          44.500          43.000
 132044899.33446 102892123.58943  25127308.818                    25127307.237
  25127307.317          40.750          19.000
 118931352.16247  92673793.47645  22631873.999                    22631874.438
  22631874.455          47.500          33.750
 108594269.52448  84618919.09149  20664788.495    20664790.885    20664788.578
  20664791.157          53.750          54.000
 113783503.82048  88662474.59546  21652270.605                    21652269.889
  21652270.587          51.250          40.000
 122114793.42947  95154395.56247  23237670.048    23237674.648    23237670.051
  23237674.206          44.250          45.000
 117656561.98048  91680439.71045  22389295.468                    22389294.755
  22389295.293          48.250          34.250
 16 10  7  0 36  0.0000000  0 10G27G32G24G01G22G18G10G14G08G11
 128281415.95146  99959533.14447  24411138.601    24411143.940    24411138.631
  24411144.016          38.000          42.000
 106956517.93049  83342761.08249  20353134.439    20353137.247    20353134.489
  20353136.932          55.250          55.000
 122655350.71847  95575606.19947  23340526.296    23340531.250    23340526.596
  23340530.386          42.500          44.000
 123017381.48047  95857691.70847  23409423.471    23409426.452    23409422.671
  23409427.269          44.750          43.000
 131949490.61846 102817779.27143  25109150.721                    25109150.528
  25109151.536          39.000          19.750
 119005782.50648  92731791.09445  22646038.571                    22646037.813
  22646038.469          48.000          33.750
 108634219.22448  84650048.72449  20672390.507    20672393.277    20672390.739
  20672393.422          53.500          54.000
 113711853.18248  88606642.97046  21638636.066                    21638635.061
  21638636.055          51.500          40.250
 122175630.45147  95201801.01947  23249246.799    23249252.102    23249246.543
  23249251.231          44.250          44.000
 117599175.77047  91635723.22345  22378374.283                    22378374.148
  22378374.882          47.500          33.750
 16 10  7  0 36 30.0000000  0 10G27G32G24G01G22G18G10G14G08G11
 128383267.50346 100038897.92547  24430521.578    24430524.171    24430520.604
  24430524.589          39.250          42.000
 106935697.62949  83326537.48249  20349172.146    20349175.301    20349172.493
  20349174.820          54.250          55.000
 122715393.66447  95622392.91647  23351952.431    23351956.680    23351952.702
  23351955.753          43.500          44.000
 122921506.07447  95782983.65047  23391178.384    23391182.655    23391178.385
  23391182.435          43.500          44.000
 131854095.94946 102743445.87443  25090997.856                    25090997.295
  25090997.574          40.750          21.000
 119080406.31047  92789939.50445  22660239.112                    22660238.609
  22660238.430          47.750          33.250
 108674523.60148  84681454.73449  20680060.310    20680063.011    20680060.258
  20680063.129          52.750          54.000
 113640565.60748  88551094.25346  21625070.079                    21625069.616
  21625070.494          51.000          40.750
 122236905.74347  95249547.97247  23260906.949    23260912.089    23260906.977
  23260911.306          44.750          44.000
 117542347.43248  91591441.42245  22367560.768                    22367560.007
  22367560.496          48.000          34.500
 16 10  7  0 37  0.0000000  0 10G27G32G24G01G22G18G10G14G08G11
 128485213.79146 100118336.53947  24449921.021    24449925.340    24449920.240
  24449925.197          38.500          43.000
 106915380.77549  83310706.17949  20345306.097    20345309.030    20345306.266
  20345308.642          54.750          55.000
 122775944.93047  95669575.70447  23363474.649    23363479.178    23363474.941
  23363479.445          43.000          44.000
 122825895.49447  95708481.93647  23372984.222    23372988.503    23372984.016
  23372987.747          44.250          43.000
 131758716.03547 102669124.00843  25072849.518                    25072847.140
  25072847.922          43.250          23.000
 119155222.95447  92848238.14745  22674476.450                    22674476.032
  22674476.128          46.750          33.000
 108715182.22848  84713136.78349  20687797.412    20687799.927    20687797.339
  20687800.141          53.000          54.000
 113569642.28048  88495829.36546  21611573.815                    21611573.553
  21611574.037          51.250          40.500
 122298616.29047  95297634.08047  23272650.408    23272655.266    23272650.896
  23272654.440          45.250          44.000
 117486079.23048  91547596.09645  22356853.056                    22356852.253
  22356852.760          48.250          34.750
 16 10  7  0 37 30.0000000  0 10G27G32G24G01G22G18G10G14G08G11
 128587251.77446 100197846.58447  24469337.237    24469342.662    24469337.597
  24469342.889          37.000          43.000
 106895567.32949  83295267.13849  20341535.524    20341538.741    20341535.873
  20341538.377          55.250          55.000
 122837002.44147  95717152.96047  23375093.351    23375097.678    23375093.957
  23375098.396          42.500          44.000
 122730552.21947  95634188.50547  23354841.428    23354845.738    23354841.354
  23354845.539          45.000          44.000
 131663351.77347 102594814.29243  25054702.166                    25054700.212
  25054700.644          43.750          23.250
 119230231.94847  92906686.70245  22688749.825                    22688748.929
  22688749.917          47.500          33.250
 108756194.66048  84745094.51949  20695601.824    20695604.417    20695601.884
  20695604.593          53.500          54.000
 113499084.33448  88440849.18746  21598147.371                    21598146.294
  21598146.978          51.500          40.750
 122360759.46347  95346057.30347  23284475.967    23284480.185    23284475.870
  23284479.803          45.250          44.000
 117430373.12748  91504188.77245  22346252.801                    22346251.869
  22346252.577          49.000          35.250
 16 10  7  0 38  0.0000000  0 10G27G32G24G01G22G18G10G14G08G11
 128689378.41045 100277425.70946  24488770.999    24488775.601    24488772.361
  24488775.771          35.750          40.000
 106876257.19349  83280220.29149  20337861.085    20337864.023    20337861.306
  20337863.736          55.000          55.000
 122898564.43447  95765123.33847  23386808.622    23386812.322    23386808.535
  23386812.559          43.250          44.000
 122635478.78947  95560105.34347  23336749.222    23336753.710    23336749.222
  23336753.910          45.500          44.000
 131568003.98547 102520517.45943  25036557.169                    25036556.000
  25036556.759          42.250          23.750
 119305432.57147  92965284.56245  22703059.554                    22703059.709
  22703059.829          46.250          33.250
 108797560.43748  84777327.59349  20703473.509    20703475.988    20703473.622
  20703476.127          53.750          54.000
 113428892.78048  88386154.51746  21584790.264                    21584789.576
  21584790.431          51.750          41.000
 122423333.10247  95394815.98247  23296383.841    23296387.993    23296382.800
  23296387.174          45.000          44.000
 117375230.86948  91461220.81645  22335759.954                    22335758.794
  22335758.975          49.250          35.000
 16 10  7  0 38 30.0000000  0 10G27G32G24G01G22G18G10G14G08G11
 128791590.64646 100357071.56447  24508223.159    24508227.938    24508223.048
  24508227.939          36.000          42.000
 106857450.25149  83265565.54549  20334282.434    20334285.211    20334282.509
  20334284.934          54.750          55.000
 122960628.81547  95813485.18747  23398619.270    23398623.727    23398619.372
  23398622.890          43.250          44.000
 122540677.71847  95486234.41147  23318709.123    23318713.654    23318709.077
  23318713.690          45.000          44.000
 131472673.04746 102446233.71443  25018415.333                    25018414.520
  25018415.500          41.250          23.500
 119380824.33147  93024031.37845  22717406.022                    22717405.441
  22717407.078          45.750          32.750
 108839279.13848  84809835.67749  20711412.454    20711414.501    20711412.386
  20711415.009          53.500          54.000
 113359068.95348  88331746.38046  21571503.106                    21571502.351
  21571503.241          51.750          40.750
 122486334.34947  95443907.82547  23308372.685    23308376.415    23308371.986
  23308375.866          45.750          44.000
 117320654.62748  91418693.90945  22325373.896                    22325373.566
  22325373.716          48.750          35.000
 16 10  7  0 39  0.0000000  0 10G27G32G24G01G22G18G10G14G08G11
 128893885.52245 100436781.77246  24527687.302    24527693.970    24527688.619
  24527694.257          34.750          41.000
 106839146.35649  83251302.77749  20330799.172    20330802.051    20330799.358
  20330801.709          55.000          55.000
 123023193.28847  95862236.70847  23410524.368    23410528.247    23410525.608
  23410528.538          42.750          43.000
 122446151.55247  95412577.69547  23300721.794    23300726.043    23300721.862
  23300726.024          45.000          45.000
 131377359.94846 102371963.86444  25000278.808                    25000276.779
  25000278.218          41.500          24.000
 119456406.67447  93082926.69045  22731789.060                    22731788.645
  22731790.164          45.000          32.500
 108881350.29048  84842618.38649  20719417.922    20719420.478    20719418.013
  20719420.805          53.000          54.000
 113289613.43848  88277625.25146  21558286.099                    21558285.570
  21558286.420          51.500          40.750
 122549760.60347  95493330.85447  23320441.746    23320446.964    23320441.432
  23320446.611          44.750          45.000
 117266646.29248  91376609.51845  22315096.281                    22315096.394
  22315096.113          48.750          34.500
 16 10  7  0 39 30.0000000  0 10G27G32G24G01G22G18G10G14G08G11
 128996259.99745 100516554.04346  24547170.387    24547174.746    24547168.831
  24547175.001          34.500          39.000
 106821345.39149  83237431.90649  20327411.806    20327414.630    20327411.978
  20327414.327          54.250          55.000
 123086255.48147  95911376.08047  23422526.011    23422529.059    23422525.322
  23422529.370          43.500          44.000
 122351902.79747  95339137.16447  23282786.324    23282790.721    23282785.929
  23282791.106          44.250          45.000
 131282065.43246 102297708.45843  24982144.829                    24982142.842
  24982144.124          40.500          22.500
 119532178.85347  93141969.92545  22746207.823                    22746206.856
  22746208.458          44.750          32.500
 108923773.43648  84875675.38648  20727490.877    20727493.298    20727490.868
  20727493.725          52.250          53.000
 113220527.56348  88223792.14146  21545139.373                    21545138.660
  21545139.907          51.500          41.250
 122613609.18947  95543082.99547  23332590.888    23332596.292    23332591.264
  23332596.257          44.500          44.000
 117213207.98848  91334969.32245  22304927.542                    22304927.217
  22304927.613          49.000          35.250
 16 10  7  0 40  0.0000000  0 11G27G32G24G01G22G18G10G14G08G31G11
 129098710.84245 100596385.83146  24566664.176    24566670.737    24566664.681
  24566670.808          34.750          40.000
 106804047.19649  83223952.80549  20324119.961    20324122.987    20324120.294
  20324122.576          55.750          55.000
 123149813.75247  95960901.98947  23434619.966    23434623.639    23434619.816
  23434624.138          43.250          44.000
 122257933.98947  95265914.77547  23264904.710    23264909.915    23264904.187
  23264910.464          44.750          45.000
 131186790.18346 102223468.09343  24964013.857                    24964013.357
  24964014.007          39.750          22.250
 119608140.47247  93201160.76145  22760662.555                    22760662.426
  22760663.647          45.000          33.000
 108966548.12048  84909006.30649  20735630.804    20735633.415    20735630.622
  20735633.468          53.500          54.000
 113151812.58248  88170248.04946  21532063.387                    21532062.580
  21532063.816          51.750          41.000
 122677877.97047  95593162.51747  23344822.186    23344826.208    23344821.877
  23344825.491          44.750          44.000
 130911198.21346                  24911573.821    24911574.474
                        37.250          35.000
 117160341.27748  91293774.52245  22294866.840                    22294866.640
  22294867.545          48.750          35.500
 16 10  7  0 40 30.0000000  0 11G27G32G24G01G22G18G10G14G08G31G11
 129201235.44245 100676275.03346  24586174.570    24586181.610    24586174.902
  24586180.499          34.250          40.000
 106787251.60249  83210865.34149  20320924.050    20320926.969    20320924.279
  20320926.493          55.000          55.000
 123213865.97247  96010812.80247  23446809.149    23446812.089    23446808.223
  23446812.037          43.250          44.000
 122164247.68547  95192912.51347  23247076.086    23247081.283    23247077.367
  23247081.898          44.750          45.000
 131091535.28146 102149243.61243  24945886.926                    24945886.883
  24945886.657          39.750          22.250
 119684290.98847  93260498.82345  22775154.631                    22775153.627
  22775153.645          44.750          32.750
 109009673.87548  84942610.78948  20743836.973    20743839.768    20743837.092
  20743839.861          52.750          53.000
 113083469.36748  88116993.63646  21519058.282                    21519057.452
  21519058.290          51.750          41.250
 122742563.80247  95643567.02447  23357130.762    23357135.726    23357130.660
  23357135.296          44.750          44.000
 130794368.03246 101917692.51045  24889340.486    24889343.242    24889339.873
  24889342.653          38.000          33.000
 117108048.08148  91253026.60545  22284915.945                    22284915.488
  22284916.539          48.750          35.250
 16 10  7  0 41  0.0000000  0 11G27G32G24G01G22G18G10G14G08G31G11
 129303830.40045 100756219.09446  24605699.867    24605704.691    24605698.005
  24605704.399          34.750          41.000
 106770958.43249  83198169.37949  20317823.590    20317826.466    20317823.755
  20317826.031          55.500          55.000
 123278409.78447  96061106.68147  23459090.700    23459095.022    23459090.911
  23459095.408          43.000          44.000
 122070846.40747  95120132.35447  23229303.235    23229306.798    23229302.984
  23229307.453          44.750          44.000
 130996301.33846 102075035.44043  24927765.656                    24927763.892
  24927764.613          38.750          21.000
 119760629.76547  93319983.57745  22789680.954                    22789680.670
  22789681.590          44.750          32.250
 109053150.23648  84976488.47248  20752110.468    20752113.272    20752110.555
  20752113.220          53.500          53.000
 113015498.93448  88064029.70446  21506123.693                    21506122.982
  21506123.944          51.750          41.000
 122807663.86047  95694294.32447  23369519.545    23369523.889    23369518.211
  23369523.839          44.500          44.000
 130677513.91546 101826637.40645  24867103.690    24867105.952    24867104.069
  24867106.621          38.500          34.000
 117056330.40948  91212727.17345  22275074.399                    22275074.188
  22275074.731          49.000          35.750
 16 10  7  0 41 30.0000000  0 11G27G32G24G01G22G18G10G14G08G31G11
 129406492.89545 100836215.82146  24625234.274    24625241.205    24625233.277
  24625239.733          34.500          41.000
 106755167.46349  83185864.73749  20314818.598    20314821.452    20314818.782
  20314821.090          54.750          55.000
 123343442.66646  96111781.62747  23471465.214    23471470.493    23471466.478
  23471469.585          41.750          44.000
 121977732.68547  95047576.25447  23211584.492    23211588.300    23211583.898
  23211587.916          44.750          45.000
 130901089.18746 102000844.28343  24909646.687                    24909645.621
  24909645.883          39.250          22.500
 119837156.26847  93379614.57545  22804243.225                    22804242.929
  22804244.262          43.000          32.750
 109096976.74848  85010639.00348  20760450.579    20760452.952    20760450.462
  20760453.057          52.750          53.000
 112947902.39148  88011357.12446  21493260.429                    21493259.937
  21493260.072          51.750          41.250
 122873175.83747  95745342.59847  23381985.417    23381990.503    23381985.506
  23381990.173          44.000          44.000
 130560638.45546 101735565.68245  24844863.174    24844865.146    24844864.634
  24844865.855          39.750          35.000
 117005190.18248  91172877.69845  22265342.692                    22265342.938
  22265342.652          49.250          35.750
 16 10  7  0 42  0.0000000  0 11G27G32G24G01G22G18G10G14G08G31G11
 129509219.91346 100916262.79446  24644783.047    24644787.325    24644782.563
  24644787.146          37.000          39.000
 106739878.50449  83173951.27249  20311908.846    20311911.930    20311909.322
  20311911.605          55.000          55.000
 123408962.62146  96162836.14447  23483933.690    23483938.256    23483933.947
  23483938.019          41.250          44.000
 121884909.07547  94975246.22747  23193920.706    23193924.876    23193920.679
  23193924.775          45.500          44.000
 130805899.48946 101926670.54743  24891532.145                    24891531.884
  24891533.649          40.250          22.750
 119913869.94447  93439391.44445  22818841.911                    22818841.185
  22818842.283          43.250          32.500
 109141152.92048  85045061.99449  20768857.056    20768859.413    20768856.877
  20768859.709          53.000          54.000
 112880680.61648  87958976.56246  21480468.436                    21480467.925
  21480468.597          51.750          41.250
 122939096.99647  95796709.70447  23394530.199    23394535.114    23394529.393
  23394534.101          43.750          44.000
 130443744.28046 101644479.38146  24822619.679    24822622.132    24822619.721
  24822621.598          40.250          36.000
 116954629.72148  91133479.96745  22255721.589                    22255720.642
  22255720.896          49.000          35.250
 16 10  7  0 42 30.0000000  0 11G27G32G24G01G22G18G10G14G08G31G11
 129612008.39646 100996357.66446  24664342.749    24664347.894    24664343.438
  24664348.156          37.250          39.000
 106725091.32149  83162428.79949  20309094.983    20309098.269    20309095.328
  20309097.813          55.000          55.000
 123474967.68246  96214268.64247  23496494.100    23496498.692    23496494.696
  23496497.656          41.500          44.000
 121792378.07047  94903144.22247  23176312.862    23176316.882    23176312.507
  23176317.063          45.750          45.000
 130710733.21046 101852515.05743  24873423.007                    24873422.122
  24873421.162          40.000          22.500
 119990770.15947  93499313.66945  22833475.352                    22833474.978
  22833475.682          43.250          32.000
 109185678.27648  85079757.07948  20777329.727    20777332.405    20777329.659
  20777332.416          52.750          53.000
 112813834.44948  87906888.68746  21467748.158                    21467747.309
  21467748.178          51.250          41.250
 123005424.81047  95848393.69347  23407151.291    23407156.962    23407151.265
  23407156.114          43.250          44.000
 130326834.17146 101553380.62546  24800372.418    24800375.279    24800371.640
  24800374.023          40.500          37.000
 116904649.86248  91094534.66045  22246210.144                    22246209.735
  22246211.018          49.250          35.750
 16 10  7  0 43  0.0000000  0 11G27G32G24G01G22G18G10G14G08G31G11
 129714855.43146 101076498.17046  24683914.644    24683920.648    24683913.383
  24683919.079          37.250          41.000
 106710805.66749  83151297.13049  20306376.444    20306379.369    20306376.794
  20306379.227          54.250          55.000
 123541455.25147  96266077.12747  23509147.273    23509151.002    23509147.131
  23509151.048          42.000          44.000
 121700142.24147  94831272.20247  23158760.418    23158764.406    23158760.735
  23158764.529          45.250          44.000
 130615590.96346 101778378.31944  24855317.368                    24855317.981
  24855317.584          41.250          24.500
 120067856.30847  93559380.78345  22848144.895                    22848143.770
  22848145.175          44.000          31.750
 109230552.31348  85114723.86348  20785869.200    20785871.692    20785868.892
  20785871.683          53.000          53.000
 112747364.96648  87855094.32846  21455099.387                    21455098.713
  21455099.146          51.750          41.500
 123072156.62247  95900392.46447  23419850.184    23419855.379    23419850.602
  23419854.713          43.500          44.000
 130209910.95846 101462271.69246  24778122.958    24778124.919    24778122.388
  24778125.187          40.500          38.000
 116855252.72548  91056043.42446  22236810.880                    22236810.631
  22236810.546          49.000          36.250
 16 10  7  0 43 30.0000000  0 11G27G32G24G01G22G18G10G14G08G31G11
 129817757.93346 101156681.91746  24703495.594    24703500.281    24703495.251
  24703501.775          37.250          39.000
 106697021.26749  83140556.05049  20303753.504    20303756.409    20303753.687
  20303756.098          54.750          55.000
 123608423.45347  96318260.12047  23521890.081    23521894.568    23521890.336
  23521894.223          42.000          44.000
 121608204.12247  94759632.16247  23141265.135    23141269.599    23141265.231
  23141268.899          45.250          45.000
 130520473.65247 101704261.01544  24837218.998                    24837217.711
  24837218.448          42.250          25.500
 120145128.03447  93619592.49045  22862848.478                    22862847.565
  22862849.178          43.000          31.500
 109275774.56548  85149961.98148  20794474.499    20794476.917    20794474.534
  20794477.226          52.750          53.000
 112681273.43548  87803594.47046  21442522.437                    21442521.969
  21442522.398          51.500          41.500
 123139289.31847  95952703.64147  23432625.125    23432630.732    23432624.819
  23432630.398          43.250          44.000
 130092977.18446 101371154.48346  24755869.756    24755873.369    24755870.195
  24755872.599          40.250          38.000
 116806440.05948  91018007.60945  22227522.255                    22227521.952
  22227521.980          49.250          35.750
 16 10  7  0 44  0.0000000  0 11G27G32G24G01G22G18G10G14G08G31G11
 129920712.98846 101236906.55446  24723087.246    24723092.291    24723087.388
  24723092.327          37.500          39.000
 106683737.87349  83130205.36249  20301225.746    20301228.634    20301226.006
  20301228.325          54.500          55.000
 123675870.26847  96370816.08947  23534725.827    23534729.655    23534725.178
  23534727.972          42.750          44.000
 121516566.21447  94688226.06947  23123826.848    23123831.100    23123826.865
  23123830.824          44.250          46.000
 130425381.86946 101630163.62344  24819122.913                    24819121.082
  24819122.387          40.250          24.250
 120222584.41047  93679948.08245  22877587.982                    22877588.111
  22877588.700          42.500          31.250
 109321344.54748  85185471.06448  20803146.140    20803148.882    20803146.254
  20803149.012          52.250          53.000
 112615560.83448  87752389.89246  21430017.769                    21430017.438
  21430017.622          51.500          41.500
 123206820.44847  96005325.25347  23445475.763    23445480.903    23445475.918
  23445480.993          43.250          45.000
 129976035.74046 101280031.31646  24733616.257    24733620.783    24733616.598
  24733618.827          40.500          38.000
 116758213.89948  90980428.81246  22218344.581                    22218344.495
  22218344.676          48.500          36.000
 16 10  7  0 44 30.0000000  0 11G27G32G24G01G22G18G10G14G08G31G11
 130023717.57446 101317169.80846  24742688.019    24742694.478    24742688.144
  24742693.121          38.250          40.000
 106670955.20149  83120244.85049  20298793.361    20298796.193    20298793.512
  20298795.823          54.750          55.000
 123743793.16447  96423742.99447  23547650.030    23547654.335    23547650.828
  23547654.496          42.500          44.000
 121425231.11147  94617055.93047  23106446.156    23106450.555    23106445.827
  23106450.483          45.000          46.000
 130330317.13046 101556087.28843  24801032.014                    24801029.723
  24801030.751          40.500          23.750
 120300225.17047  93740447.35345  22892362.775                    22892362.193
  22892362.805          43.500          30.750
 109367261.76748  85221250.71348  20811883.970    20811886.470    20811884.018
  20811886.805          53.000          53.000
 112550228.15548  87701481.34446  21417585.235                    21417584.761
  21417585.546          52.000          41.750
 123274747.35347  96058255.27747  23458402.307    23458406.990    23458401.967
  23458406.029          43.750          44.000
 129859089.82946 101188904.64646  24711362.669    24711364.868    24711362.102
  24711364.853          41.750          38.000
 116710575.89047  90943308.31245  22209279.428                    22209278.833
  22209279.378          47.750          35.250
 16 10  7  0 45  0.0000000  0 11G27G32G24G01G22G18G10G14G08G31G11
 130126768.71846 101397469.37146  24762298.044    24762305.209    24762298.716
  24762304.251          38.250          41.000
 106658672.94149  83110674.26749  20296456.084    20296459.099    20296456.282
  20296458.680          55.250          55.000
 123812189.62547  96477038.93647  23560666.272    23560670.172    23560666.740
  23560670.003          42.750          44.000
 121334201.37747  94546123.73247  23089124.014    23089128.140    23089123.593
  23089127.909          45.750          45.000
 130235280.06946 101482032.53043  24782947.100                    24782946.003
  24782947.317          40.500          23.250
 120378049.53847  93801089.70445  22907172.687                    22907171.723
  22907172.266          43.750          30.250
 109413525.71948  85257300.54648  20820687.600    20820690.229    20820687.569
  20820690.375          52.750          53.000
 112485276.11348  87650869.40046  21405225.250                    21405224.881
  21405225.331          52.250          41.750
 123343066.92847  96111491.26547  23471402.812    23471408.355    23471402.741
  23471407.584          43.500          44.000
 129742141.52846 101097776.11946  24689108.452    24689110.525    24689107.676
  24689110.478          41.750          38.000
 116663527.72647  90906647.43745  22200326.201                    22200325.915
  22200326.415          47.750          35.500
 16 10  7  0 45 30.0000000  0 11G27G32G24G01G22G18G10G14G08G31G11
 130229863.52946 101477802.94247  24781916.036    24781922.554    24781916.342
  24781922.284          37.750          42.000
 106646890.78049  83101493.37449  20294214.001    20294216.968    20294214.261
  20294216.662          55.500          55.000
 123881057.68846  96530702.36247  23573771.350    23573775.555    23573771.112
  23573775.161          41.750          44.000
 121243479.50747  94475431.42047  23071860.168    23071864.111    23071860.319
  23071864.172          45.500          45.000
 130140270.92046 101407999.53643  24764867.174                    24764865.903
  24764867.645          40.750          22.750
 120456056.87847  93861874.63745  22922016.420                    22922016.189
  22922016.293          42.500          30.500
 109460135.89548  85293620.16749  20829557.333    20829560.016    20829557.341
  20829560.119          53.250          54.000
 112420705.74048  87600554.86246  21392937.847                    21392937.184
  21392938.271          52.000          41.750
 123411776.78547  96165031.38147  23484478.543    23484482.823    23484478.745
  23484482.290          44.500          43.000
 129625193.94546 101006648.13446  24666853.961    24666856.621    24666853.980
  24666855.536          41.500          38.000
 116617071.00247  90870447.42645  22191485.609                    22191485.268
  22191486.211          47.750          35.250
 16 10  7  0 46  0.0000000  0 11G27G32G24G01G22G18G10G14G08G31G11
 130332998.94946 101558168.15246  24801543.092    24801548.769    24801541.597
  24801548.482          37.250          41.000
 106635608.39649  83092701.91349  20292067.033    20292069.902    20292067.400
  20292069.678          55.500          55.000
 123950394.64346  96584731.11947  23586965.071    23586969.273    23586965.338
  23586968.820          41.500          43.000
 121153068.07247  94404981.00047  23054655.459    23054658.927    23054655.595
  23054659.922          45.250          45.000
 130045290.72946 101333989.07843  24746793.233                    24746792.196
  24746792.952          41.000          22.750
 120534246.84647  93922801.86945  22936895.945                    22936894.449
  22936895.395          42.000          30.500
 109507091.78448  85330209.17548  20838492.596    20838495.165    20838492.623
  20838495.396          52.750          53.000
 112356517.70148  87550538.24047  21380723.078                    21380722.706
  21380723.293          52.000          42.250
 123480874.21147  96218873.49247  23497627.044    23497631.906    23497626.960
  23497631.419          44.250          43.000
 129508249.77246 100915522.81046  24644600.650    24644603.326    24644599.341
  24644603.724          41.750          39.000
 116571207.69747  90834709.80845  22182758.224                    22182758.293
  22182757.816          47.500          35.500
 16 10  7  0 46 30.0000000  0 11G27G32G24G01G22G18G10G14G08G31G11
 130436172.02346 101638562.71646  24821177.857    24821181.424    24821176.352
  24821180.594          39.000          41.000
 106624825.44049  83084299.62349  20290015.240    20290017.954    20290015.479
  20290017.733          55.000          55.000
 124020198.66246  96639123.86847  23600248.796    23600252.806    23600248.879
  23600252.419          41.500          43.000
 121062969.59047  94334774.43047  23037509.991    23037514.446    23037510.337
  23037514.290          45.000          45.000
 129950340.42546 101260001.92943  24728723.777                    24728722.512
  24728724.285          40.750          21.750
 120612618.62147  93983870.76545  22951808.918                    22951808.444
  22951808.997          42.000          30.500
 109554392.89748  85367067.18948  20847493.888    20847496.459    20847493.808
  20847496.639          52.000          53.000
 112292712.96848  87500820.29647  21368581.723                    21368581.116
  21368581.702          52.250          42.250
 123550356.34147  96273015.38647  23510848.572    23510853.580    23510849.238
  23510852.478          42.750          43.000
 129391311.89546 100824402.41346  24622347.393    24622352.072    24622347.676
  24622351.253          41.750          40.000
 116525939.02447  90799435.53245  22174144.221                    22174143.820
  22174143.729          47.750          35.000
 16 10  7  0 47  0.0000000  0 11G27G32G24G01G22G18G10G14G08G31G11
 130539379.87146 101718984.36247  24840816.620    24840822.093    24840815.443
  24840821.764          38.750          42.000
 106614541.56849  83076286.22449  20288058.373    20288060.773    20288058.522
  20288060.760          56.000          55.000
 124090467.29546  96693878.64547  23613620.075    23613624.339    23613620.605
  23613624.752          41.750          43.000
 120973186.61247  94264813.71547  23020425.131    23020428.395    23020424.758
  23020428.834          44.750          44.000
 129855420.78146 101186038.70443  24710662.387                    24710660.283
  24710660.282          41.250          22.500
 120691171.69647  94045080.91445  22966757.405                    22966756.383
  22966758.228          42.750          30.750
 109602038.72848  85404193.81048  20856560.530    20856563.253    20856560.534
  20856563.298          53.250          53.000
 112229292.74048  87451401.96547  21356513.180                    21356512.642
  21356513.602          52.250          42.000
 123620220.10647  96327454.65847  23524144.503    23524148.883    23524143.888
  23524148.251          44.500          43.000
 129274383.08647 100733289.13246  24600096.565    24600101.009    24600096.342
  24600099.679          42.250          40.000
 116481266.75647  90764625.98845  22165643.527                    22165643.235
  22165642.973          47.750          35.000
 16 10  7  0 47 30.0000000  0 11G27G32G24G01G22G18G10G14G08G31G11
 130642619.45346 101799430.75246  24860460.778    24860467.568    24860460.829
  24860466.924          37.750          41.000
 106604756.39049  83068661.41749  20286196.360    20286198.872    20286196.493
  20286198.699          55.500          55.000
 124161197.84947  96748993.33047  23627079.824    23627083.205    23627080.177
  23627082.589          42.000          43.000
 120883721.71247  94195100.85847  23003400.440    23003404.350    23003400.169
  23003404.459          45.500          45.000
 129760532.77946 101112100.10343  24692604.574                    24692603.888
  24692604.082          40.000          22.750
 120769905.75146  94106432.11145  22981739.598                    22981738.753
  22981740.533          41.000          30.750
 109650028.73348  85441588.62148  20865692.682    20865695.185    20865692.738
  20865695.440          52.750          53.000
 112166258.12748  87402284.11747  21344518.214                    21344517.679
  21344518.306          52.000          42.000
 123690463.09747  96382189.44447  23537511.404    23537515.469    23537510.627
  23537515.336          44.750          43.000
 129157466.22846 100642185.17346  24577848.151    24577852.657    24577847.998
  24577851.559          41.000          40.000
 116437192.56347  90730282.48045  22157256.024                    22157256.022
  22157256.017          47.250          35.750
 16 10  7  0 48  0.0000000  0 11G27G32G24G01G22G18G10G14G08G31G11
 130745887.83246 101879899.58146  24880113.942    24880119.927    24880112.015
  24880120.060          38.250          41.000
 106595469.56149  83061424.93549  20284428.886    20284431.685    20284429.179
  20284431.451          55.500          55.000
 124232388.40847  96804466.46847  23640626.738    23640631.414    23640626.622
  23640630.594          42.500          43.000
 120794577.43747  94125637.82947  22986436.495    22986440.996    22986436.355
  22986440.350          46.000          45.000
 129665677.29046 101038186.83143  24674554.205                    24674553.751
  24674553.718          39.000          23.250
 120848819.83546  94167923.58545  22996756.923                    22996756.639
  22996758.149          41.750          31.000
 109698362.41348  85479251.23248  20874890.359    20874892.857    20874890.343
  20874893.035          53.000          53.000
 112103609.58748  87353467.09547  21332596.595                    21332595.797
  21332596.469          51.750          42.250
 123761082.53047  96437217.53647  23550949.160    23550953.152    23550948.863
  23550952.557          44.750          42.000
 129040564.15346 100551092.77246  24555601.299    24555605.432    24555601.368
  24555605.463          40.250          39.000
 116393718.03947  90696406.24645  22148982.702                    22148982.547
  22148983.194          46.750          35.750
 16 10  7  0 48 30.0000000  0 11G27G32G24G01G22G18G10G14G08G31G11
 130849182.08146 101960388.55347  24899769.791    24899776.443    24899770.319
  24899774.751          38.750          42.000
 106586680.62749  83054576.41949  20282756.298    20282759.260    20282756.626
  20282759.002          56.250          55.000
 124304036.71047  96860296.32247  23654261.595    23654264.682    23654261.335
  23654265.054          43.250          42.000
 120705756.32647  94056426.61047  22969534.666    22969537.942    22969534.933
  22969538.047          45.750          45.000
 129570854.84946 100964299.34343  24656509.102                    24656508.317
  24656509.169          38.500          22.750
 120927913.55346  94229555.02845  23011807.814                    23011807.151
  23011808.407          41.750          30.750
 109747039.24148  85517181.22348  20884153.262    20884155.702    20884153.052
  20884155.908          53.500          53.000
 112041347.90948  87304951.53447  21320748.310                    21320747.780
  21320748.440          51.750          42.000
 123832075.24947  96492536.48347  23564458.372    23564462.362    23564458.082
  23564462.429          45.000          42.000
 128923679.60346 100460014.03646  24533358.296    24533362.754    24533359.987
  24533363.290          39.250          39.000
 116350844.84147  90662998.58045  22140824.700                    22140824.224
  22140824.772          46.500          35.750
 16 10  7  0 49  0.0000000  0 11G27G32G24G01G22G18G10G14G08G31G11
 130952499.39246 102040895.48346  24919431.551    24919434.324    24919430.378
  24919434.724          39.500          39.000
 106578389.23149  83048115.59749  20281178.574    20281181.491    20281178.772
  20281181.140          55.750          55.000
 124376139.98147  96916480.67647  23667981.747    23667985.887    23667981.769
  23667986.341          43.250          43.000
 120617260.89047  93987469.17747  22952694.335    22952697.936    22952694.894
  22952698.576          45.250          45.000
 129476066.42146 100890438.30943  24638472.602                    24638471.136
  24638472.150          39.000          22.750
 121007186.23547  94291325.92545  23026893.220                    23026892.669
  23026893.314          42.000          30.750
 109796058.68248  85555378.19348  20893481.310    20893483.864    20893481.379
  20893484.068          52.500          53.000
 111979474.46848  87256738.48447  21308974.353                    21308973.811
  21308974.293          51.750          42.500
 123903438.56947  96548144.22647  23578038.916    23578042.881    23578038.002
  23578042.340          45.000          42.000
 128806815.38146 100368951.15646  24511120.279    24511123.622    24511121.186
  24511123.285          39.500          39.000
 116308574.43447  90630060.60945  22132780.850                    22132780.329
  22132781.315          45.500          35.500
 16 10  7  0 49 30.0000000  0 11G27G32G24G01G22G18G10G14G08G31G11
 131055836.63746 102121417.96746  24939094.136    24939101.090    24939094.377
  24939100.936          38.000          41.000
 106570594.91449  83042042.10849  20279695.425    20279698.490    20279695.656
  20279697.889          56.500          55.000
 124448696.17947  96973017.97447  23681788.953    23681792.556    23681789.090
  23681793.267          43.250          42.000
 120529093.69447  93918767.50847  22935916.511    22935921.263    22935916.454
  22935920.900          44.750          46.000
 129381313.05546 100816604.61943  24620440.837                    24620440.150
  24620441.403          38.750          22.500
 121086637.20447  94353235.73645  23042012.388                    23042011.549
  23042013.368          42.250          31.250
 109845420.20348  85593841.71148  20902874.657    20902877.135    20902874.489
  20902877.226          53.250          53.000
 111917989.76048  87208828.34647  21297274.200                    21297273.764
  21297274.046          51.750          42.500
 123975169.75847  96604038.63447  23591688.639    23591693.426    23591688.128
  23591692.102          45.250          43.000
 128689974.30346 100277906.31546  24488885.890    24488889.981    24488887.038
  24488890.543          39.750          39.000
 116266908.36647  90597593.55546  22124851.817                    22124851.707
  22124851.324          45.750          36.000
 16 10  7  0 50  0.0000000  0 11G27G32G24G01G22G18G10G14G08G31G11
 131159190.99246 102201953.74646  24958761.874    24958767.716    24958762.664
  24958766.908          39.000          39.000
 106563297.24849  83036355.62249  20278306.619    20278309.643    20278306.868
  20278309.259          55.750          55.000
 124521702.70547  97029906.16647  23695681.695    23695685.386    23695682.255
  23695685.819          42.750          42.000
 120441257.29847  93850323.60447  22919202.264    22919205.928    22919201.694
  22919205.448          44.750          45.000
 129286595.46346 100742798.78343  24602416.958                    24602415.816
  24602416.870          38.250          22.250
 121166266.07447  94415284.20745  23057165.477                    23057164.495
  23057165.326          43.250          31.250
 109895123.27748  85632571.37448  20912332.866    20912335.244    20912332.796
  20912335.576          53.000          53.000
 111856894.67648  87161221.81047  21285648.128                    21285647.428
  21285648.298          51.750          42.250
 124047265.99147  96660217.48647  23605408.481    23605413.117    23605407.625
  23605412.801          45.000          44.000
 128573159.20646 100186881.70746  24466656.518    24466661.248    24466658.167
  24466661.236          40.000          39.000
 116225848.27047  90565598.66346  22117038.683                    22117038.444
  22117038.590          47.250          36.250
 16 10  7  0 50 30.0000000  0 11G27G32G24G01G22G18G10G14G08G31G11
 131262559.43946 102282500.59346  24978432.778    24978437.575    24978431.780
  24978438.082          38.750          39.000
 106556495.79249  83031055.79249  20277012.356    20277015.100    20277012.633
  20277014.868          55.750          55.000
 124595157.42447  97087143.61747  23709660.438    23709663.870    23709659.787
  23709663.115          43.000          43.000
 120353754.24947  93782139.45447  22902550.573    22902554.058    22902550.105
  22902554.474          45.250          45.000
 129191914.68546 100669021.63043  24584399.456                    24584398.986
  24584399.959          38.500          23.000
 121246071.87247  94477470.51545  23072351.789                    23072350.644
  23072351.634          43.500          31.000
 109945167.34748  85671566.74548  20921855.929    20921858.281    20921855.862
  20921858.446          53.250          53.000
 111796190.13748  87113919.60247  21274096.361                    21274095.809
  21274096.309          51.750          42.750
 124119724.35647  96716678.53047  23619196.352    23619201.726    23619196.742
  23619200.510          45.500          44.000
 128456372.95246 100095879.60346  24444433.993    24444438.015    24444432.918
  24444436.862          40.250          38.000
 116185395.33447  90534076.88746  22109340.676                    22109339.909
  22109340.870          45.750          36.000
 16 10  7  0 51  0.0000000  0 11G27G32G24G01G22G18G10G14G08G31G11
 131365939.24846 102363056.23146  24998105.489    24998111.217    24998104.943
  24998109.159          38.750          39.000
 106550190.06649  83026142.25049  20275812.521    20275815.224    20275812.757
  20275814.886          56.250          55.000
 124669057.14647  97144727.83447  23723722.024    23723725.852    23723721.871
  23723726.280          43.250          42.000
 120266587.08147  93714217.02247  22885963.184    22885967.470    22885963.738
  22885966.992          44.750          46.000
 129097271.52646 100595273.80144  24566391.602                    24566389.846
  24566389.365          39.000          24.000
 121326054.22347  94539794.41645  23087571.970                    23087570.979
  23087572.067          42.750          31.000
 109995551.91648  85710827.44448  20931443.841    20931446.213    20931443.661
  20931446.277          53.250          53.000
 111735877.00648  87066922.38247  21262618.972                    21262618.860
  21262619.378          51.250          42.750
 124192542.10347  96773419.59147  23633053.431    23633057.845    23633053.361
  23633057.922          45.000          43.000
 128339618.44946 100004902.21646  24422215.446    24422220.174    24422216.250
  24422220.193          40.750          38.000
 116145551.09447  90503029.42846  22101758.231                    22101758.151
  22101758.222          45.500          36.000
 16 10  7  0 51 30.0000000  0 11G27G32G24G01G22G18G10G14G08G31G11
 131469327.36946 102443618.36946  25017781.244    25017784.985    25017780.776
  25017784.959          40.750          37.000
 106544379.58249  83021614.60749  20274706.758    20274709.616    20274707.049
  20274709.326          56.000          55.000
 124743400.52747  97202657.72947  23737870.094    23737873.107    23737870.121
  23737873.437          43.250          42.000
 120179758.31047  93646558.26847  22869439.416    22869444.662    22869439.681
  22869443.995          44.500          46.000
 129002666.78646 100521555.88744  24548387.839                    24548387.766
  24548387.670          38.750          25.250
 121406212.67847  94602255.53145  23102825.481                    23102824.320
  23102826.620          42.750          30.750
 110046276.41048  85750353.02148  20941096.548    20941098.299    20941096.315
  20941098.797          53.750          53.000
 111675956.10948  87020230.80647  21251216.590                    21251216.056
  21251216.425          51.500          42.500
 124265716.17647  96830438.31047  23646977.695    23646982.736    23646977.983
  23646982.334          44.250          44.000
 128222898.19846  99913951.52746  24400005.264    24400009.730    24400004.684
  24400008.109          40.250          38.000
 116106317.11447  90472457.49446  22094293.081                    22094292.492
  22094292.282          46.250          36.500
 16 10  7  0 52  0.0000000  0 11G27G32G24G01G22G18G10G14G08G31G11
 131572720.93846 102524184.73946  25037454.300    25037459.655    25037454.261
  25037459.637          38.750          37.000
 106539063.86749  83017472.50049  20273695.196    20273698.101    20273695.513
  20273697.783          56.250          55.000
 124818184.54547  97260930.99347  23752100.937    23752104.382    23752100.843
  23752104.564          42.500          43.000
 120093270.50647  93579165.24347  22852982.243    22852985.599    22852982.024
  22852986.327          45.000          45.000
 128908101.55646 100447868.78344  24530392.479                    24530391.554
  24530391.143          39.750          25.500
 121486546.46847  94664853.26545  23118112.600                    23118112.637
  23118113.344          42.750          30.500
 110097340.27548  85790143.04448  20950813.386    20950815.803    20950813.320
  20950816.066          53.000          53.000
 111616428.04448  86973845.31647  21239888.537                    21239887.796
  21239888.790          51.250          42.750
 124339243.88847  96887732.58947  23660969.820    23660974.642    23660969.045
  23660974.154          43.750          44.000
 128106215.47946  99823030.04946  24377801.036    24377804.548    24377800.480
  24377804.417          40.250          37.000
 116067694.75347  90442362.13846  22086942.964                    22086941.951
  22086942.854          45.500          36.500
 16 10  7  0 52 30.0000000  0 11G27G32G24G01G22G18G10G14G08G31G11
 131676117.07946 102604753.14846  25057131.343    25057135.204    25057130.266
  25057135.170          39.750          37.000
 106534242.39449  83013715.51749  20272777.606    20272780.536    20272777.841
  20272780.259          55.750          55.000
 124893407.34547  97319546.19847  23766413.265    23766418.799    23766414.926
  23766419.369          42.250          43.000
 120007126.21447  93512039.84347  22836589.219    22836592.669    22836589.976
  22836593.207          45.500          45.000
 128813576.29646 100374212.77644  24512404.874                    24512404.142
  24512404.466          40.500          26.750
 121567054.86947  94727587.05944  23133432.137                    23133431.320
  23133432.824          42.500          29.750
 110148742.98148  85830197.10048  20960594.730    20960597.471    20960594.865
  20960597.523          53.250          53.000
 111557293.65648  86927766.58647  21228635.557                    21228635.059
  21228636.017          51.250          42.500
 124413122.34747  96945300.18347  23675028.239    23675033.338    23675027.593
  23675033.134          43.750          44.000
 127989573.03146  99732139.97146  24355603.797    24355607.393    24355604.352
  24355607.556          40.500          37.000
 116029685.36447  90412744.43246  22079710.456                    22079709.977
  22079710.071          45.250          36.750
 16 10  7  0 53  0.0000000  0 11G27G32G24G01G22G18G10G14G08G31G11
 131779512.89846 102685321.26246  25076806.217    25076812.398    25076805.956
  25076811.194          39.750          38.000
 106529914.68549  83010343.27749  20271954.048    20271956.852    20271954.285
  20271956.647          56.000          55.000
 124969065.65447  97378500.73547  23780811.899    23780816.048    23780811.948
  23780815.484          43.250          42.000
 119921327.98247  93445184.09547  22820262.844    22820266.381    22820262.780
  22820266.410          46.250          46.000
 128719091.95546 100300588.66744  24494424.856                    24494423.755
  24494423.709          39.250          26.750
 121647737.33447  94790456.48444  23148785.922                    23148784.575
  23148786.915          42.250          29.000
 110200483.93748  85870514.72448  20970440.860    20970443.460    20970440.855
  20970443.614          53.750          53.000
 111498553.94248  86881995.39247  21217457.695                    21217457.402
  21217458.178          52.000          42.500
 124487348.46247  97003138.67547  23689153.312    23689158.011    23689152.948
  23689158.042          44.500          44.000
 127872973.61646  99641283.40146  24333416.257    24333419.505    24333415.732
  24333418.586          39.750          38.000
 115992290.26547  90383605.39846  22072593.886                    22072593.693
  22072594.166          46.500          37.000
 16 10  7  0 53 30.0000000  0 11G27G32G24G01G22G18G10G14G08G31G11
 131882905.50746 102765886.89146  25096480.576    25096485.678    25096481.296
  25096485.583          39.000          38.000
 106526080.17149  83007355.35249  20271224.372    20271227.233    20271224.565
  20271227.020          55.500          55.000
 125045157.49447  97437793.08647  23795291.687    23795295.162    23795291.302
  23795296.252          42.500          42.000
 119835878.32447  93378599.95547  22804002.142    22804005.419    22804001.963
  22804005.672          46.500          46.000
 128624649.78446 100226997.46044  24476453.599                    24476451.828
  24476452.396          39.500          27.000
 121728593.38747  94853461.16544  23164172.009                    23164171.603
  23164172.577          43.250          28.250
 110252562.62949  85911095.52548  20980351.259    20980353.757    20980351.238
  20980353.743          54.000          53.000
 111440209.57748  86836532.27647  21206355.666                    21206354.860
  21206355.590          51.500          42.750
 124561919.66947  97061246.05747  23703343.710    23703348.392    23703343.594
  23703348.701          44.500          44.000
 127756420.03446  99550462.58146  24311235.215    24311238.960    24311235.877
  24311239.583          38.750          38.000
 115955510.90547  90354946.15446  22065595.380                    22065594.657
  22065595.122          46.500          37.250
 16 10  7  0 54  0.0000000  0 11G27G32G24G01G22G18G10G14G08G31G11
 131986292.06646 102846447.80246  25116155.231    25116159.244    25116155.013
  25116159.743          40.000          38.000
 106522738.32249  83004751.32149  20270588.534    20270591.107    20270588.709
  20270591.006          56.000          55.000
 125121680.43746  97497421.37847  23809853.249    23809858.017    23809853.952
  23809857.262          41.750          42.000
 119750779.81147  93312289.45247  22787808.692    22787811.732    22787807.673
  22787812.369          46.500          46.000
 128530250.44346 100153439.59144  24458489.281                    24458488.169
  24458488.125          38.250          26.750
 121809622.28547  94916600.54844  23179591.358                    23179591.131
  23179591.508          43.500          27.750
 110304978.44448  85951939.01948  20990325.602    20990328.066    20990325.589
  20990328.238          53.250          53.000
 111382261.37548  86791377.85647  21195327.896                    21195327.582
  21195328.356          51.250          42.750
 124636832.69847  97119619.82947  23717599.031    23717604.525    23717598.704
  23717603.645          44.000          44.000
 127639915.44446  99459679.90846  24289065.322    24289069.155    24289065.369
  24289068.476          38.250          39.000
 115919348.72547  90326767.83346  22058713.612                    22058712.842
  22058713.379          46.750          36.000
 16 10  7  0 54 30.0000000  0 11G27G32G24G01G22G18G10G14G08G31G11
 132089669.59446 102927001.67946  25135828.714    25135833.942    25135827.041
  25135832.606          40.750          41.000
 106519888.57649  83002530.74649  20270046.144    20270049.155    20270046.408
  20270048.669          57.000          55.000
 125198632.20446  97557383.79947  23824496.338    23824500.599    23824496.809
  23824500.769          41.750          42.000
 119666034.92547  93246254.53447  22771681.663    22771685.763    22771682.280
  22771685.852          45.750          47.000
 128435894.85746 100079915.80744  24440533.551                    24440532.131
  24440532.196          38.250          26.250
 121890823.54647  94979874.25244  23195042.706                    23195041.775
  23195044.303          42.500          27.750
 110357730.83749  85993044.78448  21000364.044    21000366.488    21000363.931
  21000366.695          54.250          53.000
 111324709.79248  86746532.48347  21184376.401                    21184376.136
  21184376.683          51.750          42.750
 124712084.87947  97178257.83847  23731919.230    23731923.946    23731919.008
  23731923.386          44.000          43.000
 127523462.31346  99368937.36746  24266905.353    24266908.988    24266904.926
  24266909.017          38.500          40.000
 115883804.73547  90299071.20746  22051949.715                    22051949.082
  22051950.459          46.750          36.250
 16 10  7  0 55  0.0000000  0 11G27G32G24G01G22G18G10G14G08G31G11
 132193035.34646 103007546.34446  25155494.801    25155502.590    25155496.379
  25155501.871          36.250          39.000
 106517530.36449  83000693.18949  20269597.459    20269600.194    20269597.724
  20269599.877          56.500          55.000
 125276009.95247  97617678.17747  23839221.573    23839225.316    23839222.221
  23839225.547          42.250          42.000
 119581646.20247  93180497.09747  22755622.986    22755626.728    22755622.562
  22755627.387          45.250          46.000
 128341583.96646 100006426.86044  24422587.535                    24422586.499
  24422585.972          39.000          27.000
 121972196.34047  95043281.59744  23210528.057                    23210527.735
  23210528.233          43.500          27.500
 110410819.23948  86034412.37048  21010466.276    21010469.008    21010466.517
  21010469.022          53.750          53.000
 111267555.52448  86701996.72247  21173500.097                    21173499.739
  21173500.414          51.500          42.500
 124787673.05647  97237157.67047  23746303.217    23746307.793    23746303.261
  23746307.974          44.750          43.000
 127407063.76546  99278237.37546  24244755.902    24244758.293    24244755.008
  24244757.807          37.500          40.000
 115848880.33747  90271857.41646  22045304.131                    22045303.438
  22045304.140          45.750          37.000
 16 10  7  0 55 30.0000000  0 11G27G32G24G01G22G18G10G14G08G31G11
 132296386.48246 103088079.63046  25175163.964    25175167.977    25175162.052
  25175170.073          37.500          38.000
 106515663.08249  82999238.17349  20269242.079    20269244.747    20269242.259
  20269244.574          56.500          55.000
 125353810.85146  97678302.27047  23854027.082    23854029.375    23854026.795
  23854029.716          41.500          42.000
 119497616.21247  93115019.21747  22739633.174    22739636.467    22739632.570
  22739637.351          46.000          46.000
 128247318.80546  99932973.53744  24404650.095                    24404648.655
  24404647.983          39.500          27.250
 122053740.21947  95106822.25844  23226046.655                    23226045.025
  23226046.550          43.750          27.750
 110464243.06649  86076041.32548  21020632.642    21020635.094    21020632.567
  21020635.331          54.000          53.000
 111210800.04248  86657771.69847  21162700.023                    21162699.315
  21162700.021          51.750          42.750
 124863594.62947  97296317.30747  23760750.273    23760756.153    23760750.836
  23760755.349          43.750          44.000
 127290722.58546  99187582.05246  24222615.933    24222618.746    24222615.737
  24222618.498          38.000          40.000
 115814576.85547  90245127.43646  22038776.307                    22038775.804
  22038776.262          46.750          36.750
 16 10  7  0 56  0.0000000  0 11G27G32G24G01G22G18G10G14G08G31G11
 132399720.08146 103168599.24646  25194828.747    25194833.428    25194827.922
  25194832.297          39.000          39.000
 106514286.17349  82998165.26849  20268979.908    20268982.956    20268980.140
  20268982.713          55.500          55.000
 125432033.03347  97739254.63347  23868912.417    23868915.508    23868911.603
  23868915.539          42.750          42.000
 119413947.47747  93049822.82947  22723711.178    22723714.987    22723711.519
  22723714.873          46.250          46.000
 128153100.14846  99859556.47244  24386720.730                    24386718.852
  24386720.250          38.500          27.500
 122135454.30947  95170495.55544  23241595.444                    23241595.355
  23241595.961          43.500          28.000
 110518001.73349  86117931.19848  21030862.516    21030865.176    21030862.331
  21030865.115          54.500          52.000
 111154443.62848  86613857.64247  21151975.643                    21151975.260
  21151975.857          51.500          42.750
 124939846.54847  97355734.36247  23775259.965    23775266.147    23775259.604
  23775265.021          44.000          43.000
 127174441.82546  99096973.81646  24200488.712    24200491.056    24200488.464
  24200491.254          37.000          40.000
 115780895.41447  90218882.16546  22032367.217                    22032366.531
  22032366.878          46.750          37.000
 16 10  7  0 56 30.0000000  0 11G27G32G24G01G22G18G10G14G08G31G11
 132503033.29046 103249102.97546  25214486.863    25214492.788    25214486.526
  25214491.396          37.750          38.000
 106513398.99349  82997473.97049  20268811.105    20268814.183    20268811.389
  20268813.862          56.000          55.000
 125510673.75347  97800533.15547  23883876.428    23883880.353    23883877.008
  23883880.847          42.000          42.000
 119330642.50047  92984909.87447  22707858.732    22707862.658    22707859.148
  22707862.690          46.250          47.000
 128058929.04546  99786176.43444  24368798.948                    24368798.136
  24368800.002          38.500          25.750
 122217338.17747  95234301.15844  23257177.919                    23257176.293
  23257177.948          43.000          28.250
 110572094.67648  86160081.54548  21041156.099    21041158.745    21041156.119
  21041158.751          53.750          53.000
 111098487.05548  86570255.14447  21141327.517                    21141327.153
  21141327.907          51.500          43.000
 125016425.62047  97415406.30947  23789834.331    23789838.041    23789833.920
  23789836.719          44.750          43.000
 127058224.17446  99006414.74446  24178372.686    24178376.028    24178371.917
  24178375.659          38.000          41.000
 115747837.47747  90193122.74946  22026076.185                    22026075.139
  22026076.273          47.500          36.750
 16 10  7  0 57  0.0000000  0 11G27G32G24G01G22G18G10G14G08G31G11
 132606323.30046 103329588.62746  25234144.387    25234147.972    25234144.428
  25234148.149          38.750          39.000
 106513000.93249  82997163.80849  20268735.496    20268738.427    20268735.691
  20268737.984          55.250          55.000
 125589730.39647  97862135.76347  23898919.873    23898924.346    23898921.032
  23898923.944          42.250          42.000
 119247703.79047  92920282.35047  22692076.130    22692079.818    22692076.497
  22692079.557          46.250          46.000
 127964806.06246  99712833.92544  24350888.802                    24350887.510
  24350888.118          38.500          25.250
 122299391.39847  95298238.70844  23272791.101                    23272790.565
  23272792.873          42.500          27.750
 110626521.29349  86202491.90248  21051512.924    21051515.590    21051512.852
  21051515.862          54.000          53.000
 111042930.99748  86526964.73947  21130755.578                    21130755.321
  21130755.924          51.500          43.000
 125093329.33947  97475331.23647  23804467.388    23804472.692    23804467.374
  23804472.651          44.750          43.000
 126942072.58246  98915907.13846  24156270.708    24156271.977    24156270.116
  24156272.534          39.000          41.000
 115715404.06147  90167849.98746  22019904.011                    22019903.638
  22019904.341          45.750          36.500
 16 10  7  0 57 30.0000000  0 11G27G32G24G01G22G18G10G14G08G31G11
 132709587.28346 103410054.01746  25253795.576    25253799.650    25253794.925
  25253798.941          39.750          39.000
 106513091.38349  82997234.30049  20268752.736    20268755.468    20268752.904
  20268755.302          55.000          54.000
 125669200.78246  97924060.73947  23914043.195    23914047.379    23914043.121
  23914046.748          41.500          42.000
 119165133.95447  92855942.24047  22676363.504    22676366.953    22676363.459
  22676366.996          46.750          46.000
 127870732.35946  99639529.77344  24332986.723                    24332985.118
  24332986.077          39.500          24.250
 122381613.01847  95362307.47644  23288438.160                    23288437.653
  23288438.229          43.500          28.500
 110681280.99749  86245161.80548  21061933.292    21061936.235    21061933.333
  21061936.167          54.000          52.000
 110987776.22448  86483987.01947  21120259.857                    21120259.560
  21120259.984          51.750          43.000
 125170554.43647  97535506.63447  23819163.142    23819167.842    23819162.525
  23819167.067          44.500          43.000
 126825990.10246  98825453.38346  24134181.150    24134183.060    24134180.452
  24134183.064          40.000          41.000
 115683596.02447  90143064.52246  22013851.425                    22013850.409
  22013850.985          46.750          37.000
 16 10  7  0 58  0.0000000  0 11G27G32G24G01G22G18G10G14G08G31G11
 132812822.44346 103490496.89346  25273438.559    25273443.917    25273438.651
  25273442.704          39.000          38.000
 106513669.67549  82997684.92749  20268862.794    20268865.575    20268862.933
  20268865.345          55.250          55.000
 125749082.10147  97986305.94647  23929243.670    23929247.551    23929243.659
  23929248.710          42.250          42.000
 119082935.43747  92791891.46747  22660721.670    22660725.054    22660721.395
  22660725.199          46.750          46.000
 127776709.20546  99566265.00543  24315094.854                    24315093.474
  24315093.459          39.500          23.750
 122464002.63947  95426507.15444  23304117.093                    23304116.312
  23304116.210          45.000          28.500
 110736373.20749  86288090.79948  21072417.102    21072419.851    21072417.118
  21072419.837          54.000          52.000
 110933023.37548  86441322.49247  21109841.061                    21109840.212
  21109840.979          51.750          43.250
 125248098.12447  97595930.24747  23833919.480    23833924.149    23833919.201
  23833923.206          45.250          42.000
 126709979.57746  98735055.68946  24112104.562    24112107.144    24112104.259
  24112106.312          41.000          40.000
 115652414.94147  90118767.58746  22007918.040                    22007917.576
  22007917.628          46.500          37.000
 16 10  7  0 58 30.0000000  0 10G32G24G01G22G18G10G14G08G31G11
 106514735.13449  82998515.16749  20269065.512    20269068.278    20269065.758
  20269068.081          55.750          55.000
 125829371.81747  98048869.37547  23944523.066    23944526.408    23944522.924
  23944526.702          42.500          43.000
 119001110.75647  92728131.99147  22645150.896    22645154.779    22645150.772
  22645154.250          46.750          46.000
 127682737.17546  99493040.11343  24297212.830                    24297211.525
  24297211.325          40.250          23.500
 122546559.37247  95490837.06444  23319826.365                    23319826.013
  23319827.063          44.000          29.250
 110791797.30549  86331278.41348  21082964.232    21082966.427    21082964.122
  21082966.715          54.250          53.000
 110878673.06648  86398971.62947  21099498.305                    21099497.939
  21099498.484          51.250          43.500
 125325957.31647  97656599.72147  23848735.083    23848740.334    23848734.812
  23848739.979          44.500          42.000
 126594043.90346  98644716.31846  24090042.692    24090044.344    24090042.630
  24090045.536          41.250          40.000
 115621861.82147  90094959.97746  22002103.716                    22002103.398
  22002103.547          45.750          37.000
 16 10  7  0 59  0.0000000  0 10G32G24G01G22G18G10G14G08G31G11
 106516287.09349  82999724.49649  20269360.933    20269363.662    20269361.213
  20269363.317          56.000          55.000
 125910067.36346  98111749.04847  23959877.050    23959881.833    23959878.702
  23959882.224          41.750          42.000
 118919662.44747  92664665.78347  22629651.250    22629655.348    22629651.856
  22629655.786          46.500          47.000
 127588817.21346  99419855.80344  24279340.238                    24279339.383
  24279339.364          40.000          25.250
 122629282.57247  95555296.69644  23335567.779                    23335567.502
  23335568.550          44.750          29.250
 110847552.82749  86374724.28048  21093574.039    21093576.294    21093573.907
  21093576.677          54.250          52.000
 110824725.71248  86356934.76047  21089232.339                    21089231.782
  21089232.317          51.500          43.250
 125404129.21747  97717512.88046  23863610.861    23863615.460    23863611.096
  23863615.815          44.750          41.000
 126478185.81346  98554437.40146  24067995.517    24067997.108    24067995.159
  24067997.171          40.000          39.000
 115591937.53547  90071642.37346  21996409.328                    21996408.423
  21996409.564          47.750          37.250
 16 10  7  0 59 30.0000000  0 10G32G24G01G22G18G10G14G08G31G11
 106518324.86949  83001312.38649  20269748.788    20269751.228    20269748.854
  20269751.019          56.000          55.000
 125991166.26747  98174943.00347  23975312.424    23975315.509    23975311.363
  23975314.157          42.250          43.000
 118838592.97747  92601494.81047  22614224.487    22614228.274    22614224.152
  22614228.447          46.250          46.000
 127494950.33846  99346712.83244  24261477.863                    24261477.588
  24261477.872          41.000          25.500
 122712171.82947  95619885.68944  23351341.534                    23351340.615
  23351342.169          43.500          28.500
 110903638.89349  86418427.70948  21104246.798    21104249.317    21104246.712
  21104249.394          54.250          52.000
 110771182.24448  86315212.60247  21079043.567                    21079042.818
  21079043.566          51.750          43.500
 125482610.84247  97778667.35347  23878545.454    23878551.231    23878545.872
  23878549.995          44.500          42.000
 126362408.28646  98464221.24946  24045964.137    24045965.765    24045963.677
  24045965.038          39.250          39.000
 115562643.31947  90048815.71946  21990834.686                    21990834.577
  21990834.661          46.000          37.250
 16 10  7  1  0  0.0000000  0 10G32G24G01G22G18G10G14G08G31G11
 106520847.79149  83003278.31049  20270228.802    20270231.389    20270228.989
  20270231.085          56.750          55.000
 126072666.06447  98238449.37047  23990820.634    23990823.992    23990821.109
  23990823.801          42.250          43.000
 118757904.87047  92538620.97847  22598870.201    22598874.205    22598870.159
  22598874.049          45.500          46.000
 127401137.42946  99273611.90844  24243626.068                    24243624.585
  24243624.322          40.000          25.750
 122795226.58147  95684603.64144  23367146.165                    23367145.395
  23367147.018          43.250          28.000
 110960055.03549  86462388.34848  21114982.551    21114984.844    21114982.422
  21114985.043          54.250          52.000
 110718043.43548  86273805.75247  21068931.461                    21068931.040
  21068931.557          51.750          43.500
 125561399.03847  97840060.74746  23893538.479    23893543.188    23893539.060
  23893542.805          44.500          41.000
 126246713.95546  98374069.93346  24023947.281    24023949.049    24023947.365
  24023949.877          37.250          39.000
 115533980.04947  90026480.72946  21985380.327                    21985380.002
  21985379.936          46.750          37.000
 16 10  7  1  0 30.0000000  0 10G32G24G01G22G18G10G14G08G31G11
 106523855.12249  83005621.69549  20270801.133    20270803.818    20270801.195
  20270803.298          56.000          55.000
 126154564.09747  98302266.03447  24006404.847    24006408.502    24006404.740
  24006409.367          42.500          43.000
 118677600.66647  92476046.28247  22583589.048    22583592.228    22583589.022
  22583592.918          46.250          46.000
 127307379.65246  99200553.96144  24225784.022                    24225783.912
  24225783.647          40.750          28.000
 122878445.82947  95749449.77144  23382982.597                    23382981.428
  23382981.871          43.750          27.250
 111016800.63449  86506605.70548  21125780.913    21125783.146    21125780.854
  21125783.571          54.500          52.000
 110665309.52648  86232714.41847  21058896.481                    21058896.083
  21058896.533          51.250          43.250
 125640490.95047  97901690.75947  23908588.738    23908594.683    23908589.013
  23908593.291          43.750          42.000
 126131106.34446  98283986.21146  24001948.519    24001950.217    24001947.568
  24001950.807          37.750          39.000
 115505949.00347  90004638.36946  21980046.257                    21980045.646
  21980046.089          46.250          37.250
 16 10  7  1  1  0.0000000  0 10G32G24G01G22G18G10G14G08G31G11
 106527346.15049  83008341.98949  20271465.469    20271468.213    20271465.557
  20271467.818          56.750          55.000
 126236857.93747  98366391.16347  24022065.065    24022069.117    24022064.851
  24022069.242          42.000          43.000
 118597682.82847  92413772.66147  22568380.715    22568384.847    22568380.558
  22568384.456          46.500          46.000
 127213677.77146  99127539.57344  24207953.869                    24207951.865
  24207952.941          41.750          28.500
 122961828.99847  95814423.66344  23398849.391                    23398849.236
  23398850.036          43.250          26.750
 111073875.06549  86551079.29448  21136641.820    21136644.196    21136641.752
  21136644.278          54.750          52.000
 110612981.61448  86191939.44647  21048939.023                    21048938.250
  21048938.793          52.000          43.500
 125719883.14847  97963554.80847  23923697.016    23923702.235    23923696.349
  23923701.869          43.250          42.000
 126015587.91746  98193971.97746  23979965.492    23979967.064    23979964.993
  23979966.806          37.750          38.000
 115478550.74647  89983289.09746  21974832.651                    21974832.270
  21974832.056          47.000          37.250
 16 10  7  1  1 30.0000000  0 10G32G24G01G22G18G10G14G08G31G11
 106531320.14049  83011438.61549  20272221.363    20272224.267    20272221.626
  20272224.002          55.750          55.000
 126319544.75846  98430822.49847  24037799.009    24037803.703    24037799.893
  24037803.106          41.750          43.000
 118518153.84847  92351802.03047  22553247.286    22553250.389    22553246.684
  22553250.211          47.000          46.000
 127120032.78847  99054569.52744  24190133.640                    24190131.897
  24190132.848          42.000          29.000
 123045375.64147  95879524.88344  23414747.248                    23414746.122
  23414748.385          43.750          26.750
 111131277.73549  86595808.64848  21147565.078    21147567.506    21147564.936
  21147567.579          54.250          52.000
 110561060.05548  86151481.10347  21039058.263                    21039057.834
  21039058.373          51.500          43.250
 125799573.36647  98025651.04247  23938862.014    23938866.902    23938860.999
  23938866.338          43.500          42.000
 125900162.16146  98104029.91946  23958001.566    23958002.347    23958000.370
  23958002.536          38.750          39.000
 115451786.62647  89962433.95546  21969739.318                    21969738.723
  21969739.007          47.500          37.250
 16 10  7  1  2  0.0000000  0 10G32G24G01G22G18G10G14G08G31G11
 106535776.35749  83014910.99649  20273069.441    20273072.244    20273069.653
  20273071.957          56.250          55.000
 126402621.96246  98495557.99147  24053608.439    24053612.525    24053607.904
  24053612.509          41.500          42.000
 118439016.21847  92290136.36347  22538187.830    22538191.013    22538187.763
  22538191.071          46.750          47.000
 127026445.74646  98981644.65844  24172324.639                    24172323.666
  24172323.929          41.500          28.750
 123129084.88147  95944752.86244  23430677.563                    23430677.461
  23430677.590          44.250          27.250
 111189008.20549  86640793.43648  21158550.746    21158553.249    21158550.705
  21158553.350          54.250          52.000
 110509545.33748  86111339.78147  21029255.756                    21029254.908
  21029255.579          51.500          43.500
 125879558.23747  98087976.88847  23954082.331    23954087.444    23954081.437
  23954086.690          42.750          43.000
 125784831.56746  98014162.02746  23936054.732    23936056.170    23936053.476
  23936056.316          40.500          39.000
 115425657.51447  89942073.61846  21964767.170                    21964767.047
  21964766.909          47.000          37.250
 16 10  7  1  2 30.0000000  0 10G32G24G01G22G18G10G14G08G31G11
 106540714.04749  83018758.55649  20274008.974    20274011.801    20274009.210
  20274011.568          55.750          55.000
 126486087.00546  98560595.70647  24069491.314    24069495.402    24069491.455
  24069494.604          41.500          42.000
 118360272.47747  92228777.62247  22523203.576    22523207.286    22523203.433
  22523207.452          47.250          47.000
 126932917.57746  98908765.68144  24154525.877                    24154525.218
  24154524.919          40.750          28.000
 123212956.16747  96010107.09644  23446637.586                    23446636.882
  23446638.611          44.000          27.500
 111247065.42949  86686032.84148  21169598.678    21169601.277    21169598.624
  21169601.298          54.250          52.000
 110458438.12648  86071515.99747  21019530.370                    21019529.855
  21019530.084          51.000          43.500
 125959834.97647  98150530.12347  23969358.133    23969362.919    23969358.727
  23969363.445          42.750          42.000
 125669599.09546  97924370.56646  23914126.456    23914128.286    23914126.602
  23914127.898          39.750          40.000
 115400164.18947  89922208.70946  21959916.190                    21959915.771
  21959915.626          47.250          37.500
 16 10  7  1  3  0.0000000  0 10G32G24G01G22G18G10G14G08G31G11
 106546132.43549  83022980.68049  20275040.049    20275042.891    20275040.377
  20275042.660          56.750          55.000
 126569937.62646  98625933.89746  24085446.463    24085450.745    24085447.090
  24085451.550          41.000          41.000
 118281925.00947  92167727.67247  22508293.944    22508297.849    22508294.331
  22508298.331          46.750          47.000
 126839449.27946  98835933.35444  24136739.845                    24136738.406
  24136739.635          40.500          26.750
 123296988.98947  96075587.17744  23462628.164                    23462627.499
  23462628.756          44.000          26.500
 111305448.97849  86731526.51748  21180708.646    21180711.553    21180708.573
  21180711.376          54.250          52.000
 110407739.02348  86032010.22747  21009882.139                    21009881.951
  21009882.306          51.250          43.500
 126040400.17547  98213308.15947  23984689.522    23984694.273    23984689.044
  23984693.162          42.000          43.000
 125554467.63046  97834657.82546  23892217.020    23892219.219    23892217.415
  23892218.683          40.000          40.000
 115375307.57747  89902839.93146  21955185.688                    21955185.306
  21955185.646          47.500          37.000
 16 10  7  1  3 30.0000000  0 10G32G24G01G22G18G10G14G08G31G11
 106552030.73249  83027576.76549  20276162.428    20276165.303    20276162.700
  20276164.978          56.000          55.000
 126654170.69846  98691570.11446  24101476.736    24101479.697    24101476.599
  24101479.428          41.500          40.000
 118203976.37247  92106988.49547  22493461.223    22493464.971    22493460.916
  22493465.265          47.000          47.000
 126746041.88146  98763148.47444  24118964.684                    24118963.135
  24118963.704          40.750          27.750
 123381182.36847  96141192.37144  23478650.483                    23478649.726
  23478651.174          44.250          27.000
 111364158.22048  86777273.98148  21191880.267    21191882.937    21191880.548
  21191883.291          53.500          52.000
 110357448.66648  85992822.95647  21000312.141                    21000311.748
  21000312.416          50.750          43.750
 126121251.07147  98276308.81347  24000075.724    24000081.288    24000074.370
  24000080.035          42.750          43.000
 125439440.20246  97745026.14746  23870327.806    23870329.932    23870328.512
  23870330.122          39.750          41.000
 115351088.52047  89883967.94746  21950576.970                    21950576.711
  21950577.067          47.000          37.000
 16 10  7  1  4  0.0000000  0 10G32G24G01G22G18G10G14G08G31G11
 106558408.17349  83032546.20649  20277376.159    20277378.819    20277376.408
  20277378.533          55.750          55.000
 126738784.33946  98757502.87146  24117579.285    24117581.743    24117578.347
  24117581.002          41.500          41.000
 118126429.02447  92046562.02247  22478704.380    22478708.091    22478704.542
  22478708.398          46.750          47.000
 126652696.22546  98690411.71044  24101201.439                    24101201.089
  24101201.287          41.000          27.000
 123465536.04447  96206922.49544  23494702.124                    23494702.199
  23494702.288          45.000          26.750
 111423192.54249  86823274.74848  21203114.701    21203117.031    21203114.491
  21203117.165          54.000          52.000
 110307567.43248  85953954.47747  20990820.346                    20990819.691
  20990820.368          50.250          43.750
 126202384.36347  98339529.52347  24015513.552    24015519.612    24015514.943
  24015518.399          43.000          44.000
 125324519.69846  97655477.80646  23848459.982    23848460.237    23848458.907
  23848461.653          41.000          41.000
 115327508.05047  89865593.55646  21946090.266                    21946089.734
  21946089.786          46.750          37.750
 16 10  7  1  4 30.0000000  0 10G32G24G01G22G18G10G14G08G31G11
 106565263.91649  83037888.35249  20278680.710    20278683.454    20278680.975
  20278683.244          56.000          55.000
 126823775.17146  98823729.54146  24133751.460    24133754.933    24133751.466
  24133754.895          40.250          41.000
 118049285.40047  91986450.13547  22464024.372    22464027.718    22464024.423
  22464028.002          47.500          47.000
 126559413.60346  98617724.07044  24083450.065                    24083448.793
  24083449.445          41.500          27.250
 123550049.18647  96272776.89044  23510784.427                    23510783.567
  23510783.461          44.500          27.000
 111482551.24748  86869528.29248  21214410.187    21214412.405    21214410.160
  21214412.771          53.500          52.000
 110258096.06848  85915405.38447  20981406.432                    20981405.647
  20981406.314          50.500          44.000
 126283797.34547  98402968.16647  24031006.559    24031012.005    24031006.823
  24031010.853          42.750          43.000
 125209709.25246  97566015.22346  23826611.875    23826613.539    23826611.755
  23826613.643          41.250          41.000
 115304566.63747  89847717.13346  21941724.242                    21941724.138
  21941724.114          46.250          37.250
 16 10  7  1  5  0.0000000  0 10G32G24G01G22G18G10G14G08G31G11
 106572597.18949  83043602.59749  20280076.403    20280079.064    20280076.480
  20280078.606          56.250          55.000
 126909140.92746  98890248.34346  24149995.375    24149998.551    24149994.003
  24149999.090          39.000          41.000
 117972547.97648  91926654.75247  22449421.639    22449425.313    22449421.626
  22449425.610          48.250          47.000
 126466194.89546  98545086.22844  24065710.622                    24065710.179
  24065709.358          41.500          27.000
 123634721.11147  96338754.98944  23526896.342                    23526896.074
  23526898.003          44.250          25.750
 111542233.72149  86916034.11148  21225767.301    21225769.795    21225767.405
  21225769.983          54.000          52.000
 110209034.89048  85877175.90947  20972070.259                    20972069.858
  20972070.288          50.500          44.000
 126365486.95047  98466622.32747  24046551.854    24046556.831    24046551.762
  24046556.612          43.750          44.000
 125095011.68447  97476640.59247  23804785.575    23804787.782    23804785.955
  23804787.887          42.500          42.000
 115282265.19447  89830339.39546  21937480.181                    21937479.852
  21937480.375          46.250          37.250
 16 10  7  1  5 30.0000000  0 10G32G24G01G22G18G10G14G08G31G11
 106580407.14049  83049688.27449  20281562.228    20281565.136    20281562.698
  20281564.764          55.750          55.000
 126994879.19146  98957057.43146  24166310.149    24166314.185    24166310.544
  24166315.319          39.750          40.000
 117896219.25347  91867177.86647  22434896.633    22434900.573    22434896.557
  22434901.105          47.500          47.000
 126373041.01947  98472498.89844  24047984.665                    24047983.806
  24047983.205          42.500          27.250
 123719550.97447  96404856.17244  23543040.286                    23543039.233
  23543039.840          45.000          25.750
 111602239.30749  86962791.71148  21237186.360    21237188.494    21237186.063
  21237188.544          54.250          52.000
 110160384.50648  85839266.53547  20962812.434                    20962812.132
  20962812.313          51.000          44.000
 126447449.96147  98530489.58347  24062149.569    24062154.536    24062148.487
  24062153.444          43.750          43.000
 124980429.69647  97387356.01647  23782981.400    23782983.966    23782980.934
  23782983.289          43.250          42.000
 115260604.38847  89813460.85746  21933358.629                    21933358.046
  21933358.473          45.750          37.250
 16 10  7  1  6  0.0000000  0 10G32G24G01G22G18G10G14G08G31G11
 106588692.94749  83056144.75349  20283139.133    20283141.962    20283139.499
  20283141.576          56.500          55.000
 127080986.79746  99024154.34446  24182696.539    24182700.389    24182696.591
  24182701.539          39.250          40.000
 117820301.61447  91808021.32047  22420450.259    22420453.677    22420449.905
  22420453.650          47.750          47.000
 126279952.91447  98399962.81544  24030270.763                    24030269.627
  24030268.405          43.250          27.500
 123804538.25647  96471080.01244  23559211.758                    23559211.875
  23559211.530          44.500          26.500
 111662567.34749  87009800.57048  21248666.058    21248668.508    21248666.325
  21248668.661          54.250          52.000
 110112145.56048  85801677.76147  20953633.040                    20953632.327
  20953632.879          51.000          44.000
 126529683.71347  98594567.79147  24077797.718    24077803.171    24077796.743
  24077802.938          44.000          44.000
 124865966.53747  97298164.01347  23761199.343    23761201.788    23761199.697
  23761200.602          42.250          42.000
 115239585.11747  89797082.20746  21929358.323                    21929358.064
  21929358.496          46.250          37.250
 16 10  7  1  6 30.0000000  0 10G32G24G01G22G18G10G14G08G31G11
 106597453.78649  83062971.38449  20284806.268    20284808.943    20284806.453
  20284808.710          56.000          55.000
 127167461.44946  99091537.24346  24199151.483    24199155.669    24199152.058
  24199156.161          39.000          41.000
 117744797.55048  91749187.00647  22406081.844    22406085.378    22406082.419
  22406086.157          48.250          47.000
 126186931.69347  98327478.83544  24012569.211                    24012568.582
  24012567.739          43.250          27.500
 123889682.43747  96537426.11044  23575415.036                    23575414.096
  23575414.650          44.250          26.250
 111723217.19849  87057060.19148  21260207.456    21260209.922    21260207.383
  21260209.980          54.250          52.000
 110064318.47348  85764409.91847  20944531.522                    20944531.117
  20944531.407          50.000          43.750
 126612185.09447  98658854.52747  24093496.742    24093501.428    24093495.778
  24093501.333          43.750          42.000
 124751624.92446  97209066.73647  23739440.097    23739443.721    23739441.379
  23739443.276          41.750          42.000
 115219208.01147  89781203.96446  21925481.080                    21925480.929
  21925480.519          46.500          38.000
 16 10  7  1  7  0.0000000  0 10G32G24G01G22G18G10G14G08G31G11
 106606688.76249  83070167.47949  20286563.602    20286566.321    20286563.838
  20286566.008          56.250          55.000
 127254300.57846  99159204.14546  24215676.761    24215680.688    24215676.540
  24215680.561          39.000          40.000
 117669709.49748  91690676.86547  22391793.377    22391796.787    22391793.730
  22391797.516          48.250          47.000
 126093978.46647  98255047.84544  23994880.168                    23994879.368
  23994879.238          42.750          27.250
 123974982.48847  96603893.68744  23591645.841                    23591645.452
  23591646.778          43.250          25.000
 111784188.17649  87104570.04448  21271810.075    21271811.925    21271809.708
  21271812.448          54.000          52.000
 110016903.87848  85727463.49647  20935509.191                    20935508.565
  20935508.936          50.750          44.000
 126694950.42247  98723346.95547  24109247.371    24109252.031    24109246.524
  24109251.448          43.750          43.000
 124637408.01846  97120066.65846  23717706.015    23717708.155    23717705.201
  23717708.320          41.500          41.000
 115199473.71047  89765826.58346  21921725.607                    21921725.408
  21921725.866          46.500          37.500
 16 10  7  1  7 30.0000000  0 10G32G24G01G22G18G10G14G08G31G11
 106616397.02349  83077732.35949  20288411.018    20288413.779    20288411.221
  20288413.512          56.250          55.000
 127341501.04146  99227152.59846  24232271.515    24232274.323    24232270.606
  24232274.281          39.750          41.000
 117595039.88448  91632492.78247  22377584.527    22377587.758    22377584.853
  22377587.468          48.000          47.000
 126001094.11647  98182670.51444  23977204.679                    23977204.246
  23977203.821          43.000          26.750
 124060438.00847  96670482.39044  23607908.680                    23607907.486
  23607908.993          44.000          26.750
 111845479.62148  87152329.60248  21283473.150    21283475.467    21283473.168
  21283475.907          53.750          52.000
 109969902.00948  85690838.67347  20926564.782                    20926564.097
  20926564.726          50.500          44.000
 126777977.06647  98788042.98547  24125045.027    24125051.932    24125045.703
  24125051.725          42.500          43.000
 124523319.23246  97031166.39446  23695995.983    23695998.411    23695995.606
  23695998.057          41.750          41.000
 115180382.90547  89750950.64446  21918092.706                    21918092.321
  21918092.779          45.750          37.750
 16 10  7  1  8  0.0000000  0 10G32G24G01G22G18G10G14G08G31G11
 106626577.69249  83085665.35149  20290348.387    20290351.140    20290348.532
  20290350.786          56.500          55.000
 127429060.63946  99295380.94446  24248932.535    24248937.216    24248932.744
  24248937.409          39.750          41.000
 117520791.09847  91574636.61947  22363454.592    22363458.642    22363454.720
  22363458.974          47.000          47.000
 125908279.69847  98110347.65544  23959542.976                    23959541.940
  23959542.000          43.250          26.750
 124146048.10447  96737191.54444  23624199.370                    23624199.127
  23624199.585          44.000          27.000
 111907090.86748  87200338.36848  21295197.263    21295199.928    21295197.229
  21295200.077          53.750          52.000
 109923313.52548  85654535.97947  20917699.271                    20917698.677
  20917699.125          49.750          44.000
 126861262.11047  98852940.40647  24140894.904    24140899.790    24140894.732
  24140898.910          43.250          42.000
 124409360.55947  96942367.51546  23674309.694    23674312.091    23674310.734
  23674311.597          42.750          41.000
 115161936.22347  89736576.64046  21914582.764                    21914582.441
  21914582.929          47.000          37.750
 16 10  7  1  8 30.0000000  0 10G32G24G01G22G18G10G14G08G31G11
 106637229.87249  83093965.75849  20292375.453    20292378.225    20292375.630
  20292377.822          56.750          55.000
 127516976.92146  99363887.21046  24265662.790    24265666.070    24265662.513
  24265666.611          39.750          41.000
 117446965.59247  91517110.28848  22349406.251    22349409.935    22349406.305
  22349410.011          47.750          48.000
 125815536.36747  98038080.19744  23941894.954                    23941893.318
  23941892.998          43.500          27.750
 124231812.12647  96804020.64544  23640519.927                    23640518.982
  23640521.357          43.750          26.750
 111969021.19848  87248595.76848  21306981.970    21306984.864    21306982.084
  21306984.923          53.500          52.000
 109877138.68048  85618555.59747  20908912.135                    20908911.858
  20908912.361          49.750          44.250
 126944802.53447  98918036.82346  24156792.093    24156796.678    24156792.368
  24156795.827          43.500          41.000
 124295535.52847  96853672.74946  23652649.784    23652652.279    23652649.791
  23652651.733          44.250          41.000
 115144134.28347  89722704.99946  21911194.896                    21911194.587
  21911194.934          46.750          37.750
 16 10  7  1  9  0.0000000  0 10G32G24G01G22G18G10G14G08G31G11
 106648352.67349  83102632.88749  20294492.051    20294494.786    20294492.168
  20294494.473          56.750          55.000
 127605247.08246  99432669.22646  24282460.856    24282463.542    24282459.706
  24282464.278          40.750          41.000
 117373565.81347  91459915.69348  22335438.749    22335442.310    22335439.083
  22335442.967          47.250          48.000
 125722865.01147  97965868.81644  23924259.632                    23924259.031
  23924258.015          43.750          28.250
 124317729.70747  96870969.40344  23656869.664                    23656867.854
  23656870.226          42.750          27.250
 112031270.00148  87297101.32648  21318827.908    21318830.334    21318827.674
  21318830.648          53.750          52.000
 109831377.98348  85582897.91947  20900204.300                    20900203.826
  20900204.314          50.000          44.250
 127028594.96747  98983329.58346  24172736.322    24172742.573    24172735.509
  24172742.649          42.250          41.000
 124181847.02647  96765084.36847  23631015.118    23631018.865    23631016.152
  23631017.399          44.250          42.000
 115126977.64847  89709336.21846  21907930.235                    21907930.001
  21907929.847          47.250          37.750
 16 10  7  1  9 30.0000000  0 10G32G24G01G22G18G10G14G08G31G11
 106659945.16749  83111666.00749  20296698.050    20296700.607    20296698.195
  20296700.408          56.750          55.000
 127693868.15546  99501724.69947  24299323.338    24299328.576    24299323.672
  24299328.333          40.500          42.000
 117300594.13647  91403054.69048  22321553.035    22321556.124    22321553.054
  22321556.382          47.500          48.000
 125630266.80747  97893714.45144  23906638.525                    23906637.936
  23906637.346          44.000          29.250
 124403799.91347  96938037.05244  23673248.327                    23673246.918
  23673247.511          43.000          26.000
 112093836.56648  87345854.49748  21330734.016    21330736.558    21330733.728
  21330736.586          53.750          51.000
 109786032.03848  85547563.44347  20891575.457                    20891574.867
  20891575.347          50.250          44.250
 127112636.71547  99048816.62646  24188729.380    24188734.499    24188730.283
  24188734.599          42.750          41.000
 124068297.92947  96676604.61746  23609407.960    23609409.390    23609407.748
  23609409.246          44.000          41.000
 115110466.78747  89696470.63446  21904788.635                    21904787.901
  21904787.892          47.750          38.000
 16 10  7  1 10  0.0000000  0 10G32G24G01G22G18G10G14G08G31G11
 106672006.43349  83121064.40549  20298993.064    20298995.924    20298993.315
  20298995.450          56.750          55.000
 127782837.68946  99571051.70146  24316254.580    24316258.311    24316254.656
  24316257.618          41.000          41.000
 117228052.95047  91346529.13048  22307748.262    22307752.085    22307748.836
  22307752.430          47.500          48.000
 125537742.78747  97821617.87144  23889032.328                    23889030.841
  23889030.645          44.250          29.750
 124490022.10447  97005223.18244  23689654.766                    23689654.438
  23689656.432          42.000          25.750
 112156720.20948  87394854.73848  21342700.116    21342702.698    21342700.056
  21342702.776          53.500          52.000
 109741101.16848  85512552.39047  20883025.272                    20883024.779
  20883025.334          49.750          44.250
 127196924.35547  99114495.25346  24204770.087    24204774.367    24204769.789
  24204773.973          42.250          40.000
 123954891.29847  96588235.88646  23587827.064    23587829.276    23587827.916
  23587829.617          43.500          41.000
 115094601.93947  89684108.44446  21901768.820                    21901768.684
  21901769.077          47.000          38.000
 16 10  7  1 10 30.0000000  0 10G32G24G01G22G18G10G14G08G31G11
 106684535.53949  83130827.35149  20301377.501    20301379.973    20301377.579
  20301379.670          57.000          55.000
 127872152.89446  99640648.04846  24333249.594    24333253.781    24333250.315
  24333252.925          39.500          41.000
 117155944.66347  91290340.88848  22294026.397    22294029.799    22294026.122
  22294030.600          46.500          48.000
 125445293.84947  97749579.80245  23871439.731                    23871438.712
  23871438.566          44.500          30.250
 124576395.60647  97072527.16344  23706090.988                    23706090.991
  23706091.888          42.000          25.500
 112219920.22948  87444101.50848  21354726.509    21354729.141    21354726.627
  21354729.600          53.250          52.000
 109696585.69048  85477865.02347  20874554.380                    20874553.675
  20874554.182          50.000          44.250
 127281454.84546  99180363.11546  24220855.030    24220860.254    24220854.887
  24220859.562          41.750          41.000
 123841630.07847  96499980.46046  23566274.630    23566276.301    23566274.445
  23566275.542          43.750          41.000
 115079383.96947  89672250.31046  21898873.562                    21898873.280
  21898873.147          47.250          37.750
 16 10  7  1 11  0.0000000  0 10G32G24G01G22G18G10G14G08G31G11
 106697531.58049  83140954.14349  20303850.382    20303853.260    20303850.670
  20303852.752          56.500          55.000
 127961811.04346  99710511.60146  24350312.037    24350315.818    24350311.851
  24350315.850          41.250          40.000
 117084271.70047  91234491.86648  22280387.703    22280391.228    22280387.930
  22280391.791          46.750          48.000
 125352921.13347  97677601.09845  23853861.450                    23853860.651
  23853860.227          44.000          30.500
 124662919.59147  97139948.43744  23722556.587                    23722556.425
  23722556.576          42.250          26.250
 112283435.96048  87493594.28148  21366813.215    21366816.115    21366813.153
  21366816.345          53.500          52.000
 109652486.18248  85443501.79147  20866162.222                    20866161.831
  20866162.379          49.750          44.250
 127366225.54746  99246418.16946  24236986.319    24236991.861    24236985.505
  24236992.057          40.250          41.000
 123728517.10947  96411840.54846  23544749.515    23544751.712    23544750.290
  23544751.482          44.750          41.000
 115064813.29148  89660896.55446  21896100.649                    21896100.462
  21896100.358          48.000          37.750
 16 10  7  1 11 30.0000000  0 10G32G24G01G22G18G10G14G08G31G11
 106710993.56749  83151444.01549  20306412.265    20306414.904    20306412.407
  20306414.499          57.000          55.000
 128051809.87446  99780640.67346  24367438.181    24367441.261    24367437.117
  24367441.108          40.750          41.000
 117013036.41247  91178983.88147  22266832.384    22266835.279    22266832.680
  22266835.775          47.750          47.000
 125260625.80347  97605682.74745  23836298.476                    23836297.458
  23836297.619          44.000          30.250
 124749593.23347  97207486.31344  23739050.373                    23739048.440
  23739050.190          42.500          26.000
 112347266.66148  87543332.48848  21378959.807    21378962.504    21378959.693
  21378962.655          53.250          52.000
 109608803.20848  85409463.12247  20857849.502                    20857849.265
  20857849.628          50.500          44.250
 127451233.07646  99312657.80246  24253162.086    24253167.356    24253162.874
  24253166.894          40.500          40.000
 123615555.58247  96323818.63146  23523254.036    23523256.237    23523253.941
  23523256.103          45.500          41.000
 115050890.34547  89650047.52946  21893451.273                    21893450.940
  21893450.945          47.750          38.000
 16 10  7  1 12  0.0000000  0 10G32G24G01G22G18G10G14G08G31G11
 106724920.55149  83162296.22049  20309062.364    20309064.831    20309062.568
  20309064.707          56.500          55.000
 128142146.20746  99851032.68647  24384627.392    24384632.752    24384627.854
  24384631.726          39.000          42.000
 116942241.18447  91123818.78847  22253360.158    22253363.727    22253359.918
  22253363.750          46.750          47.000
 125168408.99447  97533825.51344  23818750.204                    23818748.738
  23818748.631          43.500          29.500
 124836416.18347  97275140.54544  23755570.887                    23755571.313
  23755572.365          42.500          25.250
 112411411.67848  87593315.62248  21391166.108    21391168.886    21391166.167
  21391169.202          53.250          51.000
 109565536.67648  85375748.95647  20849616.562                    20849615.848
  20849616.401          50.000          44.250
 127536474.34846  99379079.48946  24269383.774    24269388.855    24269383.220
  24269388.204          41.000          41.000
 123502748.55947  96235917.10147  23501787.502    23501790.049    23501787.602
  23501789.084          44.500          42.000
 115037615.27547  89639703.35146  21890925.014                    21890924.534
  21890925.211          47.000          38.000
 16 10  7  1 12 30.0000000  0 10G32G24G01G22G18G10G14G08G31G11
 106739311.55149  83173509.99349  20311800.676    20311803.512    20311800.937
  20311803.108          56.500          55.000
 128232817.70746  99921685.86546  24401881.971    24401885.257    24401882.268
  24401884.856          39.750          41.000
 116871888.34747  91068998.43348  22239972.879    22239976.417    22239972.695
  22239976.324          47.750          48.000
 125076271.72947  97462030.28544  23801217.391                    23801216.000
  23801215.500          43.750          29.500
 124923387.60247  97342910.46244  23772121.808                    23772121.339
  23772122.934          43.500          25.000
 112475870.25348  87643543.08648  21403432.284    21403435.082    21403432.175
  21403435.161          53.500          52.000
 109522687.03848  85342359.64347  20841462.231                    20841461.861
  20841462.351          49.250          44.250
 127621946.53246  99445681.13647  24285648.377    24285654.345    24285647.629
  24285653.150          40.750          42.000
 123390098.74347  96148138.06447  23480350.780    23480353.183    23480350.602
  23480351.593          43.500          42.000
 115024988.89447  89629864.64946  21888522.418                    21888521.850
  21888522.102          47.500          38.250
 16 10  7  1 13  0.0000000  0 10G32G24G01G22G18G10G14G08G31G11
 106754165.60749  83185084.59349  20314627.347    20314630.124    20314627.615
  20314629.804          57.000          55.000
 128323821.80846  99992598.25746  24419200.232    24419203.327    24419199.697
  24419202.848          39.750          40.000
 116801980.33947  91014524.68748  22226669.693    22226673.211    22226669.497
  22226673.350          47.750          48.000
 124984215.11047  97390297.91145  23783699.225                    23783697.767
  23783697.646          44.250          30.000
 125010506.77147  97410795.51844  23788700.747                    23788699.664
  23788700.526          43.000          25.000
 112540641.72148  87694014.36048  21415758.024    21415760.475    21415758.182
  21415760.786          53.500          51.000
 109480254.94448  85309295.68547  20833387.654                    20833387.299
  20833387.864          49.500          44.500
 127707646.17946  99512460.03246  24301956.884    24301960.927    24301955.444
  24301960.591          40.500          41.000
 123277609.08647  96060483.84347  23458944.976    23458946.250    23458944.559
  23458946.384          43.000          43.000
 115013011.28247  89620531.47346  21886243.249                    21886242.550
  21886242.744          47.750          38.000
 16 10  7  1 13 30.0000000  0 10G32G24G01G22G18G10G14G08G31G11
 106769481.70249  83197019.22149  20317541.995    20317544.609    20317542.143
  20317544.318          57.000          55.000
 128415155.32146 100063767.32346  24436579.485    24436582.209    24436579.302
  24436583.060          39.250          40.000
 116732519.41347  90960399.33348  22213451.228    22213454.842    22213451.782
  22213455.028          47.500          48.000
 124892240.03347  97318629.09545  23766196.982                    23766196.072
  23766195.156          44.250          30.250
 125097772.79447  97478795.02144  23805305.705                    23805305.821
  23805306.479          42.500          24.000
 112605725.34348  87744728.87648  21428143.091    21428145.817    21428143.031
  21428145.961          53.750          52.000
 109438240.48448  85276557.15747  20825392.809                    20825392.163
  20825392.645          50.250          44.500
 127793570.38046  99579413.89247  24318308.435    24318312.753    24318307.048
  24318311.511          41.750          42.000
 123165282.66547  95972956.84747  23437569.967    23437571.273    23437569.817
  23437571.105          43.250          42.000
 115001682.86148  89611704.16646  21884087.467                    21884086.759
  21884087.146          48.000          38.250
 16 10  7  1 14  0.0000000  0 10G32G24G01G22G18G10G14G08G31G11
 106785258.83849  83209313.10349  20320544.304    20320547.024    20320544.497
  20320546.645          57.250          55.000
 128506815.46646 100135190.86946  24454022.351    24454024.924    24454022.461
  24454025.320          39.000          41.000
 116663507.97648  90906624.20848  22200319.367    22200322.543    22200318.885
  22200322.524          48.250          48.000
 124800347.91947  97247024.88245  23748710.578                    23748709.635
  23748708.882          45.000          30.500
 125185185.02747  97546908.43944  23821941.458                    23821940.223
  23821940.938          43.250          24.000
 112671120.40348  87795686.06148  21440587.543    21440589.931    21440587.306
  21440590.045          53.500          52.000
 109396643.92748  85244144.26947  20817476.721                    20817476.630
  20817477.143          50.000          44.500
 127879716.14246  99646540.40447  24334700.369    24334705.602    24334700.641
  24334704.780          41.500          42.000
 123053122.57947  95885559.43147  23416226.189    23416226.922    23416226.612
  23416227.236          43.000          42.000
 114991003.77648  89603382.83846  21882055.172                    21882054.492
  21882054.869          49.000          38.250
 16 10  7  1 14 30.0000000  0 10G32G24G01G22G18G10G14G08G31G11
 106801496.02549  83221965.46749  20323633.994    20323636.842    20323634.335
  20323636.625          57.000          55.000
 128598800.28946 100206867.45347  24471526.342    24471530.978    24471526.015
  24471530.290          38.750          42.000
 116594948.35447  90853201.15048  22187272.548    22187276.568    22187272.627
  22187275.901          47.500          48.000
 124708539.49747  97175485.88345  23731239.813                    23731238.732
  23731237.969          44.500          31.000
 125272743.05746  97615135.46743  23838602.659                    23838602.106
  23838603.345          41.750          22.750
 112736826.20248  87846885.38448  21453090.666    21453093.349    21453090.682
  21453093.246          53.750          51.000
 109355465.75348  85212057.39847  20809641.381                    20809640.835
  20809641.141          50.750          44.500
 127966080.09046  99713836.95347  24351135.325    24351140.028    24351135.209
  24351139.331          41.000          43.000
 122941131.55447  95798293.75946  23394915.710    23394916.176    23394915.363
  23394915.651          43.250          41.000
 114980974.56848  89595567.89946  21880146.657                    21880146.258
  21880145.859          48.500          38.000
 16 10  7  1 15  0.0000000  0 10G32G24G01G22G18G10G14G08G31G11
 106818192.22249  83234975.50249  20326811.387    20326814.061    20326811.480
  20326813.727          56.500          55.000
 128691106.80946 100278794.75346  24489090.157    24489094.343    24489092.098
  24489095.116          39.250          41.000
 116526842.86047  90800131.97248  22174312.800    22174315.759    22174312.382
  22174316.199          47.250          48.000
 124616816.14747  97104013.20245  23713785.597                    23713784.249
  23713783.945          44.750          30.500
 125360446.17946  97683475.55043  23855291.118                    23855291.034
  23855291.094          40.500          21.500
 112802842.00149  87898326.26948  21465653.217    21465655.789    21465652.969
  21465655.910          54.000          51.000
 109314706.42848  85180296.89647  20801885.021                    20801884.356
  20801884.798          49.250          44.250
 128052659.52546  99781301.39147  24367610.957    24367615.977    24367610.983
  24367614.909          41.250          42.000
 122829312.75647  95711162.30447  23373637.030    23373637.534    23373637.173
  23373637.153          42.750          42.000
 114971595.28748  89588259.39446  21878361.811                    21878361.148
  21878360.668          48.500          37.750
 16 10  7  1 15 30.0000000  0 10G32G24G01G22G18G10G14G08G31G11
 106835346.40549  83248342.41049  20330075.517    20330078.372    20330075.806
  20330077.934          56.750          55.000
 128783732.05646 100350970.33146  24506717.587    24506720.978    24506717.302
  24506720.396          38.500          41.000
 116459193.81848  90747418.46648  22161439.068    22161442.976    22161439.974
  22161443.198          48.000          48.000
 124525178.81047  97032607.53045  23696347.276                    23696346.061
  23696345.430          44.750          30.500
 125448293.29846  97751927.82343  23872008.036                    23872007.869
  23872008.813          41.250          22.500
 112869167.05448  87950008.12948  21478274.393    21478276.789    21478274.409
  21478277.112          53.750          51.000
 109274366.33848  85148863.07447  20794208.679                    20794208.084
  20794208.427          49.750          44.250
 128139451.37446  99848931.33447  24384125.829    24384132.410    24384125.854
  24384131.543          41.500          42.000
 122717669.18347  95624167.40047  23352392.047    23352392.158    23352390.865
  23352391.711          43.000          42.000
 114962866.06148  89581457.43246  21876700.712                    21876699.902
  21876700.184          49.500          38.000
 16 10  7  1 16  0.0000000  0 11G12G32G24G01G22G18G10G14G08G31G11
 130858825.61646 101967917.39645  24901608.553    24901608.541    24901607.145
  24901608.189          36.500          35.000
 106852957.54449  83262065.38449  20333426.920    20333429.748    20333427.052
  20333429.226          57.250          55.000
 128876673.98346 100423392.69546  24524404.188    24524407.274    24524404.442
  24524407.303          39.500          40.000
 116392003.55447  90695062.44448  22148653.742    22148656.772    22148653.399
  22148657.211          47.500          48.000
 124433628.66347  96961269.78545  23678925.814                    23678924.875
  23678923.846          45.000          30.500
 125536283.61946  97820491.68343  23888752.729                    23888752.738
  23888752.679          41.500          23.750
 112935800.65149  88001930.41648  21490954.479    21490956.887    21490954.379
  21490957.154          54.000          51.000
 109234445.19748  85117755.70647  20786611.877                    20786611.240
  20786611.611          49.500          44.250
 128226452.24147  99916724.18047  24400683.158    24400688.199    24400683.169
  24400687.610          42.000          42.000
 122606203.65647  95537311.24447  23331180.285    23331181.210    23331179.735
  23331180.227          43.500          43.000
 114954787.04348  89575162.11746  21875163.515                    21875162.750
  21875162.429          49.250          37.750
 16 10  7  1 16 30.0000000  0 11G12G32G24G01G22G18G10G14G08G31G11
 130791086.65546 101915133.89046  24888718.327    24888717.783    24888716.746
  24888717.934          36.750          37.000
 106871024.58249  83276143.60849  20336864.818    20336867.751    20336865.131
  20336867.349          57.000          55.000
 128969929.11146 100496059.17346  24542147.696    24542152.632    24542148.833
  24542152.861          37.750          40.000
 116325274.32847  90643065.66448  22135955.211    22135959.187    22135955.249
  22135959.059          47.250          48.000
 124342167.12547  96890001.07045  23661521.016                    23661520.129
  23661519.719          45.000          30.000
 125624416.67346  97889166.76043  23905523.523                    23905522.973
  23905524.474          40.750          23.250
 113002742.03748  88054092.54148  21503692.601    21503695.352    21503692.867
  21503695.400          53.750          51.000
 109194943.73948  85086975.36347  20779094.592                    20779094.417
  20779094.720          49.000          44.500
 128313659.13146  99984677.53847  24417277.697    24417283.389    24417277.260
  24417282.393          40.750          42.000
 122494919.46447  95450596.39747  23310003.223    23310003.896    23310003.477
  23310004.100          43.000          42.000
 114947358.60148  89569373.74346  21873749.628                    21873749.340
  21873748.794          49.000          38.000
 16 10  7  1 17  0.0000000  0 11G12G32G24G01G22G18G10G14G08G31G11
 130723731.26246 101862649.20846  24875899.352    24875900.992    24875900.331
  24875901.226          36.500          38.000
 106889546.45249  83290576.24449  20340389.527    20340392.269    20340389.638
  20340391.883          57.250          55.000
 129063494.87846 100568967.64446  24559954.371    24559957.311    24559953.379
  24559957.853          38.250          40.000
 116259008.46948  90591429.95348  22123345.439    22123348.944    22123345.346
  22123349.077          48.000          48.000
 124250794.88747  96818801.96844  23644133.913                    23644133.266
  23644131.393          45.000          29.750
 125712691.84846  97957952.58143  23922320.516                    23922320.879
  23922323.662          38.750          23.000
 113069990.49248  88106493.92948  21516489.911    21516491.978    21516489.801
  21516492.454          53.750          51.000
 109155862.39648  85056522.38347  20771658.059                    20771657.156
  20771657.828          50.000          44.500
 128401068.97946 100052789.06446  24433911.017    24433915.562    24433910.942
  24433916.451          40.000          41.000
 122383819.40947  95364025.04347  23288861.679    23288863.093    23288861.860
  23288862.122          44.000          42.000
 114940580.69348  89564092.27646  21872459.837                    21872459.281
  21872458.993          49.000          38.000
 16 10  7  1 17 30.0000000  0 11G12G32G24G01G22G18G10G14G08G31G11
 130656762.50245 101810465.77546  24863157.234    24863158.086    24863155.499
  24863156.185          35.500          37.000
 106908522.10249  83305362.47049  20344000.434    20344003.186    20344000.654
  20344002.864          56.750          55.000
 129157368.98146 100642116.43646  24577817.300    24577820.666    24577817.620
  24577820.712          39.500          40.000
 116193208.24347  90540157.08648  22110823.690    22110827.399    22110824.090
  22110827.225          47.250          48.000
 124159513.14047  96747673.36645  23626763.482                    23626761.572
  23626762.563          44.500          30.000
 125801108.40446  98026848.57643  23939145.875                    23939146.899
  23939146.285          39.250          22.250
 113137545.25848  88159134.01448  21529344.998    21529347.490    21529344.997
  21529347.624          53.500          51.000
 109117201.26648  85026396.84447  20764300.717                    20764300.350
  20764300.700          49.250          44.500
 128488678.71446 100121056.32646  24450583.193    24450587.919    24450582.336
  24450586.568          40.500          41.000
 122272906.23347  95277599.29647  23267756.170    23267756.875    23267755.279
  23267756.028          44.500          42.000
 114934453.44748  89559317.82846  21871293.583                    21871293.379
  21871293.600          48.500          38.000
 16 10  7  1 18  0.0000000  0 11G12G32G24G01G22G18G10G14G08G31G11
 130590183.10546 101758585.78546  24850486.790    24850486.824    24850487.001
  24850487.317          38.000          36.000
 106927950.45049  83320501.45249  20347697.462    20347700.041    20347697.849
  20347699.884          56.750          55.000
 129251548.52146 100715503.15246  24595738.486    24595743.181    24595738.702
  24595742.775          37.250          41.000
 116127875.92748  90489248.81048  22098391.998    22098395.347    22098391.879
  22098395.385          48.000          49.000
 124068323.29447  96676616.38345  23609410.249                    23609409.885
  23609408.406          44.500          30.250
 125889665.02046  98095853.69744  23955999.000                    23955998.475
  23955999.632          39.750          24.000
 113205405.58948  88212012.18948  21542258.647    21542260.645    21542258.402
  21542261.014          53.750          51.000
 109078960.57248  84996598.91547  20757023.838                    20757023.402
  20757023.600          49.500          44.500
 128576485.40346 100189477.06446  24467292.436    24467297.265    24467291.941
  24467295.912          39.500          41.000
 122162183.14647  95191321.67147  23246686.243    23246685.658    23246685.392
  23246685.716          44.250          42.000
 114928977.12048  89555050.59046  21870251.122                    21870251.448
  21870251.299          48.750          38.000
 16 10  7  1 18 30.0000000  0 11G12G32G24G01G22G18G10G14G08G31G11
 130523995.97446 101707011.43446  24837889.449    24837892.345    24837891.440
  24837891.275          36.500          36.000
 106947830.41649  83335992.34049  20351480.650    20351483.117    20351480.781
  20351482.835          56.750          55.000
 129346030.63746 100789125.67946  24613718.161    24613722.699    24613719.060
  24613722.386          38.250          40.000
 116063013.78547  90438706.90348  22086048.926    22086052.019    22086048.557
  22086052.364          47.500          48.000
 123977226.31447  96605631.73945  23592074.859                    23592074.168
  23592073.511          43.750          30.250
 125978361.62546  98164967.90344  23972876.870                    23972876.743
  23972877.596          40.250          24.000
 113273570.72948  88265127.88348  21555229.762    21555232.127    21555229.944
  21555232.204          53.750          51.000
 109041140.59048  84967128.81147  20749827.009                    20749826.439
  20749826.740          49.500          44.750
 128664485.77446 100258048.72947  24484037.594    24484043.799    24484037.685
  24484043.069          38.500          42.000
 122051653.21047  95105194.52847  23225652.558    23225652.815    23225651.561
  23225652.962          44.750          42.000
 114924151.53948  89551290.41146  21869333.288                    21869333.096
  21869333.009          49.500          38.250
 16 10  7  1 19  0.0000000  0 11G12G32G24G01G22G18G10G14G08G31G11
 130458204.62746 101655745.50146  24825370.344    24825372.199    24825371.653
  24825373.007          36.500          36.000
 106968160.91349  83351834.29049  20355349.285    20355352.067    20355349.518
  20355351.670          56.750          55.000
 129440812.83346 100862982.14846  24631754.726    24631758.632    24631754.895
  24631758.734          38.500          40.000
 115998624.09047  90388533.13548  22073796.034    22073799.257    22073795.457
  22073799.093          47.500          48.000
 123886223.39047  96534720.41645  23574757.806                    23574756.942
  23574756.810          43.750          30.750
 126067197.30946  98234190.48544  23989783.222                    23989781.766
  23989783.523          41.250          25.000
 113342039.94648  88318480.51948  21568259.171    21568261.787    21568259.095
  21568261.881          53.500          51.000
 109003741.50048  84937986.67547  20742710.213                    20742709.832
  20742709.825          49.500          44.750
 128752677.03646 100326769.13146  24500820.297    24500826.159    24500818.742
  24500826.384          39.000          41.000
 121941319.37947  95019220.21647  23204655.996    23204657.162    23204655.803
  23204656.894          44.000          42.000
 114919976.68248  89548037.29346  21868538.576                    21868538.357
  21868538.364          49.500          38.000
 16 10  7  1 19 30.0000000  0 11G12G32G24G01G22G18G10G14G08G31G11
 130392811.33346 101604789.74945  24812926.821    24812926.695    24812926.993
  24812927.049          37.500          34.000
 106988940.83749  83368026.44549  20359303.585    20359306.195    20359303.779
  20359305.900          56.500          55.000
 129535892.19046 100937070.09146  24649847.580    24649850.331    24649848.069
  24649850.687          39.250          40.000
 115934709.01547  90338729.21948  22061633.061    22061636.456    22061633.301
  22061636.196          47.500          48.000
 123795315.63447  96463883.23845  23557458.519                    23557457.760
  23557457.221          43.500          30.500
 126156171.46446  98303520.96744  24006712.619                    24006712.386
  24006714.399          41.000          25.000
 113410812.46448  88372069.48548  21581346.216    21581349.022    21581346.074
  21581348.836          53.500          51.000
 108966763.39648  84909172.58547  20735673.686                    20735673.086
  20735673.445          49.250          44.500
 128841055.45946 100395635.37846  24517638.006    24517643.158    24517636.999
  24517642.739          38.000          41.000
 121831184.56547  94933400.99147  23183697.728    23183698.644    23183698.056
  23183698.591          44.250          42.000
 114916452.69448  89545291.34046  21867868.141                    21867867.886
  21867867.824          49.500          38.250
 16 10  7  1 20  0.0000000  0 11G12G32G24G01G22G18G10G14G08G31G11
 130327819.23646 101554146.56246  24800559.614    24800560.552    24800559.475
  24800561.088          38.500          37.000
 107010169.08249  83384567.94449  20363343.115    20363345.970    20363343.440
  20363345.554          57.000          55.000
 129631266.53346 101011387.94246  24667997.460    24667999.927    24667997.259
  24668000.373          39.750          40.000
 115871270.85247  90289296.90648  22049561.195    22049564.609    22049561.329
  22049564.742          47.500          48.000
 123704503.98947  96393120.94745  23540177.250                    23540176.642
  23540176.337          43.250          31.250
 126245282.90546  98372958.45444  24023671.004                    24023670.115
  24023670.728          40.250          26.000
 113479887.50948  88425894.19348  21594490.643    21594493.171    21594490.510
  21594493.439          53.250          51.000
 108930206.72748  84880686.88847  20728717.157                    20728716.608
  20728716.622          49.750          44.750
 128929618.33346 100464645.35846  24534490.492    24534496.467    24534490.262
  24534495.644          37.750          41.000
 121721251.60047  94847739.04647  23162778.594    23162780.076    23162778.656
  23162779.286          43.750          42.000
 114913579.80348  89543052.74846  21867321.616                    21867320.845
  21867321.165          49.750          38.750
 16 10  7  1 20 30.0000000  0 11G12G32G24G01G22G18G10G14G08G31G11
 130263231.15746 101503818.24345  24788268.343    24788269.502    24788268.057
  24788269.325          38.000          35.000
 107031844.51149  83401457.89249  20367467.799    20367470.292    20367468.125
  20367470.160          57.000          55.000
 129726932.34546 101085932.83846  24686201.847    24686202.991    24686200.882
  24686204.034          40.000          39.000
 115808311.81347  90240237.92848  22037580.515    22037583.935    22037580.603
  22037583.765          47.750          48.000
 123613789.97847  96322434.75245  23522915.479                    23522914.192
  23522914.007          43.000          31.750
 126334531.23446  98442502.60143  24040653.944                    24040653.545
  24040654.726          40.250          23.750
 113549264.31548  88479954.03948  21607692.249    21607695.424    21607692.579
  21607695.381          53.000          51.000
 108894071.48348  84852529.56947  20721840.719                    20721840.185
  20721840.803          49.750          44.750
 129018362.73246 100533796.75946  24551379.175    24551384.027    24551378.588
  24551382.956          39.000          40.000
 121611523.42247  94762236.67147  23141897.949    23141898.501    23141898.321
  23141898.932          45.000          43.000
 114911357.54848  89541321.12346  21866898.740                    21866898.385
  21866897.966          49.250          38.500
 16 10  7  1 21  0.0000000  0 11G12G32G24G01G22G18G10G14G08G31G11
 130199049.67546 101453806.73246  24776054.311    24776057.582    24776055.682
  24776056.430          37.500          36.000
 107053966.00749  83418695.42949  20371677.472    20371680.271    20371677.639
  20371679.744          57.000          55.000
 129822887.31546 101160703.09346  24704461.200    24704463.939    24704461.535
  24704464.438          39.500          40.000
 115745834.20347  90191554.10948  22025691.088    22025694.790    22025691.039
  22025694.886          47.000          49.000
 123523174.70347  96251825.48145  23505672.205                    23505670.756
  23505670.590          43.750          31.750
 126423915.59146  98512152.73543  24057664.240                    24057662.933
  24057664.128          41.250          23.250
 113618942.13248  88534248.43648  21620951.647    21620954.059    21620951.420
  21620954.599          52.750          50.000
 108858358.04548  84824700.93147  20715044.403                    20715043.934
  20715044.522          49.500          44.500
 129107285.39746 100603087.11646  24568299.368    24568305.916    24568298.923
  24568303.315          37.250          40.000
 121502003.22647  94676896.35547  23121056.941    23121058.008    23121056.837
  23121057.460          44.750          43.000
 114909786.00348  89540096.55246  21866599.759                    21866599.246
  21866599.408          49.000          38.000
 16 10  7  1 21 30.0000000  0 11G12G32G24G01G22G18G10G14G08G31G11
 130135278.26846 101404114.76745  24763921.706    24763922.164    24763920.526
  24763922.450          38.500          35.000
 107076532.45749  83436279.68249  20375971.609    20375974.334    20375972.026
  20375973.987          56.500          55.000
 129919128.74946 101235696.53246  24722774.318    24722777.849    24722774.485
  24722779.119          39.250          39.000
 115683840.01547  90143246.96948  22013894.053    22013897.429    22013894.235
  22013897.659          47.250          49.000
 123432659.22747  96181293.96745  23488448.159                    23488446.612
  23488446.531          44.000          32.500
 126513435.06646  98581908.17243  24074698.629                    24074698.572
  24074698.217          40.500          22.500
 113688920.15248  88588776.76248  21634267.954    21634270.760    21634268.007
  21634270.936          52.500          51.000
 108823066.44248  84797200.99647  20708328.648                    20708328.148
  20708328.501          49.250          44.750
 129196383.26446 100672513.97446  24585255.092    24585260.202    24585253.838
  24585259.160          37.500          40.000
 121392694.03647  94591720.45347  23100255.862    23100256.689    23100255.921
  23100256.794          44.750          44.000
 114908864.90548  89539378.82946  21866424.022                    21866423.475
  21866423.803          49.500          38.000
 16 10  7  1 22  0.0000000  0 11G12G32G24G01G22G18G10G14G08G31G11
 130071919.56246 101354744.42846  24751863.749    24751865.245    24751864.125
  24751864.853          38.500          36.000
 107099542.70149  83454209.74849  20380350.529    20380352.843    20380350.663
  20380352.775          56.500          55.000
 130015653.75846 101310910.91446  24741141.822    24741144.467    24741143.284
  24741145.095          38.750          38.000
 115622331.56947  90095318.34048  22002189.534    22002192.967    22002189.700
  22002193.004          47.500          49.000
 123342244.79147  96110841.20145  23471242.163                    23471240.993
  23471240.372          44.000          32.500
 126603089.31746  98651768.61443  24091759.893                    24091759.249
  24091759.711          40.000          22.000
 113759197.62748  88643538.42548  21647641.958    21647644.020    21647641.603
  21647644.185          53.000          50.000
 108788197.00748  84770030.02747  20701693.386                    20701692.810
  20701693.191          49.250          44.750
 129285653.34246 100742075.00246  24602242.793    24602246.837    24602240.996
  24602247.198          37.750          39.000
 121283598.70247  94506711.20947  23079495.727    23079496.872    23079495.511
  23079496.670          44.750          44.000
 114908594.12948  89539167.84046  21866372.971                    21866372.350
  21866372.238          49.000          38.000
 16 10  7  1 22 30.0000000  0 11G12G32G24G01G22G18G10G14G08G31G11
 130008976.01346 101305697.56346  24739885.541    24739888.814    24739884.871
  24739888.223          38.000          37.000
 107122995.60649  83472484.74649  20384813.367    20384815.969    20384813.652
  20384815.623          56.750          55.000
 130112460.14046 101386344.62746  24759564.828    24759567.357    24759564.355
  24759566.859          39.500          39.000
 115561311.00447  90047769.86748  21990578.202    21990581.044    21990578.057
  21990581.160          47.750          49.000
 123251932.59747  96040468.09745  23454056.207                    23454054.812
  23454055.029          43.750          32.500
 126692877.43846  98721733.39243  24108846.252                    24108845.091
  24108845.744          39.000          20.750
 113829773.78248  88698532.82948  21661071.892    21661074.088    21661071.622
  21661074.233          52.750          50.000
 108753749.76348  84743188.03247  20695138.535                    20695137.920
  20695138.072          49.500          44.750
 129375092.31446 100811767.63046  24619261.631    24619267.685    24619261.280
  24619267.450          37.250          39.000
 121174720.25247  94421870.94747  23058776.873    23058778.368    23058777.037
  23058777.912          45.250          44.000
 114908973.62248  89539463.55046  21866444.951                    21866444.319
  21866444.290          49.000          38.000
 16 10  7  1 23  0.0000000  0 11G12G32G24G01G22G18G10G14G08G31G11
 129946450.85346 101256976.69546  24727988.240    24727988.513    24727986.396
  24727988.472          37.750          37.000
 107146889.97749  83491103.74449  20389360.384    20389362.944    20389360.576
  20389362.573          57.000          55.000
 130209544.66646 101461995.00246  24778038.390    24778041.003    24778038.341
  24778041.844          38.500          39.000
 115500780.52448  90000603.26748  21979059.444    21979062.407    21979059.343
  21979062.636          48.250          48.000
 123161723.77047  95970175.55245  23436890.533                    23436888.973
  23436888.649          44.750          33.250
 126782798.54046  98791801.74443  24125956.167                    24125956.862
  24125956.078          38.000          19.500
 113900647.78848  88753759.31648  21674558.798    21674561.100    21674558.678
  21674561.267          53.000          50.000
 108719724.77548  84716675.07047  20688663.601                    20688663.055
  20688663.364          49.750          44.750
 129464697.13146 100881589.53046  24636313.233    24636318.123    24636313.923
  24636316.241          36.500          38.000
 121066061.69547  94337202.03247  23038099.885    23038100.357    23038099.615
  23038100.131          46.250          45.000
 114910003.27248  89540265.87946  21866641.288                    21866640.530
  21866640.443          50.000          38.250
 16 10  7  1 23 30.0000000  0 11G12G32G24G01G22G18G10G14G08G31G11
 129884346.79746 101208583.96645  24716169.363    24716169.175    24716170.250
  24716169.994          37.750          35.000
 107171224.69149  83510065.86649  20393991.135    20393993.882    20393991.259
  20393993.441          56.750          55.000
 130306904.93946 101537860.26446  24796565.989    24796569.049    24796566.435
  24796568.405          39.000          39.000
 115440742.25948  89953820.23448  21967634.348    21967637.246    21967634.162
  21967637.481          48.000          49.000
 123071619.41247  95899964.38945  23419744.229                    23419742.399
  23419742.050          44.750          33.500
 126872851.92546  98861973.20043  24143094.059                    24143093.677
  24143093.896          38.250          18.250
 113971818.88948  88809217.31448  21688102.007    21688104.753    21688101.976
  21688104.695          52.500          50.000
 108686122.46748  84690491.47247  20682269.213                    20682268.853
  20682268.837          49.250          44.750
 129554464.81546 100951538.33446  24653396.287    24653402.679    24653395.346
  24653400.812          38.250          41.000
 120957626.00947  94252706.79047  23017464.828    23017465.988    23017465.252
  23017465.882          45.500          45.000
 114911682.21048  89541574.15046  21866960.448                    21866959.919
  21866959.593          49.000          38.000
 16 10  7  1 24  0.0000000  0 11G12G32G24G01G22G18G10G14G08G31G11
 129822666.29146 101160521.27246  24704433.522    24704434.158    24704431.839
  24704432.307          40.000          38.000
 107195998.56449  83529370.18749  20398705.416    20398708.001    20398705.560
  20398707.658          57.000          55.000
 130404538.14446 101613938.24346  24815145.454    24815147.139    24815144.536
  24815147.964          40.000          39.000
 115381198.36248  89907422.40848  21956303.558    21956306.485    21956303.691
  21956306.769          48.500          48.000
 122981621.18947  95829835.93145  23402617.576                    23402616.610
  23402616.128          44.250          33.250
 126963036.59046  98932246.93943  24160255.282                    24160254.602
  24160255.539          37.250          18.500
 114043286.28348  88864906.18548  21701701.990    21701704.565    21701701.906
  21701704.662          52.500          50.000
 108652942.68948  84664637.12047  20675955.355                    20675954.804
  20675954.961          49.750          45.000
 129644392.13746 101021611.51946  24670507.987    24670513.753    24670506.466
  24670512.939          37.250          40.000
 120849415.81347  94168387.24647  22996873.844    22996874.348    22996872.793
  22996873.863          45.250          45.000
 114914010.78248  89543388.62746  21867403.768                    21867403.100
  21867403.110          49.500          37.750
 16 10  7  1 24 30.0000000  0 11G12G32G24G01G22G18G10G14G08G31G11
 129761412.31246 101112790.96146  24692775.225    24692776.803    24692775.890
  24692776.206          36.750          36.000
 107221210.38649  83549015.77649  20403503.097    20403505.742    20403503.314
  20403505.321          56.500          55.000
 130502441.61946 101690226.80146  24833773.321    24833777.104    24833774.608
  24833776.411          38.750          36.000
 115322150.94248  89861411.44048  21945067.575    21945070.077    21945067.186
  21945070.474          48.500          48.000
 122891729.77347  95759790.70545  23385511.857                    23385511.068
  23385509.868          43.750          33.000
 127053351.73646  99002622.37543  24177441.646                    24177441.702
  24177440.908          38.000          18.500
 114115049.16948  88920825.31748  21715358.212    21715360.371    21715357.866
  21715360.813          52.500          51.000
 108620185.66448  84639112.18547  20669721.920                    20669721.362
  20669721.647          49.000          45.000
 129734476.21746 101091806.84446  24687650.403    24687654.992    24687649.186
  24687655.868          36.500          39.000
 120741434.55047  94084246.07847  22976325.040    22976325.819    22976325.281
  22976325.346          46.000          44.000
 114916988.89748  89545709.23846  21867970.208                    21867969.677
  21867969.797          50.250          38.250
 16 10  7  1 25  0.0000000  0 11G12G32G24G01G22G18G10G14G08G31G11
 129700587.70746 101065395.16246  24681201.528    24681202.198    24681200.335
  24681201.713          37.500          37.000
 107246859.00849  83569001.72449  20408383.977    20408386.445    20408384.057
  20408386.161          56.250          55.000
 130600612.28046 101766723.51746  24852456.203    24852458.614    24852455.595
  24852458.235          39.000          38.000
 115263602.15748  89815789.02248  21933925.523    21933928.786    21933925.597
  21933928.797          48.750          49.000
 122801946.60147  95689829.83945  23368427.063                    23368425.982
  23368424.589          44.500          33.250
 127143797.09646  99073099.24943  24194652.082                    24194651.185
  24194652.661          37.500          20.250
 114187106.72448  88976974.05448  21729070.015    21729072.749    21729070.133
  21729073.070          52.500          50.000
 108587851.77948  84613916.96847  20663568.935                    20663568.391
  20663568.764          49.000          44.750
 129824713.80046 101162121.76446  24704823.812    24704827.575    24704822.932
  24704827.745          38.000          40.000
 120633685.23447  94000285.63947  22955820.504    22955822.001    22955820.495
  22955821.679          46.000          45.000
 114920615.77248  89548535.38646  21868660.427                    21868660.130
  21868659.951          49.750          38.000
 16 10  7  1 25 30.0000000  0 11G12G32G24G01G22G18G10G14G08G31G11
 129640194.92346 101018335.87046  24669709.609    24669709.037    24669708.986
  24669708.986          38.000          37.000
 107272943.21349  83589327.08549  20413347.565    20413349.941    20413347.698
  20413349.782          56.250          55.000
 130699047.89846 101843426.74246  24871188.588    24871190.152    24871188.050
  24871191.280          39.500          39.000
 115205554.08348  89770556.76748  21922879.352    21922882.683    21922879.499
  21922882.926          48.750          49.000
 122712272.79047  95619954.17145  23351362.059                    23351360.822
  23351360.551          44.000          32.500
 127234371.43046  99143676.62643  24211889.246                    24211888.261
  24211889.625          38.000          21.750
 114259458.17848  89033351.81548  21742837.939    21742840.374    21742838.128
  21742840.771          52.500          50.000
 108555940.68348  84589051.19647  20657496.392                    20657496.002
  20657496.094          49.000          45.000
 129915101.92446 101232554.00246  24722021.909    24722028.635    24722021.807
  24722028.886          37.000          41.000
 120526170.43047  93916507.94247  22935361.172    22935362.938    22935361.482
  22935361.918          46.250          44.000
 114924891.26848  89551866.93546  21869473.892                    21869473.511
  21869473.430          50.000          37.750
 16 10  7  1 26  0.0000000  0 11G12G32G24G01G22G18G10G14G08G31G11
 129580236.75446 100971615.26846  24658299.071    24658300.734    24658299.301
  24658300.610          37.500          37.000
 107299461.80249  83609990.92649  20418393.883    20418396.551    20418393.982
  20418395.998          56.500          55.000
 130797745.79146 101920334.25746  24889969.177    24889971.952    24889970.116
  24889972.192          38.750          39.000
 115148008.85648  89725716.33948  21911928.794    21911931.928    21911928.956
  21911932.138          49.250          49.000
 122622709.68447  95550164.77045  23334319.011                    23334318.420
  23334317.071          43.750          32.500
 127325074.28146  99214354.15043  24229148.705                    24229147.416
  24229149.396          38.500          22.250
 114332102.70648  89089957.93548  21756661.576    21756664.283    21756661.814
  21756664.388          52.500          50.000
 108524452.64448  84564515.07847  20651504.534                    20651503.972
  20651504.388          49.250          44.750
 130005637.34946 101303101.06046  24739250.519    24739256.974    24739250.084
  24739256.739          37.250          41.000
 120418893.34147  93832915.47247  22914947.930    22914947.978    22914947.398
  22914948.160          47.000          45.000
 114929814.87248  89555703.51146  21870410.941                    21870410.051
  21870410.630          50.250          37.750
 16 10  7  1 26 30.0000000  0 11G12G32G24G01G22G18G10G14G08G31G11
 129520716.48446 100925235.91446  24646972.520    24646974.752    24646971.361
  24646973.052          36.000          37.000
 107326413.57249  83630992.31349  20423522.454    20423525.027    20423522.773
  20423524.862          55.750          54.000
 130896702.87146 101997443.73446  24908801.042    24908802.983    24908800.565
  24908802.287          38.750          39.000
 115090968.51148  89681269.31448  21901074.157    21901078.008    21901074.210
  21901077.907          49.250          49.000
 122533258.24847  95480462.39645  23317297.004                    23317295.723
  23317294.645          44.250          32.250
 127415904.60646  99285130.99343  24246432.313                    24246431.710
  24246433.031          37.500          22.000
 114405039.49148  89146791.78548  21770541.186    21770543.760    21770541.401
  21770543.901          52.500          50.000
 108493387.69548  84540308.63847  20645592.990                    20645592.507
  20645592.694          48.500          44.750
 130096317.24246 101373760.65846  24756506.652    24756512.025    24756507.040
  24756511.783          36.750          40.000
 120311856.78047  93749510.41847  22894579.007    22894579.573    22894578.726
  22894579.503          47.000          44.000
 114935386.21748  89560044.82146  21871471.041                    21871470.771
  21871470.595          50.250          38.250
 16 10  7  1 27  0.0000000  0 11G12G32G24G01G22G18G10G14G08G31G11
 129461636.57246 100879199.66346  24635730.889    24635730.673    24635729.852
  24635731.029          36.750          36.000
 107353797.30949  83652330.29449  20428733.517    20428735.962    20428733.664
  20428735.750          56.000          55.000
 130995916.49946 102074753.08546  24927677.074    24927683.647    24927678.994
  24927682.869          36.250          40.000
 115034435.15348  89637217.36148  21890316.762    21890319.695    21890316.776
  21890320.064          49.750          49.000
 122443920.07447  95410848.26345  23300296.546                    23300295.490
  23300294.350          43.250          32.250
 127506861.67146  99356006.62144  24263742.103                    24263741.819
  24263741.911          39.500          24.250
 114478267.72048  89203852.74348  21784475.822    21784478.573    21784476.055
  21784478.596          52.250          50.000
 108462746.27448  84516432.22047  20639762.332                    20639761.854
  20639762.002          49.500          44.750
 130187138.05045 101444530.04546  24773788.741    24773795.801    24773788.593
  24773795.402          35.250          40.000
 120205063.85147  93666295.19747  22874256.280    22874257.735    22874256.289
  22874256.855          46.250          44.000
 114941605.03348  89564890.64446  21872654.334                    21872653.999
  21872654.088          50.500          37.750
 16 10  7  1 27 30.0000000  0 12G03G12G32G24G01G22G18G10G14G08G31G11
 131645915.39046 102581233.26745  25051383.155    25051390.293    25051385.562
  25051388.659          38.000          34.000
 129402999.54145 100833508.47346  24624571.059    24624571.610    24624572.029
  24624571.873          35.750          37.000
 107381611.78249  83674003.91649  20434026.147    20434028.934    20434026.513
  20434028.708          55.500          55.000
 131095384.06345 102152260.30346  24946606.686    24946610.088    24946606.839
  24946609.319          35.750          38.000
 114978410.83248  89593562.04548  21879655.278    21879658.412    21879655.060
  21879658.674          49.250          49.000
 122354696.24247  95341323.23845  23283317.336                    23283316.321
  23283315.806          42.750          32.500
 127597944.99246  99426980.63644  24281074.432                    24281073.567
  24281074.420          38.500          24.000
 114551786.55748  89261140.14548  21798466.228    21798468.829    21798466.431
  21798468.893          52.000          50.000
 108432528.11148  84492885.61147  20634011.758                    20634011.172
  20634011.481          49.000          45.000
 130278097.24546 101515407.29246  24791098.224    24791104.333    24791098.524
  24791103.436          37.000          41.000
 120098517.62547  93583272.24947  22853981.519    22853982.489    22853981.129
  22853982.467          46.250          44.000
 114948470.68548  89570240.50046  21873960.736                    21873960.341
  21873961.012          50.250          38.000
 16 10  7  1 28  0.0000000  0 12G03G12G32G24G01G22G18G10G14G08G31G11
 131543991.74946 102501812.35546  25031989.143    25031994.457    25031988.837
  25031993.843          38.500          38.000
 129344808.03146 100788164.48646  24613498.495    24613498.969    24613498.419
  24613499.176          37.500          37.000
 107409855.75549  83696012.21049  20439400.980    20439403.614    20439401.127
  20439403.251          55.750          55.000
 131195102.79845 102229963.24446  24965582.539    24965585.129    24965583.627
  24965586.027          35.500          37.000
 114922897.59048  89550304.97148  21869091.523    21869095.025    21869091.442
  21869095.150          49.500          49.000
 122265587.91547  95271888.23245  23266361.539                    23266360.427
  23266358.641          43.000          33.000
 127689153.68046  99498052.33143  24298430.408                    24298428.891
  24298430.950          38.250          23.000
 114625595.19648  89318653.36248  21812511.493    21812513.526    21812511.459
  21812514.477          52.000          50.000
 108402733.20248  84469668.80447  20628342.058                    20628341.382
  20628341.806          49.000          44.750
 130369191.56845 101586389.81046  24808431.925    24808438.274    24808431.303
  24808438.046          35.500          40.000
 119992220.83547  93500443.62847  22833753.624    22833755.217    22833753.798
  22833754.642          46.500          45.000
 114955982.88348  89576094.15946  21875390.612                    21875390.049
  21875390.212          50.750          38.250
 16 10  7  1 28 30.0000000  0 12G03G12G32G24G01G22G18G10G14G08G31G11
 131442080.47546 102422401.04646  25012596.208    25012599.351    25012594.784
  25012600.373          38.500          37.000
 129287064.83546 100743169.82346  24602508.406    24602511.677    24602509.358
  24602510.621          36.250          38.000
 107438528.01549  83718354.23249  20444857.048    20444860.002    20444857.310
  20444859.583          56.000          55.000
 131295069.88745 102307859.68846  24984605.632    24984609.958    24984606.340
  24984607.408          35.250          38.000
 114867897.45348  89507447.71348  21858625.255    21858628.705    21858625.420
  21858628.714          50.000          48.000
 122176596.69847  95202544.47745  23249426.557                    23249426.217
  23249424.165          42.750          33.000
 127780486.72046  99569220.91143  24315810.551                    24315810.026
  24315811.250          38.250          22.750
 114699692.80048  89376391.75248  21826611.396    21826614.594    21826611.763
  21826614.821          51.750          50.000
 108373361.58648  84446781.85247  20622752.671                    20622752.362
  20622752.535          49.250          45.000
 130460417.88646 101657475.21246  24825792.855    24825797.758    24825792.543
  24825797.323          36.500          40.000
 119886176.55847  93417811.79947  22813574.137    22813575.754    22813574.358
  22813575.010          46.500          45.000
 114964140.95948  89582451.08746  21876942.886                    21876942.547
  21876942.348          50.750          38.250
 16 10  7  1 29  0.0000000  0 12G03G12G32G24G01G22G18G10G14G08G31G11
 131340182.48146 102343000.12446  24993205.238    24993209.778    24993205.797
  24993209.392          37.250          38.000
 129229772.72145 100698526.64046  24591607.067    24591609.439    24591607.254
  24591609.094          35.250          38.000
 107467627.30049  83741029.00749  20450394.308    20450397.104    20450394.685
  20450396.885          55.250          55.000
 131395283.19846 102385948.01146  25003676.429    25003679.460    25003677.065
  25003679.846          36.000          39.000
 114813412.42548  89464991.84948  21848257.107    21848260.691    21848257.082
  21848260.463          50.000          49.000
 122087723.38747  95133292.58645  23232514.158                    23232512.972
  23232512.196          43.000          33.000
 127871943.10146  99640485.62043  24333213.538                    24333213.399
  24333214.406          36.500          21.750
 114774078.53648  89434354.65448  21840767.407    21840769.300    21840766.936
  21840769.916          52.500          50.000
 108344413.37548  84424224.81347  20617244.190                    20617243.529
  20617243.694          49.000          44.750
 130551773.09945 101728660.99846  24843176.756    24843183.426    24843175.592
  24843181.943          33.750          40.000
 119780387.71047  93335378.99447  22793442.742    22793444.130    22793442.475
  22793443.735          46.500          45.000
 114972944.10648  89589310.67646  21878618.137                    21878617.713
  21878617.902          50.750          38.000
 16 10  7  1 29 30.0000000  0 12G03G12G32G24G01G22G18G10G14G08G31G11
 131238298.90546 102263610.45746  24973816.636    24973821.956    24973817.366
  24973821.321          37.500          38.000
 129172933.76446 100654236.59446  24580792.017    24580793.387    24580792.070
  24580793.483          37.750          38.000
 107497152.35349  83764035.54949  20456012.835    20456015.582    20456013.143
  20456015.334          55.750          55.000
 131495739.51046 102464225.66446  25022793.363    25022795.927    25022793.355
  25022795.849          36.000          39.000
 114759444.55848  89422938.96548  21837987.650    21837990.582    21837987.750
  21837990.897          50.250          49.000
 121998969.61547  95064133.84745  23215624.977                    23215623.915
  23215623.189          42.250          32.750
 127963522.28745  99711846.01443  24350639.515                    24350638.681
  24350641.930          34.500          19.250
 114848751.56148  89492541.42848  21854976.851    21854979.322    21854976.492
  21854979.551          52.000          50.000
 108315888.55948  84401997.70147  20611815.922                    20611815.486
  20611815.701          50.000          45.000
 130643254.17145 101799944.91146  24860584.212    24860590.525    24860584.316
  24860590.989          34.250          39.000
 119674857.23947  93253147.50547  22773361.579    22773361.896    22773361.493
  22773361.894          47.750          45.000
 114982392.16448  89596672.78646  21880415.803                    21880415.773
  21880415.630          50.000          37.750
 16 10  7  1 30  0.0000000  0 12G03G12G32G24G01G22G18G10G14G08G31G11
 131136430.75946 102184232.72546  24954430.583    24954436.989    24954433.063
  24954437.371          36.750          38.000
 129116550.85146 100610301.85846  24570062.765    24570063.620    24570061.395
  24570062.904          38.000          38.000
 107527101.92549  83787372.88249  20461712.024    20461714.658    20461712.369
  20461714.469          55.250          55.000
 131596436.60946 102542690.91846  25041955.661    25041958.898    25041955.688
  25041957.870          38.000          40.000
 114705995.79548  89381290.57648  21827816.187    21827819.688    21827816.636
  21827819.762          50.500          49.000
 121910336.25147  94995068.93945  23198758.689                    23198757.378
  23198756.699          42.500          33.000
 128055223.55245  99783301.54843  24368091.400                    24368091.071
  24368090.360          35.000          19.000
 114923711.04648  89550951.41148  21869241.083    21869243.506    21869241.239
  21869243.991          51.500          50.000
 108287787.19948  84380100.55047  20606468.440                    20606468.168
  20606468.124          49.000          45.250
 130734858.01045 101871324.43146  24878017.066    24878022.298    24878016.555
  24878021.591          32.500          38.000
 119569588.11347  93171119.68647  22753329.049    22753329.645    22753328.876
  22753330.039          47.250          45.000
 114992484.56948  89604536.99946  21882336.369                    21882335.945
  21882336.143          50.250          37.750
 16 10  7  1 30 30.0000000  0 12G03G12G32G24G01G22G18G10G14G08G31G11
 131034579.13246 102104867.92946  24935049.654    24935055.741    24935051.644
  24935056.092          38.000          39.000
 129060627.09146 100566724.96546  24559421.093    24559422.846    24559420.882
  24559421.549          39.250          39.000
 107557474.75649  83811040.02449  20467491.786    20467494.556    20467491.962
  20467494.265          55.500          55.000
 131697371.10846 102621341.16146  25061162.619    25061166.010    25061163.248
  25061164.639          37.000          40.000
 114653068.15048  89340048.25348  21817744.687    21817747.983    21817744.873
  21817747.923          50.500          49.000
 121821824.85547  94926099.06345  23181915.090                    23181914.449
  23181913.861          42.750          33.250
 128147046.19145  99854851.65242  24385564.613                    24385564.554
  24385563.817          35.000          14.500
 114998956.14348  89609583.95548  21883559.719    21883562.392    21883559.582
  21883562.663          51.500          50.000
 108260109.21448  84358533.30847  20601201.502                    20601201.077
  20601201.163          49.500          45.000
 130826581.91945 101942797.58146  24895470.793    24895477.138    24895470.703
  24895477.677          34.250          39.000
 119464583.22047  93089297.75747  22733347.103    22733348.418    22733347.231
  22733348.146          47.250          45.000
 115003220.94648  89612902.99046  21884379.378                    21884379.223
  21884379.244          50.250          38.000
 16 10  7  1 31  0.0000000  0 12G03G12G32G24G01G22G18G10G14G08G31G11
 130932744.97746 102025516.73946  24915672.123    24915676.415    24915672.869
  24915675.979          38.000          39.000
 129005164.95946 100523507.74346  24548865.744    24548867.691    24548864.847
  24548867.594          37.250          39.000
 107588269.47349  83835035.91349  20473351.795    20473354.702    20473352.134
  20473354.324          55.250          55.000
 131798540.51346 102700174.39246  25080414.111    25080416.181    25080415.327
  25080416.386          37.000          39.000
 114600663.57548  89299213.52148  21807772.701    21807775.902    21807772.512
  21807775.969          50.750          49.000
 121733436.58447  94857225.12645  23165095.448                    23165094.488
  23165093.793          42.750          33.250
 128238989.34045  99926495.63142  24403060.726                    24403059.161
  24403058.891          33.250          15.250
 115074485.99148  89668438.38448  21897932.458    21897935.167    21897932.443
  21897935.193          51.250          50.000
 108232854.71648  84337296.05347  20596015.165                    20596014.638
  20596014.787          49.500          45.000
 130918422.45045 102014361.54046  24912946.868    24912954.410    24912947.112
  24912953.999          33.750          39.000
 119359845.77247  93007684.23047  22713416.469    22713417.686    22713416.416
  22713417.539          47.250          45.000
 115014600.12248  89621769.86846  21886544.794                    21886544.539
  21886544.921          50.250          38.250
 16 10  7  1 31 30.0000000  0 12G03G12G32G24G01G22G18G10G14G08G31G11
 130830929.46646 101946180.06646  24896296.756    24896302.245    24896297.738
  24896301.433          37.500          40.000
 128950166.92846 100480652.18946  24538401.216    24538402.437    24538399.965
  24538402.668          39.750          39.000
 107619484.99649  83859359.70449  20479292.038    20479294.762    20479292.246
  20479294.418          55.000          55.000
 131899942.38446 102779188.76046  25099710.724    25099713.401    25099711.170
  25099712.993          37.000          39.000
 114548784.02948  89258787.90048  21797900.110    21797903.128    21797900.161
  21797903.175          50.750          49.000
 121645172.90647  94788448.28045  23148299.577                    23148298.946
  23148297.504          43.750          34.000
 128331051.78545  99998232.60442  24420578.932                    24420578.670
  24420579.244          33.750          14.250
 115150299.73848  89727514.02748  21912359.448    21912362.295    21912359.606
  21912362.205          51.000          50.000
 108206023.55348  84316388.66847  20590909.347                    20590908.777
  20590908.894          49.250          45.000
 131010376.58445 102086014.06146  24930446.652    24930452.310    24930445.908
  24930452.060          35.250          39.000
 119255378.44047  92926281.18947  22693537.409    22693537.828    22693537.045
  22693537.533          47.500          45.000
 115026621.42148  89631137.10846  21888832.924                    21888832.554
  21888832.566          50.500          38.500
 16 10  7  1 32  0.0000000  0 12G03G12G32G24G01G22G18G10G14G08G31G11
 130729133.71746 101866858.77146  24876925.840    24876929.752    24876926.188
  24876929.882          37.000          39.000
 128895635.18546 100438159.98946  24528024.662    24528024.887    24528023.471
  24528023.051          40.250          39.000
 107651119.95249  83884010.32749  20485311.995    20485314.632    20485312.159
  20485314.395          55.250          55.000
 132001573.94046 102858382.11546  25119049.514    25119053.764    25119050.395
  25119053.229          36.250          41.000
 114497431.38748  89218772.87548  21788127.883    21788131.491    21788127.672
  21788131.434          50.750          50.000
 121557034.85547  94719769.34545  23131527.311                    23131526.536
  23131524.900          43.000          34.000
 128423232.92245 100070062.07242  24438120.266                    24438120.657
  24438121.140          33.500          14.000
 115226396.43848  89786810.16248  21926840.218    21926842.873    21926840.011
  21926842.759          51.000          50.000
 108179615.60448  84295811.05147  20585884.141                    20585883.370
  20585883.716          49.000          45.000
 131102441.17945 102157752.64846  24947965.588    24947972.551    24947967.159
  24947971.435          34.000          39.000
 119151184.29347  92845091.00747  22673709.491    22673710.566    22673709.548
  22673709.832          47.500          45.000
 115039284.34048  89641004.31146  21891242.674                    21891241.783
  21891241.808          50.000          37.750
 16 10  7  1 32 30.0000000  0 12G03G12G32G24G01G22G18G10G14G08G31G11
 130627358.70946 101787553.64146  24857559.237    24857562.581    24857558.227
  24857561.968          36.750          39.000
 128841572.64646 100396033.39046  24517735.653    24517736.688    24517735.602
  24517736.128          39.000          38.000
 107683173.04049  83908986.76649  20491411.552    20491414.208    20491411.775
  20491413.779          55.000          55.000
 132103432.55645 102937752.40046  25138433.221    25138437.302    25138434.529
  25138437.213          34.750          41.000
 114446607.63848  89179169.95648  21778456.383    21778459.716    21778456.542
  21778459.973          50.750          49.000
 121469023.70447  94651189.25545  23114779.613                    23114778.419
  23114777.947          43.750          34.750
 128515532.18545 100141983.60842  24455684.021                    24455683.303
  24455684.599          35.250          16.500
 115302775.44048  89846326.26148  21941374.203    21941377.107    21941374.759
  21941377.352          50.750          49.000
 108153631.13248  84275563.42147  20580939.134                    20580938.847
  20580938.910          49.000          45.000
 131194613.45845 102229575.13646  24965504.645    24965511.925    24965504.729
  24965512.135          33.500          39.000
 119047265.99347  92764115.77847  22653934.516    22653935.587    22653934.590
  22653934.741          47.000          45.000
 115052588.09548  89651370.86946  21893774.229                    21893773.646
  21893773.467          50.250          38.000
 16 10  7  1 33  0.0000000  0 12G03G12G32G24G01G22G18G10G14G08G31G11
 130525605.64445 101708265.57946  24838194.652    24838200.425    24838195.846
  24838199.862          35.250          40.000
 128787981.61446 100354274.20846  24507538.120    24507537.353    24507537.484
  24507537.641          39.250          37.000
 107715642.99549  83934288.04049  20497590.245    20497592.917    20497590.640
  20497592.586          55.000          54.000
 132205515.41145 103017297.37946  25157859.621    25157861.614    25157858.497
  25157861.916          35.750          40.000
 114396314.67648  89139980.65748  21768886.077    21768889.595    21768886.217
  21768889.522          51.000          49.000
 121381140.88947  94582709.20445  23098055.584                    23098055.193
  23098053.796          43.500          34.500
 128607948.51446 100213996.31543  24473272.210                    24473270.492
  24473270.731          38.250          19.250
 115379435.74548  89906061.56248  21955963.019    21955965.306    21955962.828
  21955965.271          51.000          49.000
 108128069.84848  84255645.55047  20576075.207                    20576074.732
  20576074.802          49.000          45.250
 131286889.89845 102301478.77146  24983066.609    24983070.519    24983064.676
  24983070.806          34.250          38.000
 118943626.63247  92683357.92147  22634212.502    22634214.183    22634212.542
  22634213.091          46.750          45.000
 115066531.95048  89662236.20446  21896427.250                    21896426.734
  21896426.911          50.000          37.750
 16 10  7  1 33 30.0000000  0 12G03G12G32G24G01G22G18G10G14G08G31G11
 130423875.50446 101628995.38846  24818837.277    24818841.460    24818836.535
  24818841.615          36.000          41.000
 128734864.25746 100312884.15146  24497428.667    24497430.110    24497429.381
  24497429.661          38.500          38.000
 107748528.48949  83959913.10949  20503848.153    20503850.669    20503848.450
  20503850.547          55.250          54.000
 132307820.00846 103097015.06646  25177328.337    25177330.309    25177327.299
  25177329.198          36.750          41.000
 114346554.35648  89101206.40748  21759417.285    21759420.178    21759417.256
  21759420.750          51.250          49.000
 121293387.82447  94514330.23845  23081357.119                    23081355.927
  23081355.391          43.250          34.750
 128700481.22546 100286099.75843  24490880.254                    24490878.635
  24490880.272          37.750          19.250
 115456376.53948  89966015.42948  21970604.595    21970606.808    21970604.062
  21970606.646          51.000          49.000
 108102931.67448  84236057.37847  20571291.598                    20571290.943
  20571291.244          49.500          45.000
 131379267.88045 102373461.56146  25000645.051    25000650.230    25000645.766
  25000650.087          35.000          37.000
 118840269.17847  92602819.71247  22614544.559    22614545.141    22614544.762
  22614544.933          46.750          44.000
 115081115.06548  89673599.65546  21899202.466                    21899201.764
  21899201.998          49.500          37.500
 16 10  7  1 34  0.0000000  0 12G03G12G32G24G01G22G18G10G14G08G31G11
 130322169.48646 101549743.99146  24799483.686    24799486.709    24799482.439
  24799487.344          37.000          40.000
 128682224.28246 100271866.03446  24487411.933    24487412.333    24487412.784
  24487412.238          39.750          38.000
 107781828.23949  83985860.97349  20510184.993    20510187.554    20510185.210
  20510187.195          55.250          54.000
 132410343.77345 103176903.53946  25196836.614    25196839.540    25196836.353
  25196838.773          34.750          40.000
 114297328.59448  89062848.69148  21750049.670    21750053.495    21750049.778
  21750053.183          51.500          50.000
 121205765.93347  94446053.48245  23064683.190                    23064681.893
  23064680.812          44.250          35.250
 128793129.35345 100358293.11143  24508508.868                    24508509.014
  24508510.859          35.250          18.500
 115533596.91548  90026187.14748  21985298.839    21985300.744    21985298.909
  21985301.058          50.500          49.000
 108078216.75048  84216799.00447  20566588.654                    20566587.957
  20566588.027          49.250          45.000
 131471744.64945 102445521.33646  25018243.121    25018248.997    25018240.870
  25018248.466          35.250          38.000
 118737196.73147  92522503.58747  22594930.192    22594930.887    22594929.978
  22594930.913          47.000          44.000
 115096336.71748  89685460.68646  21902099.076                    21902098.830
  21902098.739          49.500          37.500
 16 10  7  1 34 30.0000000  0 12G03G12G32G24G01G22G18G10G14G08G31G11
 130220488.65846 101470512.25346  24780134.848    24780137.025    24780135.947
  24780137.100          37.250          39.000
 128630062.86846 100231220.80446  24477486.620    24477487.102    24477486.433
  24477486.806          39.000          38.000
 107815540.94149  84012130.61949  20516600.221    20516602.872    20516600.477
  20516602.530          55.750          55.000
 132513083.77946 103256960.49346  25216389.129    25216390.684    25216388.957
  25216391.026          36.000          40.000
 114248639.22148  89024908.94948  21740784.199    21740787.642    21740784.489
  21740787.515          51.000          49.000
 121118276.48047  94377879.92545  23048034.407                    23048033.800
  23048032.344          44.750          35.250
 128885892.36146 100430575.97143  24526162.945                    24526161.861
  24526163.138          37.750          22.250
 115611095.98748  90086576.03948  22000046.286    22000048.456    22000046.372
  22000048.821          50.250          49.000
 108053924.75148  84197870.18547  20561965.887                    20561965.536
  20561965.562          49.750          45.000
 131564316.39245 102517655.13846  25035857.914    25035865.892    25035857.822
  25035863.235          34.750          39.000
 118634411.88247  92442411.56947  22575370.842    22575371.797    22575370.978
  22575371.160          47.250          45.000
 115112196.08048  89697818.62246  21905117.286                    21905116.386
  21905116.175          49.000          37.500
 16 10  7  1 35  0.0000000  0 13G25G03G12G32G24G01G22G18G10G14G08G31
                                G11
 132103406.83145                  25138442.049    25138447.503
                        32.750          34.000
 130118834.13046 101391301.00246  24760789.202    24760793.394    24760789.763
  24760793.467          38.000          39.000
 128578383.34646 100190951.09946  24467651.734    24467653.715    24467652.325
  24467653.268          39.750          39.000
 107849665.25549  84038720.99649  20523093.959    20523096.610    20523094.115
  20523096.200          55.500          55.000
 132616037.04045 103337183.56646  25235978.031    25235983.157    25235980.090
  25235982.986          35.750          41.000
 114200488.07148  88987388.60348  21731621.532    21731624.521    21731621.683
  21731625.056          51.500          49.000
 121030920.23647  94309810.17245  23031411.498                    23031410.440
  23031409.346          44.750          35.750
 128978769.01046 100502947.37643  24543837.199                    24543836.614
  24543838.122          38.250          20.500
 115688872.91248  90147181.42848  22014846.301    22014849.165    22014846.462
  22014849.489          50.250          49.000
 108030055.65048  84179270.89947  20557423.657                    20557423.183
  20557423.345          49.000          45.000
 131656980.38245 102589860.77346  25053490.792    25053496.977    25053490.848
  25053497.353          35.250          39.000
 118531917.59347  92362545.94247  22555867.230    22555867.723    22555867.411
  22555867.570          47.750          45.000
 115128692.33248  89710672.84846  21908256.108                    21908255.513
  21908255.904          49.250          37.750
 16 10  7  1 35 30.0000000  0 12G25G03G12G32G01G22G18G10G14G08G31G11
 132016122.54845                  25121833.350    25121837.985
                        34.750          37.000
 130017207.06946 101312111.11846  24741450.342    24741454.625    24741450.478
  24741454.343          38.250          39.000
 128527187.84546 100151058.51946  24457910.407    24457912.054    24457909.488
  24457911.115          41.250          39.000
 107884199.89049  84065631.10549  20529665.447    20529668.217    20529665.702
  20529668.015          55.250          54.000
 114152877.01248  88950289.11048  21722561.356    21722565.133    21722561.491
  21722565.055          51.500          50.000
 120943698.63847  94241845.32545  23014813.245                    23014812.101
  23014811.694          44.500          35.750
 129071758.75946 100575406.94743  24561532.798                    24561531.481
  24561531.801          38.250          20.750
 115766926.76948  90208002.61248  22029699.729    22029702.061    22029699.597
  22029702.256          49.750          49.000
 108006609.45948  84161001.14347  20552961.992                    20552961.497
  20552961.548          49.250          45.000
 131749733.91545 102662136.23446  25071142.047    25071147.867    25071142.976
  25071149.135          35.750          39.000
 118429717.17247  92282909.32347  22536418.808    22536419.422    22536418.691
  22536418.805          47.500          45.000
 115145824.84048  89724022.85046  21911516.467                    21911515.795
  21911515.370          49.250          37.250
 16 10  7  1 36  0.0000000  0 12G25G03G12G32G01G22G18G10G14G08G31G11
 131929042.37645 102801850.24245  25105262.384    25105266.366    25105261.413
  25105265.652          35.250          32.000
 129915608.59146 101232943.55446  24722116.652    24722121.162    24722117.553
  24722120.385          39.500          39.000
 128476478.85046 100111545.05246  24448260.656    24448261.562    24448260.032
  24448261.131          41.000          39.000
 107919143.48249  84092859.88349  20536315.128    20536318.048    20536315.305
  20536317.538          55.500          54.000
 114105807.80348  88913611.83848  21713604.318    21713607.401    21713604.218
  21713607.826          51.500          49.000
 120856613.10347  94173986.51345  22998241.758                    22998240.292
  22998239.785          45.000          35.000
 129164860.59246 100647953.78243  24579247.950                    24579247.727
  24579247.818          37.000          20.250
 115845256.72048  90269038.94748  22044605.230    22044607.900    22044605.647
  22044608.183          49.750          49.000
 107983585.89948  84143060.70747  20548581.198                    20548580.401
  20548580.481          49.750          45.250
 131842573.38446 102734478.65046  25088809.239    25088814.540    25088809.965
  25088811.942          37.250          37.000
 118327812.96247  92203503.51147  22517027.169    22517027.724    22517027.256
  22517027.187          47.500          45.000
 115163591.95648  89737867.35146  21914897.116                    21914896.900
  21914896.942          49.250          37.750
 16 10  7  1 36 30.0000000  0 12G25G03G12G32G01G22G18G10G14G08G31G11
 131842169.74346 102734157.25245  25088731.649    25088738.555    25088731.729
  25088735.652          36.250          35.000
 129814039.80846 101153799.08346  24702789.625    24702792.149    24702788.887
  24702792.376          39.250          39.000
 128426258.91946 100072412.67546  24438703.788    24438704.893    24438703.077
  24438704.485          40.250          38.000
 107954494.72949  84120406.31149  20543042.301    20543044.762    20543042.446
  20543044.647          56.250          54.000
 114059282.25248  88877358.20148  21704750.463    21704754.028    21704750.862
  21704754.381          51.250          49.000
 120769665.74247  94106235.37745  22981695.123                    22981694.226
  22981694.697          44.000          35.000
 129258073.65845 100720587.35543  24596984.928                    24596983.784
  24596987.075          35.500          18.500
 115923861.81548  90330289.67548  22059564.004    22059565.991    22059563.805
  22059566.257          49.750          49.000
 107960985.03348  84125449.63647  20544280.216                    20544279.600
  20544279.775          50.750          45.250
 131935496.06946 102806885.86246  25106491.252    25106497.458    25106490.666
  25106498.555          36.250          38.000
 118226207.93047  92124330.82047  22497691.802    22497692.536    22497692.310
  22497692.638          46.500          45.000
 115181992.91248  89752205.75446  21918398.836                    21918398.602
  21918397.870          48.750          37.500
 16 10  7  1 37  0.0000000  0 12G25G03G12G32G01G22G18G10G14G08G31G11
 131755507.75645 102666628.44745  25072240.027    25072246.055    25072239.919
  25072242.676          35.500          32.000
 129712501.88746 101074678.67646  24683466.603    24683470.926    24683466.379
  24683470.133          39.000          38.000
 128376529.95546 100033662.91146  24429241.054    24429240.780    24429240.654
  24429240.443          41.750          39.000
 107990252.28249  84148269.34649  20549846.746    20549849.469    20549846.878
  20549848.944          55.750          54.000
 114013302.14848  88841529.58048  21696000.778    21696004.336    21696001.145
  21696004.609          51.000          50.000
 120682857.05347  94038592.28645  22965176.761                    22965175.153
  22965174.703          45.000          35.000
 129351397.12845 100793306.92043  24614743.672                    24614744.924
  24614746.107          35.250          19.000
 116002741.19848  90391754.12048  22074573.825    22074576.462    22074573.842
  22074576.588          49.750          49.000
 107938806.67948  84108167.80147  20540059.875                    20540059.147
  20540059.275          49.750          45.250
 132028498.97346 102879355.64446  25124188.678    25124196.091    25124188.226
  25124195.432          36.250          39.000
 118124905.32647  92045393.79047  22478414.146    22478415.460    22478415.195
  22478415.050          46.750          44.000
 115201027.04748  89767037.53746  21922021.017                    21922020.758
  21922020.208          49.000          37.750
 16 10  7  1 37 30.0000000  0 12G25G03G12G32G01G22G18G10G14G08G31G11
 131669059.71745 102599266.37345  25055789.577    25055794.673    25055788.732
  25055792.160          35.750          34.000
 129610995.94846 100995583.19846  24664151.029    24664155.094    24664151.568
  24664154.920          39.250          38.000
 128327294.96646  99995298.03646  24419870.931    24419873.011    24419871.408
  24419871.260          40.250          39.000
 108026414.81949  84176447.94949  20556728.302    20556730.604    20556728.312
  20556730.416          55.750          54.000
 113967869.24648  88806127.35948  21687355.689    21687358.535    21687355.651
  21687358.700          51.500          50.000
 120596188.63147  93971058.48045  22948683.863                    22948683.033
  22948682.006          45.500          35.250
 129444830.51145 100866112.18742  24632524.193                    24632523.939
  24632525.200          34.500          16.250
 116081893.96148  90453431.58748  22089635.773    22089638.646    22089635.986
  22089638.896          50.000          49.000
 107917050.57448  84091214.99347  20535919.705                    20535919.036
  20535919.277          50.500          45.250
 132121579.41546 102951885.81446  25141902.359    25141908.028    25141901.158
  25141908.236          36.250          39.000
 118023907.93847  91966694.56947  22459195.213    22459195.902    22459195.140
  22459195.610          46.750          44.000
 115220693.27248  89782361.87246  21925763.418                    21925762.852
  21925762.687          48.750          37.500
 16 10  7  1 38  0.0000000  0 12G25G03G12G32G01G22G18G10G14G08G31G11
 131582828.91546 102532073.55345  25039380.435    25039385.448    25039380.403
  25039382.992          37.250          35.000
 129509523.22846 100916513.60546  24644841.514    24644844.778    24644841.972
  24644846.880          39.000          38.000
 128278555.61847  99957319.43246  24410597.945    24410596.787    24410597.623
  24410596.239          42.250          38.000
 108062980.98749  84204941.06449  20563686.697    20563688.908    20563686.743
  20563688.816          55.750          54.000
 113922985.25648  88771152.84448  21678814.537    21678817.627    21678814.744
  21678817.825          51.250          50.000
 120509661.68447  93903634.89445  22932218.206                    22932217.742
  22932216.755          46.000          35.500
 129538372.62846 100939002.14342  24650325.659                    24650324.945
  24650325.788          36.000          17.000
 116161319.17848  90515321.36448  22104750.009    22104752.216    22104750.065
  22104752.485          49.500          49.000
 107895716.55548  84074591.08447  20531859.698                    20531859.388
  20531859.391          49.500          45.250
 132214733.71946 103024473.54146  25159628.652    25159635.059    25159630.019
  25159633.777          38.000          39.000
 117923218.53047  91888235.32847  22440034.864    22440035.334    22440034.894
  22440035.196          45.750          45.000
 115240990.69148  89798178.05246  21929625.798                    21929625.255
  21929625.108          49.000          37.500
 16 10  7  1 38 30.0000000  0 12G25G03G12G32G01G22G18G10G14G08G31G11
 131496818.65646 102465052.59545  25023013.468    25023017.286    25023012.504
  25023016.958          38.500          35.000
 129408084.81246 100837470.76146  24625538.470    24625542.586    24625538.322
  24625541.204          37.500          38.000
 128230314.78746  99919729.27546  24401416.249    24401417.261    24401417.266
  24401416.394          40.250          39.000
 108099949.42249  84233747.64149  20570721.433    20570723.880    20570721.601
  20570723.692          56.000          54.000
 113878651.95248  88736607.45348  21670377.885    21670381.046    21670377.965
  21670381.447          51.250          50.000
 120423277.85447  93836322.85145  22915780.035                    22915779.293
  22915778.833          46.500          35.500
 129632022.49546 101011976.03742  24668146.256                    24668146.443
  24668146.219          37.500          16.000
 116241015.97548  90577422.76248  22119916.063    22119918.561    22119916.005
  22119919.053          49.500          49.000
 107874804.67048  84058296.11347  20527880.459                    20527879.686
  20527879.852          50.000          45.250
 132307958.91346 103097116.52546  25177369.719    25177373.958    25177369.074
  25177373.330          37.250          38.000
 117822839.99547  91810018.35847  22420933.071    22420934.381    22420933.031
  22420933.940          45.500          45.000
 115261918.19748  89814485.19046  21933607.996                    21933607.969
  21933607.688          49.500          37.500
 16 10  7  1 39  0.0000000  0 12G25G03G12G32G01G22G18G10G14G08G31G11
 131411032.08546 102398205.92045  25006687.691    25006692.179    25006686.875
  25006690.706          37.750          34.000
 129306681.87246 100758455.56746  24606242.392    24606245.276    24606241.823
  24606245.280          39.500          38.000
 128182574.40046  99882528.96946  24392332.680    24392333.857    24392331.959
  24392331.877          41.000          38.000
 108137318.76549  84262866.61449  20577832.641    20577835.066    20577832.793
  20577834.758          55.750          54.000
 113834871.02148  88702492.47648  21662046.805    21662049.883    21662046.944
  21662049.761          51.000          50.000
 120337038.22547  93769123.15545  22899369.274                    22899368.066
  22899367.422          47.500          35.750
 129725779.32546 101085033.33842  24685987.851                    24685985.658
  24685988.903          37.000          16.000
 116320983.43948  90639735.05948  22135133.544    22135135.830    22135133.088
  22135135.731          50.000          49.000
 107854314.67748  84042329.88647  20523981.149                    20523980.582
  20523980.826          49.500          45.250
 132401252.31346 103169812.62446  25195122.211    25195127.577    25195121.416
  25195126.423          37.000          38.000
 117722775.27647  91732045.89347  22401891.220    22401891.979    22401891.476
  22401892.373          46.500          45.000
 115283474.75448  89831282.51046  21937710.240                    21937710.046
  21937709.502          50.000          37.250
 16 10  7  1 39 30.0000000  0 12G25G03G12G32G01G22G18G10G14G08G31G11
 131325472.57746 102331536.18845  24990407.031    24990408.171    24990405.982
  24990409.256          39.500          33.000
 129205315.62646 100679468.96646  24586952.962    24586955.425    24586952.521
  24586955.914          37.750          38.000
 128135337.09046  99845720.70546  24383341.713    24383343.491    24383343.075
  24383343.712          40.750          38.000
 108175087.68549  84292296.94449  20585019.686    20585022.263    20585019.898
  20585021.936          55.750          54.000
 113791644.17748  88668809.24148  21653820.758    21653823.859    21653820.837
  21653824.267          50.750          49.000
 120250943.92747  93702036.71245  22882985.400                    22882984.776
  22882983.927          47.000          35.250
 129819642.37246 101158173.33942  24703848.318                    24703847.912
  24703849.122          37.000          17.000
 116401220.62948  90702257.53148  22150402.059    22150404.504    22150402.360
  22150404.537          49.250          49.000
 107834246.34948  84026692.23647  20520162.309                    20520161.964
  20520162.016          49.250          45.000
 132494610.90446 103242559.53046  25212887.760    25212894.691    25212888.361
  25212894.189          37.750          40.000
 117623027.54947  91654320.45847  22382910.253    22382910.515    22382909.966
  22382910.506          47.000          44.000
 115305659.09048  89848569.00046  21941931.918                    21941931.704
  21941931.856          50.250          37.500
 16 10  7  1 40  0.0000000  0 12G25G03G12G32G01G22G18G10G14G08G31G11
 131240143.39046 102265045.95446  24974167.519    24974172.237    24974168.107
  24974172.222          36.250          37.000
 129103987.22146 100600511.86546  24567670.093    24567674.685    24567670.242
  24567672.992          38.750          39.000
 128088605.68846  99809306.69746  24374448.983    24374450.614    24374450.270
  24374451.106          41.000          38.000
 108213254.80449  84322037.56149  20592282.555    20592285.260    20592282.838
  20592285.008          55.500          54.000
 113748973.08448  88635559.06248  21645701.005    21645704.185    21645701.039
  21645704.197          51.000          50.000
 120164996.98247  93635065.07645  22866631.103                    22866628.947
  22866628.573          47.000          35.250
 129913610.85146 101231395.51442  24721731.974                    24721730.621
  24721729.700          39.500          15.750
 116481726.63448  90764989.48448  22165721.460    22165724.135    22165721.592
  22165724.113          48.750          49.000
 107814599.55348  84011383.05647  20516423.713                    20516423.326
  20516423.227          49.750          45.250
 132588031.68646 103315354.85146  25230665.390    25230670.475    25230664.654
  25230670.130          36.750          38.000
 117523599.35847  91576843.98647  22363989.783    22363989.708    22363990.091
  22363990.232          46.750          44.000
 115328470.13348  89866343.83646  21946272.831                    21946272.454
  21946272.415          49.750          37.500
 16 10  7  1 40 30.0000000  0 12G25G03G12G32G01G22G18G10G14G08G31G11
 131155047.75446 102198737.72146  24957975.164    24957979.268    24957975.469
  24957978.188          36.250          36.000
 129002697.87846 100521585.18246  24548395.165    24548398.572    24548395.476
  24548397.869          39.500          38.000
 128042381.76647  99773288.11246  24365653.850    24365654.887    24365654.164
  24365654.704          42.000          39.000
 108251818.74249  84352087.38649  20599621.283    20599624.016    20599621.386
  20599623.463          56.250          54.000
 113706859.39848  88602743.23548  21637687.143    21637690.219    21637687.151
  21637690.023          51.000          50.000
 120079198.30847  93568208.98645  22850303.271                    22850302.577
  22850301.971          46.500          35.250
 130007683.85746 101304699.17842  24739631.919                    24739631.416
  24739632.173          37.750          13.750
 116562500.53348  90827930.17648  22181092.430    22181095.210    22181092.340
  22181095.256          48.750          49.000
 107795374.08548  83996402.18347  20512765.169                    20512764.721
  20512764.806          50.500          45.250
 132681511.71946 103388196.41646  25248453.901    25248460.035    25248454.108
  25248460.316          37.000          38.000
 117424493.45947  91499618.64747  22345130.944    22345130.497    22345130.980
  22345129.980          47.000          45.000
 115351906.61948  89884606.02546  21950732.586                    21950731.877
  21950732.456          50.000          37.500
 16 10  7  1 41  0.0000000  0 12G25G17G03G12G32G01G22G18G10G14G31G11
 131070188.94346 102132614.06746  24941828.512    24941831.904    24941827.589
  24941832.446          36.500          38.000
 134439221.45145                  25582926.339    25582928.120
                        31.750          32.000
 128901448.75646 100442689.84446  24529128.073    24529131.375    24529128.467
  24529131.464          40.000          38.000
 127996667.33646  99737666.56146  24356954.420    24356954.978    24356954.779
  24356956.071          41.000          39.000
 108290778.17249  84382445.38849  20607034.908    20607037.446    20607035.072
  20607037.108          56.000          54.000
 113665304.77548  88570363.02348  21629779.146    21629782.326    21629779.459
  21629782.287          50.500          50.000
 119993549.61247  93501469.75345  22834005.409                    22834004.358
  22834003.615          47.250          35.500
 130101860.19646 101378083.30942  24757553.538                    24757553.036
  24757553.806          38.750          16.000
 116643541.42748  90891078.91148  22196513.932    22196516.647    22196513.861
  22196516.635          48.750          49.000
 107776569.69048  83981749.41447  20509186.879                    20509186.523
  20509186.530          50.000          45.250
 117325712.84847  91422646.78147  22326332.860    22326333.438    22326333.304
  22326333.690          46.750          45.000
 115375967.27748  89903354.58946  21955311.171                    21955310.510
  21955310.868          50.250          37.250
 16 10  7  1 41 30.0000000  0 12G25G17G03G12G32G01G22G18G10G14G31G11
 130985570.21645 102066677.43646  24925725.193    24925728.856    24925725.172
  24925730.118          35.750          38.000
 134389369.88545                  25573443.374    25573442.846
                        32.500          32.000
 128800241.06546 100363826.78446  24509868.912    24509871.609    24509868.234
  24509872.196          40.000          39.000
 127951464.96047  99702443.99946  24348354.182    24348354.030    24348353.102
  24348353.450          42.250          38.000
 108330131.68449  84413110.46449  20614523.451    20614526.023    20614523.610
  20614525.838          56.250          54.000
 113624310.83048  88538419.72248  21621978.357    21621981.350    21621978.609
  21621981.610          50.500          50.000
 119908052.02647  93434848.25245  22817735.296                    22817734.948
  22817733.747          47.000          35.500
 130196139.56545 101451547.79541  24775493.657                    24775492.365
  24775493.382          35.750          11.000
 116724848.38948  90954434.98548  22211985.903    22211988.005    22211986.286
  22211988.611          48.500          48.000
 107758186.14348  83967424.58447  20505688.513                    20505688.118
  20505688.131          50.750          45.250
 117227260.34547  91345930.60947  22307598.755    22307599.042    22307598.589
  22307598.054          47.000          45.000
 115400651.12748  89922588.74846  21960008.264                    21960007.383
  21960007.642          49.750          37.250
 16 10  7  1 42  0.0000000  0 12G25G17G03G12G32G01G22G18G10G14G31G11
 130901194.77646 102000930.43346  24909668.367    24909674.369    24909668.363
  24909671.781          36.250          39.000
 134339975.02345                  25564045.383    25564039.839
                        30.500          30.000
 128699076.02746 100284997.00446  24490617.786    24490621.569    24490618.257
  24490620.604          39.750          40.000
 127906776.85747  99667622.15146  24339849.980    24339850.990    24339849.763
  24339849.584          42.750          39.000
 108369877.88249  84444081.53149  20622087.098    20622089.712    20622087.172
  20622089.356          56.250          54.000
 113583879.17448  88506914.54548  21614284.618    21614287.814    21614284.428
  21614287.750          50.500          50.000
 119822706.83148  93368345.51045  22801495.138                    22801494.361
  22801493.466          48.000          35.750
 130290520.71246 101525091.55442  24793454.208                    24793453.100
  24793453.725          38.750          16.000
 116806420.44348  91017997.61648  22227508.708    22227511.337    22227508.886
  22227511.450          48.750          48.000
 107740223.19148  83953427.49547  20502270.283                    20502269.904
  20502270.139          50.500          45.250
 117129138.86247  91269472.35147  22288926.514    22288926.550    22288926.467
  22288926.258          47.000          45.000
 115425957.04148  89942307.62846  21964823.634                    21964823.513
  21964823.626          50.250          37.250
 16 10  7  1 42 30.0000000  0 12G25G17G03G12G32G01G22G18G10G14G31G11
 130817066.03446 101935375.64146  24893659.912    24893664.359    24893660.322
  24893663.308          38.500          39.000
 134291038.55745                  25554733.284    25554729.122
                        31.250          32.000
 128597954.82346 100206201.35646  24471374.690    24471378.283    24471375.088
  24471379.386          40.000          40.000
 127862605.36747  99633202.85546  24331444.679    24331444.100    24331444.188
  24331442.825          42.000          38.000
 108410015.41249  84475357.53349  20629725.073    20629727.820    20629725.098
  20629727.264          56.000          54.000
 113544011.39048  88475848.76048  21606697.644    21606701.046    21606697.976
  21606701.207          50.500          50.000
 119737515.50548  93301962.65246  22785283.482                    22785282.845
  22785281.828          48.250          36.250
 130385002.69546 101598713.84341  24811431.691                    24811430.207
  24811434.609          36.500          11.750
 116888256.69848  91081766.11248  22243081.869    22243084.477    22243081.960
  22243084.493          49.000          49.000
 107722680.79148  83939758.10647  20498932.105                    20498931.801
  20498931.690          49.750          45.250
 117031350.99747  91193274.06347  22270318.018    22270318.042    22270318.090
  22270318.022          47.500          45.000
 115451883.59348  89962510.13746  21969757.586                    21969757.374
  21969757.017          50.750          37.000
 16 10  7  1 43  0.0000000  0 12G25G17G03G12G32G01G22G18G10G14G31G11
 130733187.05846 101870015.45046  24877698.196    24877702.277    24877696.867
  24877701.522          38.250          40.000
 134242562.06045                  25545505.564    25545503.712
                        30.500          31.000
 128496878.69146 100127440.80946  24452141.808    24452144.857    24452141.765
  24452143.854          39.500          40.000
 127818952.75746  99599187.92746  24323135.409    24323136.888    24323136.910
  24323136.605          41.000          38.000
 108450542.87249  84506937.37549  20637437.013    20637439.698    20637437.186
  20637439.360          56.250          54.000
 113504709.04948  88445223.58148  21599219.023    21599222.063    21599218.911
  21599222.177          50.250          50.000
 119652479.64948  93235700.93046  22769102.253                    22769101.090
  22769100.192          49.000          36.750
 130479584.97446                  24829431.647
                        38.500
 116970356.17348  91145739.72248  22258704.837    22258707.002    22258704.822
  22258707.402          48.750          48.000
 107705558.60448  83926416.15847  20495673.954                    20495673.437
  20495673.537          50.250          45.000
 116933899.88647  91117338.16747  22251773.560    22251774.238    22251773.920
  22251773.576          47.250          45.000
 115478429.47548  89983195.23946  21974808.883                    21974808.185
  21974808.495          50.250          37.250
 16 10  7  1 43 30.0000000  0 12G25G17G03G12G32G01G22G18G10G14G31G11
 130649561.20746 101804852.53046  24861783.925    24861788.201    24861784.470
  24861789.095          38.500          40.000
 134194547.61445                  25536366.414    25536366.689
                        30.500          30.000
 128395848.84246 100048716.34846  24432914.645    24432918.524    24432915.399
  24432918.068          39.750          40.000
 127775820.41246  99565578.32146  24314928.200    24314928.946    24314927.879
  24314928.705          40.750          38.000
 108491458.89049  84538819.98749  20645223.003    20645225.890    20645223.284
  20645225.555          56.250          54.000
 113465973.69348  88415040.20948  21591847.416    21591850.698    21591847.548
  21591851.035          50.500          50.000
 119567600.79948  93169561.54746  22752949.922                    22752948.989
  22752948.390          49.000          37.250
 130574266.52946                  24847449.596
                        39.250
 117052717.95348  91209917.72248  22274377.509    22274380.443    22274377.670
  22274380.395          48.750          48.000
 107688856.44148  83913401.49747  20492495.505                    20492495.030
  20492495.232          50.000          45.500
 116836788.23947  91041666.79847  22233294.034    22233294.599    22233293.301
  22233294.142          47.500          46.000
 115505593.59948  90004362.07846  21979978.014                    21979977.470
  21979977.810          50.000          37.250
 16 10  7  1 44  0.0000000  0 12G25G17G03G12G32G01G22G18G10G14G31G11
 130566191.74646 101739889.37346  24845918.811    24845925.032    24845919.663
  24845924.987          38.750          40.000
 134146996.30845                  25527320.703    25527321.001
                        33.750          31.000
 128294866.54446  99970028.89946  24413699.271    24413702.472    24413698.703
  24413702.354          40.250          41.000
 127733211.11946  99532376.31146  24306820.292    24306820.762    24306820.732
  24306820.237          41.750          38.000
 108532762.06049  84571004.27949  20653082.711    20653085.674    20653083.019
  20653085.327          57.000          54.000
 113427806.89648  88385299.86048  21584584.891    21584587.844    21584584.621
  21584587.512          50.250          50.000
 119482880.03348  93103545.38346  22736828.363                    22736827.412
  22736826.532          49.000          36.750
 130669046.54546                  24865484.445
                        38.500
 117135341.05648  91274299.34948  22290100.549    22290102.969    22290100.574
  22290103.185          48.500          48.000
 107672574.06848  83900713.94347  20489397.234                    20489396.522
  20489396.700          50.500          45.250
 116740018.84647  90966262.13147  22214878.897    22214879.224    22214878.837
  22214879.645          47.750          46.000
 115533374.19748  90026009.28446  21985264.350                    21985264.026
  21985264.434          50.500          37.500
 16 10  7  1 44 30.0000000  0 12G25G17G03G12G32G01G22G18G10G14G31G11
 130483081.89746 101675128.49146  24830104.177    24830108.579    24830103.579
  24830109.344          39.250          40.000
 134099910.05345                  25518358.071    25518359.792
                        32.500          32.000
 128193932.96946  99891379.43246  24394492.272    24394495.071    24394491.844
  24394495.353          40.500          41.000
 127691127.49747  99499583.93646  24298812.096    24298813.696    24298812.297
  24298812.720          42.000          39.000
 108574450.97849  84603489.15049  20661015.852    20661018.648    20661016.180
  20661018.291          56.500          54.000
 113390210.11748  88356003.68448  21577430.477    21577433.356    21577430.297
  21577433.259          50.500          50.000
 119398318.80948  93037653.49246  22720736.537                    22720735.839
  22720734.931          48.750          36.750
 130763923.68046                  24883538.958
                        38.500
 117218224.56448  91338883.88248  22305872.798    22305875.156    22305872.597
  22305874.840          48.500          48.000
 107656710.83548  83888352.99647  20486378.477                    20486377.802
  20486377.972          50.250          45.250
 116643594.53447  90891126.35047  22196529.714    22196530.339    22196529.785
  22196530.056          47.500          46.000
 115561770.17348  90048136.02046  21990667.960                    21990667.932
  21990668.320          50.250          37.500
 16 10  7  1 45  0.0000000  0 12G25G17G03G12G32G01G22G18G10G14G31G11
 130400234.83646 101610572.42046  24814338.576    24814343.639    24814338.373
  24814343.015          39.250          39.000
 134053289.16044                  25509487.262    25509489.024
                        29.750          28.000
 128093049.38746  99812768.92447  24375294.917    24375298.049    24375295.049
  24375298.290          40.500          42.000
 127649570.84847  99467202.19146  24290904.612    24290904.678    24290904.431
  24290904.535          42.500          38.000
 108616524.24949  84636273.52849  20669022.424    20669024.956    20669022.468
  20669024.650          56.500          54.000
 113353184.85948  88327152.85548  21570384.396    21570387.663    21570384.429
  21570387.801          50.500          50.000
 119313918.69748  92971887.17846  22704676.223                    22704675.225
  22704674.071          49.250          36.750
 130858897.63245                  24901612.576
                        34.250
 117301367.49348  91403670.58648  22321694.415    22321696.639    22321694.405
  22321696.779          48.500          48.000
 107641266.45748  83876318.42647  20483439.577                    20483438.736
  20483438.995          49.250          45.250
 116547518.03747  90816261.59347  22178246.844    22178248.015    22178247.267
  22178247.729          47.250          46.000
 115590780.26948  90070741.28846  21996188.672                    21996188.306
  21996188.434          50.500          37.500
 16 10  7  1 45 30.0000000  0 12G25G17G03G12G32G01G22G18G10G14G31G11
 130317653.92646 101546223.66046  24798623.915    24798629.255    24798624.158
  24798628.323          39.000          39.000
 134007137.67345                  25500705.588    25500704.935
                        30.500          32.000
 127992217.01146  99734198.30146  24356107.360    24356110.096    24356106.854
  24356109.801          41.500          41.000
 127608543.22547  99435232.65246  24283096.692    24283097.411    24283097.783
  24283096.417          42.250          39.000
 108658980.43549  84669356.27549  20677101.367    20677104.063    20677101.657
  20677103.690          56.250          54.000
 113316732.62648  88298748.53048  21563448.184    21563451.007    21563448.041
  21563451.155          50.250          50.000
 119229681.04148  92906247.45046  22688646.150                    22688644.993
  22688644.469          48.500          36.000
 130953967.44145                  24919702.281
                        34.500
 117384768.91548  91468658.69448  22337564.847    22337567.413    22337565.258
  22337567.649          48.000          48.000
 107626241.17648  83864610.42547  20480580.105                    20480579.673
  20480579.820          50.000          45.250
 116451792.50647  90741670.31447  22160031.145    22160031.480    22160031.194
  22160031.381          47.250          46.000
 115620403.13148  90093824.02146  22001825.870                    22001825.238
  22001825.218          50.750          37.500
 16 10  7  1 46  0.0000000  0 11G25G17G03G12G32G01G22G10G14G31G11
 130235342.30146 101482084.80446  24782961.544    24782965.673    24782960.631
  24782965.720          41.000          39.000
 133961455.59345                  25492015.566    25492011.654
                        33.000          31.000
 127891437.19146  99655668.64247  24336929.296    24336932.052    24336928.268
  24336932.030          40.750          42.000
 127568046.89847  99403677.06846  24275391.290    24275391.521    24275390.566
  24275391.873          42.000          39.000
 108701818.19349  84702736.35249  20685253.088    20685255.787    20685253.356
  20685255.463          56.000          54.000
 113280854.87848  88270791.85348  21556621.025    21556623.549    21556620.821
  21556623.628          50.250          50.000
 119145607.45948  92840735.57546  22672647.481                    22672646.313
  22672645.605          49.000          37.000
 117468427.84548  91533847.46348  22353485.020    22353487.456    22353484.820
  22353487.293          48.000          48.000
 107611634.57248  83853228.66447  20477800.591                    20477800.136
  20477800.234          49.500          45.750
 116356420.23147  90667354.30347  22141882.425    22141883.448    22141882.072
  22141883.108          46.750          46.000
 115650637.03948  90117382.89246  22007578.694                    22007578.628
  22007578.805          50.000          36.500
 16 10  7  1 46 30.0000000  0 11G25G17G03G12G32G01G22G10G14G31G11
 130153303.27746 101418158.30746  24767349.768    24767354.360    24767349.227
  24767354.016          38.250          39.000
 133916244.58545                  25483408.110    25483409.795
                        31.250          30.000
 127790711.15546  99577180.87847  24317760.973    24317765.925    24317761.318
  24317765.691          40.500          42.000
 127528083.68547  99372536.94646  24267785.650    24267785.641    24267785.881
  24267785.970          42.000          39.000
 108745036.06949  84736412.62549  20693477.245    20693479.793    20693477.416
  20693479.494          56.750          54.000
 113245553.04048  88243283.94548  21549903.056    21549906.149    21549903.021
  21549906.338          50.500          50.000
 119061699.12648  92775352.48046  22656680.485                    22656679.449
  22656678.679          49.000          37.000
 117552343.32448  91599236.13748  22369453.584    22369455.490    22369453.880
  22369456.011          48.250          48.000
 107597446.27148  83842172.85047  20475100.600                    20475100.253
  20475100.314          50.250          45.500
 116261404.19048  90593315.88847  22123801.367    22123802.256    22123801.356
  22123802.139          48.500          47.000
 115681480.56848  90141416.80446  22013448.490                    22013447.588
  22013447.928          50.750          36.750
 16 10  7  1 47  0.0000000  0 11G25G17G03G12G32G01G22G10G14G31G11
 130071540.07046 101354446.74646  24751790.350    24751794.848    24751789.768
  24751794.199          39.250          38.000
 133871506.39845                  25474895.473    25474897.057
                        32.250          31.000
 127690040.18146  99498736.00247  24298603.323    24298607.971    24298602.855
  24298607.835          39.250          42.000
 127488655.92446  99341814.04646  24260282.635    24260283.507    24260282.632
  24260282.223          41.750          38.000
 108788632.65349  84770383.99749  20701773.268    20701776.039    20701773.511
  20701775.629          56.500          54.000
 113210828.52148  88216225.89848  21543295.111    21543297.973    21543295.109
  21543298.424          50.750          50.000
 118977957.35748  92710099.16746  22640744.481                    22640743.628
  22640742.767          49.000          37.250
 117636514.38047  91664823.95548  22385469.964    22385473.285    22385470.431
  22385473.199          47.750          48.000
 107583675.77548  83831442.60447  20472480.281                    20472479.882
  20472479.843          50.500          45.250
 116166747.24847  90519557.27147  22105788.774    22105789.603    22105788.511
  22105789.131          47.750          46.000
 115712932.21248  90165924.56346  22019433.328                    22019432.677
  22019432.939          50.250          36.750
