     2.11           OBSERVATION DATA    M (MIXED)           RINEX VERSION / TYPE
teqc  2016Apr1      anonyme             20160921 14:34:42UTCPGM / RUN BY / DATE
Linux 2.4.21-27.ELsmp|Opteron|gcc|Linux x86_64|=+           COMMENT
teqc  2012Jun6      Univ. of Patras     20130102 00:02:29UTCCOMMENT
Linux 2.4.20-8|Pentium IV|gcc|Linux|486/DX+                 COMMENT
BIT 2 OF LLI FLAGS DATA COLLECTED UNDER A/S CONDITION       COMMENT
PAT0                                                        MARKER NAME
12622M001                                                   MARKER NUMBER
AUTOMATIC           CNRS/INSU                               OBSERVER / AGENCY
T225122             TPS GB-1000         3.3 Dec,22,2008 p6  REC # / TYPE / VERS
15909               ASH700936E      NONE                    ANT # / TYPE
  4655001.6673  1860618.9745  3930280.4880                  APPROX POSITION XYZ
        0.0000        0.0000        0.0000                  ANTENNA: DELTA H/E/N
     1     1                                                WAVELENGTH FACT L1/2
     7    L1    L2    C1    P1    P2    S1    S2            # / TYPES OF OBSERV
    30.0000                                                 INTERVAL
    16                                                      LEAP SECONDS
Forced Modulo Decimation to 30 seconds                      COMMENT
 SNR is mapped to RINEX snr flag value [0-9]                COMMENT
  L1 & L2: min(max(int(snr_dBHz/6), 0), 9)                  COMMENT
pseudorange smoothing corrections not applied               COMMENT
rx board ID: 8QHBHXXIO74                                    COMMENT
teqc edited: all GLONASS satellites excluded                COMMENT
teqc edited: all SBAS satellites excluded                   COMMENT
teqc edited: all Galileo satellites excluded                COMMENT
teqc edited: all Compass satellites excluded                COMMENT
teqc edited: all QZSS satellites excluded                   COMMENT
  2013     1     1     0     0    0.0000000     GPS         TIME OF FIRST OBS
                                                            END OF HEADER
 13  1  1  0  0  0.0000000  0  9G25G02G14G24G04G12G17G09G15
 124329978.646 7  96880495.31644  23659202.608    23659203.405    23659207.504
        42.000          27.0004
 126258548.761 7  98383286.52944  24026202.206    24026202.269    24026202.330
        42.000          27.0004
 128194049.172 6  99891457.49443  24394512.969    24394512.927    24394514.578
        40.000          20.0004
 107091961.017 8  83448296.60547  20378923.924    20378924.203    20378927.733
        52.000          47.0004
 121899567.018 7  94986652.95244  23196709.179    23196708.727    23196711.744
        42.000          26.0004
 111334093.147 8  86753830.57347  21186161.655    21186161.905    21186162.581
        51.000          42.0004
 124105643.664 7  96705697.27545  23616511.550    23616512.712    23616513.189
        44.000          31.0004
 107588166.478 8  83834941.70147  20473342.197    20473342.290    20473344.023
        52.000          44.0004
 121693901.612 7  94826417.17445  23157580.300    23157581.485    23157583.318
        44.000          32.0004
 13  1  1  0  0 30.0000000  0  9G25G02G14G24G04G12G17G09G15
 124164556.458 7  96751594.91744  23627724.077    23627723.999    23627729.219
        42.000          27.0004
 126087953.006 7  98250354.78544  23993739.062    23993739.098    23993739.065
        42.000          27.0004
 128021820.236 6  99757253.13343  24361739.742    24361738.892    24361740.293
        40.000          21.0004
 106994530.972 8  83372377.09347  20360383.840    20360384.088    20360387.494
        52.000          47.0004
 121765464.364 7  94882157.40344  23171189.543    23171189.923    23171191.890
        44.000          26.0004
 111209057.016 8  86656399.83047  21162368.175    21162368.732    21162369.070
        52.000          42.0004
 124104175.375 7  96704553.12845  23616232.922    23616232.741    23616233.999
        44.000          30.0004
 107545061.877 8  83801353.69347  20465139.768    20465139.732    20465141.409
        52.000          44.0004
 121699840.045 7  94831044.51345  23158710.738    23158711.363    23158713.114
        44.000          31.0004
 13  1  1  0  1  0.0000000  0  9G25G02G14G24G04G12G17G09G15
 123999260.943 6  96622793.24144  23596268.281    23596269.075    23596274.822
        41.000          28.0004
 125917455.382 7  98117499.49144  23961294.849    23961295.006    23961294.480
        44.000          28.0004
 127849945.683 6  99623324.90443  24329032.930    24329032.731    24329031.500
        40.000          20.0004
 106897531.690 8  83296793.23247  20341925.249    20341925.572    20341929.219
        53.000          47.0004
 121631831.284 7  94778027.73544  23145759.321    23145760.321    23145762.401
        43.000          27.0004
 111084272.860 8  86559165.42647  21138622.588    21138622.959    21138623.448
        52.000          43.0004
 124102934.524 7  96703586.22445  23615997.646    23615996.680    23615997.915
        44.000          30.0004
 107502426.177 8  83768131.06847  20457026.190    20457026.507    20457028.001
        52.000          43.0004
 121705957.893 7  94835811.65145  23159874.240    23159875.603    23159877.157
        42.000          32.0004
 13  1  1  0  1 30.0000000  0  9G25G02G14G24G04G12G17G09G15
 123834092.374 6  96494090.47544  23564838.550    23564838.587    23564843.724
        41.000          28.0004
 125747058.954 7  97984723.08244  23928868.973    23928869.757    23928869.030
        43.000          27.0004
 127678427.648 6  99489674.50743  24296393.593    24296393.313    24296394.113
        38.000          19.0004
 106800963.800 8  83221545.51448  20323549.084    20323549.560    20323553.055
        53.000          48.0004
 121498670.304 7  94674265.94644  23120419.733    23120420.087    23120422.691
        42.000          27.0004
 110959740.421 8  86462127.16547  21114924.809    21114925.252    21114925.545
        52.000          42.0004
 124101918.767 7  96702794.71644  23615803.546    23615803.481    23615804.242
        43.000          29.0004
 107460259.294 8  83735273.75747  20449002.482    20449002.668    20449004.175
        52.000          43.0004
 121712252.331 7  94840716.37045  23161072.580    23161073.248    23161074.544
        44.000          32.0004
 13  1  1  0  2  0.0000000  0  9G25G02G14G24G04G12G17G09G15
 123669050.785 7  96365486.65944  23533432.946    23533431.920    23533436.898
        42.000          29.0004
 125576766.220 7  97852027.45244  23896462.853    23896463.426    23896463.386
        42.000          27.0004
 127507268.639 6  99356303.82943  24263823.132    24263822.303    24263824.125
        39.000          20.0004
 106704829.176 8  83146635.41348  20305255.414    20305255.878    20305259.235
        52.000          48.0004
 121365983.656 7  94570873.76444  23095171.039    23095171.078    23095173.610
        42.000          28.0004
 110835459.160 8  86365284.62647  21091274.660    21091274.937    21091275.476
        50.000          42.0004
 124101125.508 7  96702176.58244  23615652.153    23615653.306    23615653.300
        43.000          29.0004
 107418560.408 8  83702781.11247  20441067.275    20441066.900    20441069.122
        52.000          43.0004
 121718720.524 7  94845756.52245  23162302.519    23162305.360    23162305.051
        46.000          32.0004
 13  1  1  0  2 30.0000000  0  9G25G02G14G24G04G12G17G09G15
 123504137.348 6  96236982.70444  23502050.247    23502049.520    23502055.429
        41.000          28.0004
 125406581.096 7  97719415.68544  23864078.207    23864077.777    23864078.021
        43.000          27.0004
 127336472.109 6  99223215.64543  24231322.227    24231321.576    24231322.701
        40.000          21.0004
 106609129.859 9  83072064.51147  20287044.566    20287044.591    20287048.076
        54.000          47.0004
 121233774.940 7  94467854.01344  23070013.017    23070012.530    23070015.331
        44.000          28.0004
 110711430.003 8  86268638.53147  21067672.844    21067673.067    21067673.578
        53.000          43.0004
 124100553.222 7  96701730.62544  23615542.770    23615544.734    23615544.550
        43.000          29.0004
 107377330.185 8  83670653.66147  20433221.638    20433221.132    20433223.225
        53.000          44.0004
 121725360.233 7  94850930.32545  23163566.853    23163568.087    23163567.891
        46.000          31.0004
 13  1  1  0  3  0.0000000  0  9G25G02G14G24G04G12G17G09G15
 123339350.350 6  96108577.31744  23470692.759    23470691.766    23470697.693
        40.000          28.0004
 125236504.652 7  97586888.60044  23831713.707    23831713.829    23831713.861
        43.000          28.0004
 127166039.034 6  99090410.64743  24198889.364    24198889.205    24198890.476
        40.000          21.0004
 106513864.615 8  82997831.84747  20268915.941    20268916.220    20268919.606
        53.000          47.0004
 121102044.689 7  94365207.07444  23044945.327    23044945.641    23044947.281
        44.000          28.0004
 110587650.891 8  86172187.27247  21044118.665    21044118.709    21044119.024
        51.000          43.0004
 124100198.362 7  96701454.10144  23615475.047    23615476.796    23615477.355
        45.000          29.0004
 107336566.657 8  83638889.86047  20425464.509    20425464.383    20425466.288
        52.000          43.0004
 121732167.332 7  94856234.55545  23164862.880    23164863.108    23164864.005
        44.000          31.0004
 13  1  1  0  3 30.0000000  0  9G25G02G14G24G04G12G17G09G15
 123174691.044 6  95980271.39644  23439359.456    23439357.804    23439363.273
        38.000          26.0004
 125066540.599 7  97454449.06944  23799371.168    23799370.989    23799370.627
        43.000          27.0004
 126995972.675 6  98957891.41343  24166526.586    24166527.075    24166527.779
        40.000          20.0004
 106419036.450 8  82923939.76848  20250870.773    20250871.004    20250874.535
        52.000          48.0004
 120970796.459 7  94262935.73544  23019969.257    23019969.966    23019972.078
        44.000          28.0004
 110464122.748 8  86075931.57847  21020612.065    21020612.317    21020612.374
        51.000          43.0004
 124100059.367 7  96701345.76444  23615449.648    23615449.732    23615451.023
        43.000          29.0004
 107296270.420 8  83607490.18947  20417796.284    20417796.583    20417797.956
        52.000          43.0004
 121739140.136 7  94861667.88445  23166189.977    23166188.892    23166190.411
        42.000          30.0004
 13  1  1  0  4  0.0000000  0  9G25G02G14G24G04G12G17G09G15
 123010159.241 6  95852064.82744  23408048.450    23408048.531    23408053.219
        39.000          24.0004
 124896691.532 7  97322099.15744  23767049.752    23767049.834    23767049.635
        43.000          27.0004
 126826275.384 6  98825659.77143  24134234.373    24134234.292    24134234.539
        38.000          20.0004
 106324645.860 9  82850388.65747  20232908.946    20232909.169    20232912.745
        54.000          47.0004
 120840032.058 7  94161041.39844  22995085.616    22995086.056    22995087.822
        44.000          28.0004
 110340844.968 8  85979870.97647  20997152.979    20997153.375    20997153.801
        51.000          43.0004
 124100133.483 7  96701403.51244  23615462.942    23615463.582    23615464.670
        42.000          29.0004
 107256440.811 8  83576454.12347  20410216.908    20410217.118    20410218.973
        51.000          43.0004
 121746275.472 7  94867227.88345  23167548.078    23167546.500    23167548.266
        43.000          30.0004
 13  1  1  0  4 30.0000000  0  9G25G02G14G24G04G12G17G09G15
 122845754.801 6  95723957.49944  23376763.816    23376763.506    23376768.144
        39.000          24.0004
 124726960.027 7  97189840.84744  23734751.200    23734751.417    23734750.946
        44.000          29.0004
 126656949.293 6  98693717.33443  24102012.941    24102013.259    24102013.292
        36.000          19.0004
 106230693.568 9  82777179.07247  20215030.471    20215030.849    20215034.338
        54.000          47.0004
 120709753.730 7  94059525.81944  22970294.564    22970295.786    22970296.474
        46.000          28.0004
 110217816.829 8  85884004.90047  20973741.209    20973741.490    20973742.371
        50.000          43.0004
 124100418.171 7  96701625.32344  23615518.104    23615517.577    23615518.799
        43.000          29.0004
 107217076.923 8  83545780.95747  20402726.317    20402726.451    20402728.286
        53.000          43.0004
 121753569.980 7  94872911.89945  23168936.074    23168934.583    23168936.636
        43.000          31.0004
 13  1  1  0  5  0.0000000  0  9G25G02G14G24G04G12G17G09G15
 122681477.240 6  95595949.02844  23345502.734    23345502.708    23345507.634
        39.000          26.0004
 124557348.110 7  97057675.72844  23702475.056    23702475.384    23702475.164
        45.000          29.0004
 126487996.345 6  98562065.70243  24069861.160    24069861.916    24069863.217
        38.000          19.0004
 106137179.734 8  82704311.14547  20197235.152    20197235.688    20197239.349
        53.000          47.0004
 120579963.096 7  93958390.25444  22945596.169    22945597.147    22945598.841
        45.000          28.0004
 110095038.060 8  85788333.13747  20950377.442    20950377.371    20950378.082
        52.000          43.0004
 124100910.659 7  96702009.07044  23615612.387    23615611.122    23615612.266
        42.000          29.0004
 107178177.796 8  83515469.94547  20395324.011    20395324.076    20395326.150
        52.000          44.0004
 121761020.366 7  94878717.40145  23170353.425    23170353.506    23170354.745
        45.000          32.0004
 13  1  1  0  5 30.0000000  0  9G25G02G14G24G04G12G17G09G15
 122517326.803 6  95468039.62244  23314266.031    23314266.019    23314271.260
        40.000          27.0004
 124387858.911 7  96925606.22444  23670221.995    23670221.984    23670222.183
        43.000          28.0004
 126319419.082 6  98430706.79143  24037783.437    24037783.693    24037783.771
        38.000          19.0004
 106044106.481 8  82631786.52447  20179524.043    20179524.234    20179527.969
        53.000          47.0004
 120450662.496 7  93857636.55744  22920990.317    22920992.004    22920993.701
        45.000          27.0004
 109972507.987 8  85692855.15947  20927060.624    20927060.964    20927061.579
        51.000          43.0004
 124101608.443 7  96702552.77644  23615744.677    23615744.390    23615744.634
        43.000          29.0004
 107139742.840 8  83485520.62447  20388009.983    20388009.947    20388012.215
        51.000          43.0004
 121768624.212 7  94884642.47945  23171800.024    23171800.314    23171801.073
        44.000          30.0004
 13  1  1  0  6  0.0000000  0  9G25G02G14G24G04G12G17G09G15
 122353302.673 6  95340228.63944  23283053.396    23283053.515    23283059.268
        41.000          28.0004
 124218493.913 7  96793633.51444  23637992.220    23637992.077    23637992.615
        42.000          26.0004
 126151218.911 6  98299641.76143  24005776.088    24005774.990    24005776.172
        38.000          18.0004
 105951473.117 8  82559604.67448  20161896.551    20161896.873    20161900.206
        51.000          48.0004
 120321853.351 7  93757265.79044  22896479.493    22896479.965    22896481.913
        45.000          27.0004
 109850225.338 8  85597569.97647  20903791.303    20903791.516    20903792.171
        51.000          43.0004
 124102508.275 7  96703253.92344  23615916.418    23615915.285    23615916.309
        42.000          29.0004
 107101770.730 8  83455931.96347  20380784.306    20380784.436    20380786.461
        50.000          43.0004
 121776377.651 7  94890684.11845  23173275.425    23173275.445    23173276.636
        44.000          30.0004
 13  1  1  0  6 30.0000000  0  9G25G02G14G24G04G12G17G09G15
 122189408.580 6  95212518.98144  23251865.210    23251865.111    23251870.936
        40.000          28.0004
 124049259.672 7  96661762.67944  23605788.249    23605788.658    23605788.281
        43.000          27.0004
 125983401.906 6  98168875.24643  23973840.347    23973841.150    23973841.941
        38.000          19.0004
 105859285.030 8  82487769.80048  20144353.714    20144353.943    20144357.361
        51.000          48.0004
 120193541.635 7  93657282.61144  22872062.485    22872062.563    22872064.910
        43.000          27.0004
 109728194.016 8  85502480.64247  20880569.382    20880569.783    20880570.076
        52.000          43.0004
 124103611.340 7  96704113.43344  23616125.867    23616125.345    23616126.052
        42.000          28.0004
 107064264.816 8  83426706.56447  20373647.181    20373647.287    20373649.019
        51.000          44.0004
 121784281.063 7  94896842.61445  23174778.423    23174780.020    23174781.584
        43.000          31.0004
 13  1  1  0  7  0.0000000  0  9G25G02G14G24G04G12G17G09G15
 122025641.796 6  95084908.54244  23220702.095    23220701.916    23220706.703
        40.000          28.0004
 123880156.216 7  96529993.75144  23573609.031    23573608.703    23573608.734
        42.000          27.0004
 125815967.687 6  98038407.04143  23941978.137    23941979.596    23941979.872
        38.000          18.0004
 105767539.970 9  82416280.14347  20126894.883    20126895.642    20126898.914
        55.000          47.0004
 120065726.639 7  93557686.52544  22847740.451    22847740.249    22847742.544
        44.000          26.0004
 109606410.494 8  85407584.39347  20857394.542    20857395.035    20857395.177
        53.000          44.0004
 124104913.060 6  96705127.73244  23616373.574    23616373.001    23616373.853
        40.000          28.0004
 107027221.566 8  83397841.68847  20366597.965    20366597.928    20366599.932
        52.000          42.0004
 121792329.609 7  94903114.18945  23176310.789    23176311.835    23176312.653
        45.000          30.0004
 13  1  1  0  7 30.0000000  0  9G25G02G14G24G04G12G17G09G15
 121862002.958 6  94957397.77144  23189562.371    23189562.291    23189566.984
        40.000          27.0004
 123711186.830 7  96398329.29244  23541455.462    23541455.111    23541455.157
        44.000          27.0004
 125648918.969 6  97908239.22243  23910190.196    23910190.650    23910192.404
        37.000          19.0004
 105676239.531 8  82345136.93747  20109521.183    20109521.454    20109525.082
        53.000          47.0004
 119938411.146 7  93458479.65344  22823513.072    22823513.192    22823514.798
        44.000          27.0004
 109484875.248 8  85312881.61247  20834267.240    20834267.450    20834267.849
        51.000          43.0004
 124106410.822 7  96706294.80344  23616658.034    23616658.057    23616659.014
        43.000          28.0004
 106990640.951 8  83369337.30647  20359636.795    20359636.977    20359638.679
        53.000          42.0004
 121800520.544 7  94909496.74245  23177870.319    23177871.471    23177871.774
        46.000          32.0004
 13  1  1  0  8  0.0000000  0  9G25G02G14G24G04G12G17G09G15
 121698492.657 6  94829987.20344  23158447.596    23158447.492    23158451.964
        41.000          27.0004
 123542355.076 7  96266772.07944  23509327.813    23509327.458    23509327.258
        43.000          27.0004
 125482259.010 6  97778374.28843  23878476.673    23878476.553    23878477.568
        37.000          19.0004
 105585385.523 8  82274341.59647  20092232.493    20092232.634    20092236.145
        51.000          46.0004
 119811597.622 7  93359663.91844  22799381.425    22799381.877    22799382.601
        45.000          26.0004
 109363588.341 8  85218372.32647  20811187.171    20811187.354    20811187.928
        51.000          43.0004
 124108102.933 7  96707613.31144  23616979.744    23616979.957    23616981.902
        42.000          28.0004
 106954522.893 8  83341193.36547  20352763.787    20352763.802    20352765.735
        51.000          42.0004
 121808851.351 7  94915988.28045  23179454.582    23179456.388    23179457.657
        45.000          31.0004
 13  1  1  0  8 30.0000000  0  9G25G02G14G24G04G12G17G09G15
 121535110.772 6  94702676.66044  23127357.144    23127356.413    23127360.855
        41.000          27.0004
 123373663.024 7  96135323.72744  23477227.029    23477226.177    23477226.214
        44.000          27.0004
 125315989.839 6  97648813.90543  23846837.027    23846836.248    23846837.642
        36.000          19.0004
 105494978.457 8  82203894.53147  20075028.328    20075028.790    20075032.184
        53.000          47.0004
 119685288.234 7  93261241.02044  22775345.242    22775346.419    22775347.089
        44.000          26.0004
 109242548.822 8  85124055.82647  20788153.858    20788154.328    20788155.067
        52.000          44.0004
 124109987.351 6  96709081.65144  23617339.143    23617338.268    23617340.686
        41.000          28.0004
 106918866.672 8  83313409.29047  20345978.732    20345978.738    20345980.757
        53.000          43.0004
 121817319.412 7  94922586.74045  23181065.946    23181068.074    23181068.542
        45.000          31.0004
 13  1  1  0  9  0.0000000  0  9G25G02G14G24G04G12G17G09G15
 122947282.727 6  95803070.39744  23396084.168    23396084.148    23396088.830
        41.000          27.0004
 124780539.240 7  97231590.92144  23744946.179    23744945.816    23744946.249
        43.000          28.0004
 126725539.091 6  98747163.98143  24115065.433    24115064.932    24115065.138
        37.000          20.0004
 106980442.028 9  83361398.61248  20357702.833    20357703.084    20357706.479
        54.000          48.0004
 121134909.052 7  94390815.70344  23051198.957    23051199.147    23051201.140
        43.000          26.0004
 110697181.125 8  86257535.55047  21064961.302    21064961.560    21064962.161
        51.000          42.0004
 125687481.562 6  97938297.90544  23917526.151    23917525.507    23917527.506
        41.000          28.0004
 108459092.755 8  84513585.45447  20639074.143    20639074.130    20639075.958
        52.000          42.0004
 123401341.282 7  96156889.50345  23482496.181    23482496.711    23482497.546
        43.000          31.0004
 13  1  1  0  9 30.0000000  0  9G25G02G14G24G04G12G17G09G15
 122784158.162 7  95675960.35044  23365042.849    23365042.340    23365046.860
        44.000          28.0004
 124612135.460 7  97100367.21144  23712900.499    23712899.974    23712899.959
        44.000          28.0004
 126560058.457 6  98618218.04643  24083575.276    24083574.791    24083574.882
        38.000          20.0004
 106890931.750 8  83291650.33747  20340669.469    20340669.831    20340673.245
        53.000          47.0004
 121009614.363 7  94293183.48844  23027355.755    23027356.160    23027358.148
        42.000          26.0004
 110576636.469 8  86163604.66347  21042022.408    21042022.873    21042023.021
        51.000          44.0004
 125689743.511 7  97940060.43844  23917956.712    23917956.538    23917957.982
        44.000          29.0004
 108424358.457 8  84486519.76447  20632464.428    20632464.210    20632466.194
        51.000          43.0004
 123410075.194 7  96163695.14645  23484157.741    23484158.088    23484160.311
        42.000          30.0004
 13  1  1  0 10  0.0000000  0  9G25G02G14G24G04G12G17G09G15
 122621162.048 7  95548950.42844  23334025.686    23334025.042    23334029.814
        42.000          28.0004
 124443879.721 7  96969258.85644  23680882.529    23680882.448    23680881.833
        43.000          29.0004
 126394975.504 6  98489581.97343  24052161.492    24052161.379    24052161.260
        39.000          20.0004
 106801871.679 9  83222252.87947  20323721.949    20323722.244    20323725.813
        54.000          47.0004
 120884829.979 7  94195948.90944  23003610.294    23003610.456    23003613.109
        42.000          27.0004
 110456338.972 9  86069866.36347  21019130.455    21019130.995    21019131.059
        54.000          43.0004
 125692189.842 7  97941966.66444  23918422.425    23918421.962    23918423.237
        43.000          29.0004
 108390083.886 8  84459812.29447  20625941.872    20625942.067    20625944.100
        52.000          43.0004
 123418937.605 7  96170600.89845  23485844.913    23485845.056    23485845.982
        43.000          31.0004
 13  1  1  0 10 30.0000000  0  9G25G02G14G24G04G12G17G09G15
 122458294.616 7  95422040.76844  23303032.772    23303032.740    23303037.697
        42.000          28.0004
 124275774.893 7  96838268.09944  23648892.918    23648892.279    23648892.026
        44.000          29.0004
 126230292.487 6  98361257.57043  24020822.004    24020822.508    24020824.658
        37.000          21.0004
 106713262.161 8  83153206.49447  20306859.910    20306860.463    20306864.018
        53.000          47.0004
 120760557.808 7  94099113.46044  22979962.133    22979962.212    22979965.341
        42.000          27.0004
 110336288.308 8  85976320.40047  20996285.637    20996285.980    20996286.207
        50.000          43.0004
 125694818.948 7  97944015.29644  23918923.322    23918922.634    23918923.526
        43.000          28.0004
 108356268.392 8  84433462.55047  20619507.192    20619507.412    20619509.201
        52.000          42.0004
 123427925.719 7  96177604.62544  23487554.664    23487554.803    23487555.774
        43.000          29.0004
 13  1  1  0 11  0.0000000  0  9G25G02G14G24G04G12G17G09G15
 122295555.940 7  95295231.44344  23272064.892    23272064.731    23272069.662
        43.000          29.0004
 124107823.582 7  96707396.94944  23616933.205    23616932.375    23616932.515
        42.000          29.0004
 126066011.636 6  98233246.50443  23989560.647    23989560.010    23989562.505
        38.000          21.0004
 106625104.156 8  83084511.93747  20290084.194    20290084.578    20290088.105
        53.000          46.0004
 120636800.113 7  94002678.89744  22956411.907    22956412.109    22956414.348
        44.000          27.0004
 110216483.662 8  85882966.12947  20973487.775    20973487.952    20973488.509
        53.000          44.0004
 125697628.042 7  97946204.19544  23919457.510    23919457.537    23919457.553
        43.000          28.0004
 108322911.256 8  84407469.97247  20613159.574    20613159.830    20613161.350
        53.000          43.0004
 123437036.624 7  96184704.01644  23489288.834    23489287.891    23489289.956
        42.000          28.0004
 13  1  1  0 11 30.0000000  0  9G25G02G14G24G04G12G17G09G15
 122132944.830 7  95168521.49145  23241120.754    23241120.887    23241125.860
        44.000          30.0004
 123940027.280 7  96576646.60444  23585002.224    23585001.815    23585001.839
        45.000          29.0004
 125902134.299 6  98105549.89043  23958376.057    23958376.195    23958376.955
        40.000          21.0004
 106537397.122 8  83016168.79247  20273393.907    20273394.504    20273397.972
        52.000          47.0004
 120513557.589 7  93906645.76144  22932960.296    22932959.614    22932961.221
        43.000          26.0004
 110096923.749 8  85789802.56247  20950736.491    20950736.412    20950737.113
        52.000          44.0004
 125700613.704 7  97948530.67244  23920025.362    23920026.074    23920026.004
        44.000          28.0004
 108290010.505 8  84381833.02247  20606898.845    20606899.166    20606900.524
        52.000          43.0004
 123446266.208 7  96191895.91245  23491044.749    23491045.228    23491045.927
        43.000          30.0004
 13  1  1  0 12  0.0000000  0  9G25G02G14G24G04G12G17G09G15
 121970462.257 7  95041911.71045  23210201.531    23210201.706    23210206.139
        43.000          30.0004
 123772389.930 7  96446020.07044  23553101.692    23553102.190    23553101.160
        44.000          28.0004
 125738663.237 6  97978169.83243  23927269.079    23927268.576    23927269.049
        39.000          21.0004
 106450143.522 8  82948178.97047  20256790.135    20256790.689    20256794.093
        53.000          47.0004
 120390833.071 7  93811016.28844  22909605.858    22909606.117    22909607.290
        42.000          26.0004
 109977609.161 8  85696830.16047  20928031.404    20928031.857    20928032.328
        53.000          44.0004
 125703774.657 7  97950993.73144  23920626.479    23920627.642    23920627.281
        43.000          28.0004
 108257566.494 8  84356551.96847  20600724.931    20600725.238    20600726.942
        53.000          43.0004
 123455612.360 7  96199178.59845  23492823.444    23492824.477    23492824.468
        42.000          30.0004
 13  1  1  0 12 30.0000000  0  9G25G02G14G24G04G12G17G09G15
 121808109.819 7  94915403.32044  23179306.638    23179306.557    23179310.498
        43.000          29.0004
 123604915.432 7  96315520.47744  23521232.233    23521232.823    23521232.581
        43.000          29.0004
 125575602.660 6  97851109.63743  23896239.243    23896239.088    23896240.304
        40.000          22.0004
 106363345.492 8  82880544.13947  20240273.283    20240273.593    20240276.954
        53.000          46.0004
 120268630.001 7  93715793.13244  22886350.524    22886351.698    22886354.054
        44.000          27.0004
 109858541.213 8  85604049.95247  20905373.417    20905374.182    20905374.306
        53.000          43.0004
 125707109.936 7  97953592.64244  23921261.883    23921262.611    23921262.162
        43.000          27.0004
 108225579.896 8  84331627.34247  20594637.962    20594638.368    20594640.040
        52.000          43.0004
 123465074.222 7  96206551.46944  23494623.248    23494625.389    23494624.913
        43.000          28.0004
 13  1  1  0 13  0.0000000  0  9G25G02G14G24G04G12G17G09G15
 121645886.999 6  94788995.94344  23148436.483    23148436.378    23148439.746
        41.000          28.0004
 123437606.057 7  96185149.54245  23489394.226    23489395.078    23489395.199
        45.000          30.0004
 125412954.339 6  97724370.68943  23865288.680    23865287.937    23865289.183
        39.000          22.0004
 106277002.839 8  82813264.14647  20223842.681    20223843.142    20223846.618
        52.000          47.0004
 120146949.895 7  93620977.46644  22863197.076    22863196.672    22863199.292
        42.000          28.0004
 109739718.834 8  85511461.08947  20882762.282    20882762.382    20882762.972
        51.000          44.0004
 125710616.775 7  97956325.21444  23921929.070    23921929.229    23921929.507
        42.000          27.0004
 108194049.442 8  84307058.15647  20588637.854    20588638.392    20588640.238
        51.000          43.0004
 123474647.971 7  96214011.54345  23496445.143    23496448.080    23496447.569
        45.000          30.0004
 13  1  1  0 13 30.0000000  0  9G25G02G14G24G04G12G17G09G15
 121483793.582 7  94662689.39444  23117591.086    23117591.322    23117594.452
        44.000          27.0004
 123270464.213 7  96054909.15145  23457588.897    23457588.812    23457588.215
        45.000          30.0004
 125250719.757 6  97597954.14543  23834416.145    23834415.118    23834417.245
        40.000          22.0004
 106191116.749 8  82746339.91148  20207499.183    20207499.471    20207503.202
        53.000          49.0004
 120025794.297 7  93526570.49544  22840141.444    22840141.361    22840144.320
        44.000          28.0004
 109621141.441 8  85419063.11647  20860197.990    20860197.873    20860198.373
        52.000          44.0004
 125714292.247 6  97959189.18944  23922629.025    23922628.418    23922629.354
        41.000          27.0004
 108162974.120 8  84282843.60947  20582724.347    20582724.844    20582726.613
        52.000          42.0004
 123484330.985 7  96221556.74244  23498286.946    23498289.869    23498290.262
        43.000          29.0004
 13  1  1  0 14  0.0000000  0  9G25G02G14G24G04G12G17G09G15
 121321830.092 7  94536484.10044  23086770.463    23086770.620    23086774.173
        43.000          28.0004
 123103493.176 7  95924801.86545  23425815.518    23425815.863    23425815.060
        44.000          31.0004
 125088901.799 6  97471862.24643  23803623.700    23803623.257    23803624.914
        41.000          23.0004
 106105688.208 8  82679772.20947  20191242.984    20191242.844    20191246.676
        50.000          47.0004
 119905165.537 7  93432574.06844  22817186.399    22817186.831    22817187.956
        44.000          27.0004
 109502809.512 8  85326856.43247  20837680.241    20837680.285    20837680.419
        48.000          43.0004
 125718134.787 7  97962183.35744  23923359.987    23923359.025    23923360.948
        42.000          27.0004
 108132353.108 8  84258983.08147  20576897.634    20576897.839    20576899.500
        51.000          42.0004
 123494120.464 7  96229184.88344  23500150.460    23500152.636    23500153.275
        43.000          29.0004
 13  1  1  0 14 30.0000000  0  9G25G02G14G24G04G12G17G09G15
 121159994.931 7  94410378.81744  23055974.461    23055974.226    23055978.883
        44.000          29.0004
 122936694.048 7  95794828.50945  23394074.524    23394074.515    23394074.377
        46.000          31.0004
 124927501.105 7  97346095.47444  23772909.652    23772909.903    23772910.434
        42.000          24.0004
 106020716.416 9  82613560.40947  20175073.380    20175073.465    20175077.290
        54.000          47.0004
 119785063.743 7  93338988.28944  22794331.598    22794332.365    22794333.294
        44.000          26.0004
 109384720.631 8  85234839.12047  20815208.414    20815208.808    20815208.803
        51.000          44.0004
 125722140.123 6  97965304.35944  23924121.624    23924121.023    23924123.388
        41.000          26.0004
 108102184.233 8  84235474.85847  20571156.692    20571156.904    20571158.640
        53.000          42.0004
 123504012.038 7  96236892.59544  23502032.776    23502035.081    23502035.709
        43.000          29.0004
 13  1  1  0 15  0.0000000  0  9G25G02G14G24G04G12G17G09G15
 120998287.698 7  94284373.19545  23025202.841    23025202.960    23025207.083
        44.000          30.0004
 122770069.153 7  95664990.94145  23362366.840    23362366.908    23362366.871
        45.000          31.0004
 124766519.412 7  97220655.18644  23742276.472    23742276.316    23742277.152
        42.000          24.0004
 105936201.688 8  82547704.77048  20158990.752    20158990.953    20158994.633
        53.000          49.0004
 119665490.550 7  93245814.37044  22771577.142    22771577.796    22771580.124
        43.000          27.0004
 109266874.286 8  85143010.81047  20792783.091    20792783.250    20792783.594
        51.000          44.0004
 125726305.799 6  97968550.33444  23924913.556    23924912.724    23924915.537
        39.000          24.0004
 108072466.475 8  84212318.15347  20565501.493    20565501.427    20565503.518
        51.000          43.0004
 123514002.552 7  96244677.40844  23503934.573    23503936.185    23503936.678
        42.000          29.0004
 13  1  1  0 15 30.0000000  0  9G25G02G14G24G04G12G17G09G15
 120836711.227 7  94158469.49445  22994456.044    22994456.195    22994459.527
        45.000          30.0004
 122603623.692 7  95535293.19445  23330693.158    23330692.854    23330693.515
        44.000          31.0004
 124605961.589 6  97095545.20644  23711722.627    23711722.754    23711723.435
        40.000          24.0004
 105852147.618 8  82482208.08747  20142995.417    20142996.137    20142999.443
        53.000          47.0004
 119546450.354 7  93153055.75944  22748925.047    22748925.499    22748927.749
        43.000          27.0004
 109149272.502 8  85051373.06147  20770403.863    20770404.237    20770404.849
        53.000          44.0004
 125730632.039 6  97971921.39044  23925737.072    23925735.827    23925738.447
        38.000          24.0004
 108043201.551 8  84189514.31447  20559932.624    20559932.411    20559934.440
        51.000          42.0004
 123524091.654 7  96252539.01844  23505854.831    23505855.136    23505857.050
        42.000          29.0004
 13  1  1  0 16  0.0000000  0  9G25G02G14G24G04G12G17G09G15
 120675265.450 7  94032667.60644  22963733.213    22963733.328    22963737.163
        44.000          29.0004
 122437360.472 7  95405737.46545  23299054.419    23299053.936    23299054.409
        46.000          30.0004
 124445829.743 7  96970767.12544  23681250.879    23681250.895    23681251.494
        42.000          24.0004
 105768555.009 9  82417070.98748  20127088.335    20127088.887    20127092.227
        54.000          48.0004
 119427944.914 7  93060713.86144  22726374.458    22726374.079    22726376.447
        43.000          27.0004
 109031915.814 8  84959926.28947  20748071.639    20748072.243    20748072.547
        50.000          44.0004
 125735116.360 6  97975415.64644  23926591.753    23926589.201    23926591.965
        39.000          24.0004
 108014388.639 8  84167062.68447  20554449.513    20554449.584    20554451.546
        49.000          42.0004
 123534276.374 7  96260475.14144  23507791.879    23507792.774    23507794.980
        43.000          29.0004
 13  1  1  0 16 30.0000000  0  9G25G02G14G24G04G12G17G09G15
 120513948.424 7  93906966.02544  22933035.638    22933035.972    22933039.622
        44.000          28.0004
 122271280.276 7  95276324.32744  23267449.911    23267450.145    23267449.733
        44.000          29.0004
 124286124.078 7  96846321.16944  23650859.587    23650859.995    23650860.882
        42.000          25.0004
 105685422.633 8  82352292.50747  20111268.905    20111269.204    20111272.648
        53.000          47.0004
 119309974.055 7  92968788.53144  22703924.792    22703924.994    22703926.905
        44.000          26.0004
 108914800.550 8  84868667.63847  20725785.494    20725785.799    20725786.414
        53.000          44.0004
 125739754.717 6  97979029.92644  23927474.261    23927472.399    23927474.176
        41.000          26.0004
 107986024.816 8  84144960.99847  20549052.251    20549052.188    20549054.237
        52.000          42.0004
 123544552.008 7  96268482.14644  23509747.568    23509747.989    23509749.583
        43.000          28.0004
 13  1  1  0 17  0.0000000  0  9G25G02G14G24G04G12G17G09G15
 120352759.808 7  93781364.50644  22902362.942    22902362.409    22902366.977
        43.000          28.0004
 122105385.204 7  95147055.43844  23235881.216    23235880.661    23235880.793
        43.000          29.0004
 124126846.345 6  96722208.64344  23620550.371    23620550.537    23620550.827
        41.000          25.0004
 105602750.291 8  82287872.49547  20095537.001    20095537.169    20095540.686
        53.000          47.0004
 119192539.245 7  92877280.90344  22681578.313    22681578.514    22681580.186
        45.000          27.0004
 108797927.405 8  84777597.67147  20703545.061    20703545.495    20703546.377
        53.000          44.0004
 125744544.073 6  97982761.86544  23928385.878    23928384.370    23928385.203
        41.000          26.0004
 107958108.566 8  84123208.07247  20543740.071    20543740.150    20543741.930
        52.000          42.0004
 123554915.680 6  96276557.75344  23511718.290    23511719.453    23511721.405
        41.000          26.0004
 13  1  1  0 17 30.0000000  0  9G25G02G14G24G04G12G17G09G15
 121767127.130 7  94883468.93544  23171507.661    23171507.377    23171512.174
        43.000          29.0004
 123515105.873 7  96245539.08744  23504142.018    23504141.780    23504141.465
        43.000          28.0004
 125543426.128 6  97826037.05944  23890115.694    23890116.363    23890117.580
        40.000          24.0004
 107095963.744 9  83451415.44247  20379685.981    20379686.481    20379689.747
        55.000          47.0004
 120651068.161 7  94013796.95544  22959126.662    22959127.324    22959129.873
        42.000          28.0004
 110256721.392 8  85914320.25747  20981144.465    20981144.975    20981145.451
        53.000          44.0004
 127324904.220 6  99214211.32244  24229117.780    24229117.324    24229117.681
        41.000          25.0004
 109506062.057 8  85329405.59547  20838305.801    20838305.459    20838307.642
        50.000          42.0004
 125140785.914 7  97512300.77644  23813500.686    23813501.340    23813502.988
        44.000          28.0004
 13  1  1  0 18  0.0000000  0  9G25G02G14G24G04G12G17G09G15
 121606198.812 7  94758070.24644  23140883.941    23140884.126    23140888.925
        44.000          29.0004
 123349592.607 7  96116567.70244  23472645.755    23472645.709    23472645.756
        44.000          29.0004
 125385014.100 6  97702599.11344  23859971.854    23859971.618    23859972.118
        41.000          24.0004
 107014217.729 8  83387717.24547  20364129.971    20364130.874    20364133.914
        53.000          47.0004
 120534713.503 7  93923131.00644  22936985.425    22936985.739    22936988.338
        44.000          29.0004
 110140333.383 8  85823628.30047  20958996.732    20958996.953    20958997.315
        52.000          43.0004
 127329992.341 7  99218176.07044  24230085.673    24230085.522    24230085.758
        42.000          25.0004
 109479041.781 8  85308350.82747  20833163.978    20833163.677    20833165.850
        51.000          43.0004
 125151319.897 7  97520509.05444  23815505.053    23815506.270    23815507.486
        43.000          29.0004
 13  1  1  0 18 30.0000000  0  9G25G02G14G24G04G12G17G09G15
 121445400.979 7  94632773.26744  23110285.325    23110284.962    23110289.340
        43.000          28.0004
 123184274.694 7  95987748.53844  23441187.307    23441186.961    23441186.506
        44.000          29.0004
 125227038.105 7  97579500.94044  23829909.648    23829909.823    23829910.125
        42.000          24.0004
 106932935.702 8  83324380.59848  20348662.800    20348663.228    20348666.510
        53.000          48.0004
 120418901.842 7  93832888.15844  22914946.476    22914947.403    22914950.591
        43.000          29.0004
 110024187.932 8  85733125.35647  20936894.810    20936895.309    20936895.495
        53.000          43.0004
 127335226.692 7  99222254.76544  24231081.642    24231082.158    24231081.676
        43.000          25.0004
 109452468.352 8  85287644.25847  20828106.995    20828107.268    20828109.194
        53.000          42.0004
 125161934.672 7  97528780.30044  23817524.890    23817526.928    23817527.141
        43.000          28.0004
 13  1  1  0 19  0.0000000  0  9G25G02G14G24G04G12G17G09G15
 121284732.289 7  94507576.91744  23079710.409    23079710.579    23079714.577
        43.000          28.0004
 123019153.393 7  95859082.58044  23409765.755    23409765.968    23409764.937
        44.000          29.0004
 125069499.115 7  97456743.28044  23799930.917    23799931.251    23799931.402
        43.000          24.0004
 106852117.624 8  83261405.46747  20333283.449    20333283.885    20333287.333
        53.000          47.0004
 120303633.465 7  93743068.64644  22893012.032    22893011.947    22893014.775
        44.000          29.0004
 109908283.142 8  85642809.94047  20914838.929    20914839.418    20914839.772
        53.000          43.0004
 127340603.474 7  99226444.44544  24232104.770    24232105.158    24232105.146
        43.000          26.0004
 109426339.635 8  85267284.21747  20823134.890    20823134.836    20823137.005
        51.000          42.0004
 125172626.533 7  97537111.62544  23819558.632    23819561.544    23819561.706
        43.000          27.0004
 13  1  1  0 19 30.0000000  0 10G29G25G02G14G24G04G12G17G09G15
 130420377.249 5                  24818173.444
        34.000
 121124194.478 7  94382482.54744  23049161.118    23049161.885    23049164.883
        43.000          28.0004
 122854233.197 7  95730573.33745  23378382.596    23378382.486    23378381.593
        46.000          30.0004
 124912400.884 7  97334329.08944  23770035.857    23770036.708    23770037.157
        44.000          25.0004
 106771765.670 9  83198793.55047  20317993.108    20317993.502    20317996.802
        54.000          47.0004
 120188911.565 7  93653674.95244  22871180.654    22871180.943    22871183.166
        45.000          28.0004
 109792620.638 8  85552683.31147  20892829.226    20892829.311    20892830.014
        52.000          44.0004
 127346122.180 7  99230744.71844  24233155.660    24233155.377    24233155.380
        42.000          26.0004
 109400656.319 8  85247271.23046  20818247.598    20818247.742    20818249.547
        51.000          41.0004
 125183394.325 7  97545502.09744  23821609.177    23821611.110    23821611.286
        44.000          29.0004
 13  1  1  0 20  0.0000000  0 10G29G25G02G14G24G04G12G17G09G15
 130219705.752 5                  24779985.039
        34.000
 120963787.258 7  94257489.91244  23018637.643    23018637.484    23018641.073
        43.000          29.0004
 122689516.176 7  95602222.41645  23347038.098    23347037.804    23347036.883
        46.000          31.0004
 124755745.207 6  97212259.71044  23740226.119    23740225.000    23740226.775
        39.000          25.0004
 106691880.124 8  83136545.07247  20302791.520    20302791.847    20302795.090
        51.000          47.0004
 120074737.403 7  93564708.08444  22849454.266    22849454.595    22849456.657
        46.000          29.0004
 109677199.146 8  85462744.48647  20870865.167    20870865.454    20870866.061
        50.000          44.0004
 127351780.046 7  99235153.44044  24234231.385    24234232.210    24234232.514
        42.000          26.0004
 109375416.801 8  85227604.07147  20813444.711    20813445.007    20813446.755
        50.000          42.0004
 125194234.712 7  97553949.14544  23823671.552    23823673.695    23823674.213
        42.000          28.0004
 13  1  1  0 20 30.0000000  0 10G29G25G02G14G24G04G12G17G09G15
 130019125.274 5 101313599.56842  24741815.899    24741815.988    24741818.007
        35.000          13.0004
 120803509.934 7  94132598.48044  22988136.977    22988137.452    22988141.722
        44.000          29.0004
 122525004.529 7  95474031.52545  23315732.220    23315732.529    23315731.285
        45.000          31.0004
 124599533.425 7  97090536.23644  23710498.867    23710498.794    23710500.407
        42.000          24.0004
 106612460.441 9  83074659.59747  20287678.291    20287678.710    20287682.012
        54.000          47.0004
 119961112.127 7  93476168.92144  22827832.650    22827832.756    22827834.335
        45.000          28.0004
 109562018.449 8  85372993.28847  20848947.057    20848947.266    20848947.864
        51.000          44.0004
 127357574.367 6  99239668.46644  24235334.776    24235334.369    24235335.495
        41.000          26.0004
 109350619.562 8  85208281.54146  20808726.028    20808726.153    20808728.063
        53.000          41.0004
 125205143.919 7  97562449.78744  23825748.525    23825749.122    23825750.611
        44.000          29.0004
 13  1  1  0 21  0.0000000  0 10G29G25G02G14G24G04G12G17G09G15
 129818636.917 5 101157375.07742  24703663.668    24703662.221    24703667.813
        33.000          12.0004
 120643362.372 7  94007808.15544  22957662.097    22957662.107    22957666.736
        43.000          29.0004
 122360700.570 7  95346002.47545  23284466.106    23284466.266    23284465.138
        45.000          30.0004
 124443767.536 6  96969160.22444  23680858.788    23680857.753    23680859.373
        41.000          24.0004
 106533507.892 8  83013138.12747  20272654.174    20272654.343    20272657.990
        52.000          47.0004
 119848036.767 7  93388058.24244  22806315.381    22806316.226    22806317.281
        44.000          29.0004
 109447077.842 8  85283429.17647  20827074.548    20827074.974    20827075.247
        53.000          44.0004
 127363502.420 7  99244287.70944  24236462.740    24236462.421    24236463.265
        42.000          26.0004
 109326263.361 8  85189302.67847  20804091.111    20804091.144    20804093.415
        51.000          42.0004
 125216119.200 7  97571001.95244  23827837.374    23827837.103    23827839.225
        42.000          28.0004
 13  1  1  0 21 30.0000000  0 10G29G25G02G14G24G04G12G17G09G15
 129618243.764 5 101001224.68841  24665530.735    24665527.527    24665530.143
        33.000          11.0004
 120483345.573 7  93883119.76144  22927212.147    22927211.804    22927216.125
        44.000          29.0004
 122196607.974 7  95218138.11845  23253240.947    23253240.558    23253239.551
        45.000          31.0004
 124288450.019 7  96848133.57944  23651301.823    23651301.661    23651302.946
        42.000          24.0004
 106455023.372 8  82951981.35147  20257718.976    20257719.236    20257723.070
        52.000          47.0004
 119735513.978 7  93300378.16045  22784902.684    22784903.368    22784905.130
        45.000          30.0004
 109332377.188 8  85194052.05247  20805247.713    20805247.983    20805248.398
        51.000          44.0004
 127369562.752 6  99249010.01944  24237615.959    24237615.909    24237616.663
        41.000          26.0004
 109302348.102 8  85170667.40246  20799540.180    20799540.045    20799542.345
        51.000          41.0004
 125227158.711 7  97579604.17744  23829937.608    23829937.551    23829940.278
        43.000          29.0004
 13  1  1  0 22  0.0000000  0 10G29G25G02G14G24G04G12G17G09G15
 129417946.182 5 100845148.75842  24627414.211    24627414.978    24627417.565
        34.000          12.0004
 120323458.334 7  93758532.32044  22896786.322    22896786.357    22896790.014
        44.000          29.0004
 122032728.052 7  95090439.48345  23222054.996    23222054.664    23222054.613
        45.000          31.0004
 124133581.977 7  96727457.19744  23621831.649    23621831.806    23621832.376
        42.000          25.0004
 106377006.352 8  82891188.86248  20242872.810    20242873.234    20242876.758
        52.000          49.0004
 119623543.978 7  93213128.82644  22763595.360    22763596.328    22763598.343
        45.000          29.0004
 109217916.013 8  85104861.53347  20783466.386    20783466.596    20783467.077
        51.000          44.0004
 127375751.928 6  99253832.73244  24238793.269    24238793.818    24238794.766
        41.000          25.0004
 109278871.612 8  85152374.02546  20795072.787    20795072.751    20795074.626
        52.000          41.0004
 125238258.553 7  97588253.37144  23832049.940    23832049.672    23832052.194
        42.000          28.0004
 13  1  1  0 22 30.0000000  0 10G29G25G02G14G24G04G12G17G09G15
 129217746.158 5 100689148.85942  24589318.327    24589316.527    24589320.212
        33.000          14.0004
 120163700.507 7  93634045.71644  22866385.719    22866385.806    22866388.837
        43.000          29.0004
 121869063.371 7  94962908.58145  23190911.203    23190910.775    23190910.382
        45.000          32.0004
 123979165.417 7  96607132.61144  23592447.300    23592447.172    23592447.651
        42.000          25.0004
 106299457.162 8  82830760.91247  20228115.570    20228116.203    20228119.596
        53.000          47.0004
 119512127.793 7  93126311.02845  22742393.538    22742393.957    22742396.371
        44.000          30.0004
 109103693.118 8  85015856.68747  20761730.470    20761730.722    20761731.117
        53.000          43.0004
 127382067.824 6  99258754.18044  24239995.143    24239995.614    24239995.984
        40.000          24.0004
 109255832.286 8  85134421.31047  20790688.813    20790688.781    20790690.377
        51.000          42.0004
 125249415.474 6  97596947.08744  23834172.329    23834172.917    23834175.515
        41.000          28.0004
 13  1  1  0 23  0.0000000  0 10G29G25G02G14G24G04G12G17G09G15
 129017647.298 5 100533227.79442  24551241.005    24551239.944    24551240.921
        34.000          14.0004
 120004073.945 7  93509661.38444  22836009.180    22836009.757    22836013.506
        42.000          29.0004
 121705618.503 7  94835548.96745  23159807.956    23159808.088    23159808.089
        46.000          32.0004
 123825203.670 6  96487162.38944  23563149.500    23563148.868    23563150.490
        41.000          25.0004
 106222378.228 8  82770699.40847  20213448.082    20213448.533    20213451.701
        53.000          46.0004
 119401269.177 7  93039927.70345  22721297.871    22721298.050    22721300.179
        44.000          30.0004
 108989710.140 8  84927038.78047  20740040.420    20740040.693    20740040.922
        51.000          43.0004
 127388509.614 6  99263773.71044  24241221.210    24241221.300    24241222.607
        41.000          24.0004
 109233231.091 8  85116809.98246  20786387.710    20786388.015    20786389.842
        51.000          41.0004
 125260628.623 7  97605684.59944  23836306.645    23836307.064    23836308.692
        43.000          28.0004
 13  1  1  0 23 30.0000000  0 10G29G25G02G14G24G04G12G17G09G15
 128817651.355 5 100377386.92942  24513183.683    24513182.216    24513183.626
        35.000          15.0004
 119844578.310 7  93385379.08245  22805658.200    22805658.450    22805662.879
        44.000          30.0004
 121542396.080 7  94708362.67045  23128748.139    23128747.611    23128747.772
        44.000          32.0004
 123671698.576 7  96367548.04144  23533938.140    23533938.218    23533939.359
        42.000          25.0004
 106145770.055 9  82711004.72047  20198870.079    20198870.442    20198873.756
        54.000          47.0004
 119290968.641 7  92953979.23745  22700308.848    22700309.456    22700310.298
        46.000          30.0004
 108875966.249 8  84838407.17747  20718395.543    20718395.879    20718396.382
        51.000          44.0004
 127395074.864 6  99268889.46944  24242469.983    24242470.976    24242471.784
        41.000          24.0004
 109211066.459 8  85099538.82946  20782170.060    20782170.212    20782172.151
        52.000          41.0004
 125271894.209 6  97614462.95844  23838450.524    23838450.629    23838452.142
        41.000          27.0004
 13  1  1  0 24  0.0000000  0 10G29G25G02G14G24G04G12G17G09G15
 128617759.421 5 100221627.04642  24475144.194    24475144.972    24475146.142
        34.000          15.0004
 119685213.057 7  93261198.40545  22775332.569    22775332.266    22775337.054
        44.000          31.0004
 121379397.362 7  94581350.68945  23097730.355    23097729.772    23097729.829
        46.000          31.0004
 123518651.491 7  96248290.57644  23504815.082    23504813.741    23504816.046
        42.000          25.0004
 106069632.119 9  82651676.45247  20184381.548    20184381.895    20184385.439
        55.000          47.0004
 119181227.353 7  92868466.55845  22679425.259    22679426.580    22679427.356
        46.000          30.0004
 108762460.961 8  84749961.50247  20696796.431    20696796.583    20696797.162
        53.000          44.0004
 127401760.389 7  99274098.93944  24243742.519    24243743.650    24243743.764
        42.000          24.0004
 109189336.801 8  85082606.61847  20778034.908    20778035.188    20778037.374
        51.000          42.0004
 125283208.853 7  97623279.56344  23840603.576    23840604.437    23840605.229
        42.000          28.0004
 13  1  1  0 24 30.0000000  0 10G29G25G02G14G24G04G12G17G09G15
 128417976.326 5 100065952.02642  24437125.738    24437126.824    24437128.679
        33.000          16.0004
 119525981.092 7  93137121.56945  22745031.825    22745031.225    22745035.453
        43.000          31.0004
 121216628.214 7  94454517.60545  23066756.085    23066755.811    23066756.172
        44.000          31.0004
 123366067.120 7  96129393.66844  23475778.396    23475778.849    23475780.247
        42.000          26.0004
 105993967.504 8  82592717.00747  20169983.050    20169983.557    20169987.113
        52.000          46.0004
 119072049.546 7  92783392.94644  22658649.567    22658649.867    22658651.300
        45.000          29.0004
 108649196.469 8  84661703.46147  20675242.688    20675242.728    20675243.629
        50.000          44.0004
 127408567.056 7  99279402.82344  24245037.847    24245038.822    24245038.731
        42.000          24.0004
 109168043.895 8  85066014.74146  20773983.071    20773983.211    20773985.394
        50.000          41.0004
 125294573.796 7  97632135.34744  23842765.459    23842767.917    23842767.994
        44.000          28.0004
 13  1  1  0 25  0.0000000  0 10G29G25G02G14G24G04G12G17G09G15
 128218302.282 5  99910361.95842  24399128.590    24399128.267    24399131.550
        33.000          14.0004
 119366880.846 7  93013147.36745  22714756.167    22714755.954    22714759.946
        44.000          31.0004
 121054089.651 7  94327864.18145  23035826.874    23035825.959    23035826.146
        45.000          31.0004
 123213945.948 7  96010857.67344  23446830.580    23446830.776    23446832.443
        43.000          26.0004
 105918775.709 8  82534125.98847  20155674.311    20155674.999    20155678.487
        53.000          46.0004
 118963434.976 7  92698758.20345  22637981.270    22637981.225    22637982.952
        45.000          30.0004
 108536170.735 8  84573631.46247  20653734.740    20653734.595    20653735.220
        52.000          44.0004
 127415491.036 6  99284798.12944  24246355.119    24246356.566    24246356.384
        41.000          25.0004
 109147184.877 8  85049760.95546  20770013.704    20770013.646    20770015.797
        50.000          40.0004
 125305983.901 7  97641026.33344  23844937.032    23844939.350    23844938.757
        44.000          27.0004
 13  1  1  0 25 30.0000000  0 10G29G25G02G14G24G04G12G17G09G15
 128018738.051 5  99754857.46342  24361156.802    24361154.233    24361156.827
        35.000          15.0004
 119207911.340 7  92889275.02745  22684505.683    22684505.454    22684508.890
        43.000          31.0004
 120891783.610 7  94201391.95445  23004941.053    23004940.024    23004940.510
        45.000          31.0004
 123062288.704 7  95892683.20344  23417970.737    23417971.910    23417972.709
        43.000          25.0004
 105844055.796 9  82475902.67647  20141455.688    20141456.365    20141459.640
        54.000          47.0004
 118855383.777 7  92614562.48045  22617419.841    22617420.490    22617422.184
        47.000          31.0004
 108423382.878 8  84485744.82547  20632271.812    20632272.063    20632272.292
        52.000          44.0004
 127422529.123 6  99290282.33544  24247695.131    24247696.349    24247696.182
        41.000          24.0004
 109126757.607 8  85033843.59246  20766126.586    20766126.519    20766128.569
        52.000          41.0004
 125317435.294 7  97649949.49244  23847116.694    23847117.990    23847117.819
        44.000          26.0004
 13  1  1  0 26  0.0000000  0 10G29G25G02G14G24G04G12G17G09G15
 127819283.062 5  99599438.02442  24323200.994    24323199.307    24323200.797
        34.000          15.0004
 119049070.158 7  92765502.67845  22654278.645    22654278.998    22654282.828
        44.000          32.0004
 120729709.793 7  94075100.67045  22974099.098    22974098.764    22974098.954
        46.000          32.0004
 122911094.978 6  95774869.89944  23389200.319    23389200.877    23389201.114
        41.000          25.0004
 105769806.013 9  82418045.69848  20127326.530    20127327.214    20127330.514
        54.000          48.0004
 118747894.778 7  92530804.83145  22596965.107    22596965.686    22596967.872
        47.000          31.0004
 108310829.875 8  84398041.19347  20610853.707    20610853.973    20610854.071
        53.000          43.0004
 127429676.567 6  99295851.75944  24249054.288    24249056.321    24249056.398
        41.000          24.0004
 109106758.415 8  85018259.79546  20762320.951    20762321.284    20762322.452
        51.000          41.0004
 125328922.772 7  97658900.75344  23849302.602    23849303.521    23849303.902
        42.000          27.0004
 13  1  1  0 26 30.0000000  0 10G29G25G02G14G24G04G12G17G09G15
 129195370.751 5 100671714.24942  24585058.954    24585060.790    24585060.724
        33.000          14.0004
 120465787.369 7  93869438.18845  22923870.882    22923871.199    22923875.223
        44.000          32.0004
 122143301.127 7  95176600.42145  23243096.413    23243096.432    23243096.520
        45.000          32.0004
 124335796.423 7  96885026.86944  23660311.853    23660312.228    23660313.014
        43.000          26.0004
 107271454.176 8  83588161.14348  20413080.324    20413081.252    20413084.542
        50.000          48.0004
 120216397.840 7  93675092.93544  22876411.613    22876411.641    22876414.801
        44.000          29.0004
 109773939.647 8  85538126.73947  20889274.203    20889274.558    20889274.672
        50.000          44.0004
 129012355.539 6 100529108.07644  24550229.572    24550229.368    24550230.081
        41.000          24.0004
 110662611.500 8  86230612.85446  21058390.036    21058390.295    21058391.231
        48.000          40.0004
 126915867.621 7  98895481.14044  24151289.098    24151288.370    24151289.237
        42.000          26.0004
 13  1  1  0 27  0.0000000  0 10G29G25G02G14G24G04G12G17G09G15
 128996149.605 5 100516477.08042  24547149.986    24547149.931    24547151.059
        34.000          15.0004
 120307212.398 7  93745873.27845  22893695.460    22893696.172    22893699.578
        43.000          33.0004
 121981709.313 7  95050684.73245  23212346.597    23212347.039    23212346.268
        45.000          33.0004
 124185544.601 7  96767947.52144  23631719.649    23631720.124    23631721.009
        42.000          25.0004
 107198155.206 8  83531045.05648  20399132.364    20399132.763    20399136.294
        53.000          48.0004
 120110046.782 7  93592221.99344  22856174.298    22856173.069    22856176.906
        44.000          29.0004
 109661864.875 8  85450795.75447  20867946.911    20867947.270    20867947.800
        51.000          43.0004
 129019724.218 6 100534849.88343  24551631.151    24551630.904    24551633.089
        41.000          23.0004
 110643474.356 8  86215700.79146  21054748.217    21054748.560    21054749.892
        50.000          41.0004
 126927428.035 6  98904489.25444  24153488.504    24153487.709    24153489.176
        41.000          26.0004
 13  1  1  0 27 30.0000000  0 10G29G25G02G14G24G04G12G17G09G15
 128797047.084 5 100361332.28042  24509259.603    24509260.570    24509264.060
        33.000          14.0004
 120148769.748 7  93622411.49145  22863544.025    22863545.637    22863548.646
        44.000          32.0004
 121820361.743 7  94924959.36045  23181643.011    23181643.365    23181643.346
        46.000          33.0004
 124035765.646 6  96651236.64744  23603218.093    23603218.335    23603219.469
        41.000          25.0004
 107125331.226 9  83474299.09247  20385274.390    20385274.790    20385278.215
        54.000          46.0004
 120004265.554 7  93509795.05545  22836045.234    22836045.303    22836046.431
        46.000          30.0004
 109550028.016 8  85363650.14547  20846665.103    20846665.471    20846666.074
        52.000          43.0004
 129027199.424 6 100540674.70243  24553054.142    24553053.356    24553055.346
        40.000          23.0004
 110624765.787 8  86201122.67946  21051188.248    21051187.993    21051190.087
        51.000          40.0004
 126939020.203 6  98913522.09544  24155694.960    24155693.640    24155695.185
        41.000          25.0004
 13  1  1  0 28  0.0000000  0 10G29G25G02G14G24G04G12G17G09G15
 128598065.174 5 100206281.52242  24471397.715    24471398.530    24471398.633
        35.000          14.0004
 119990459.641 7  93499052.98945  22833418.593    22833419.122    22833423.407
        45.000          32.0004
 121659261.030 7  94799426.34445  23150986.501    23150986.853    23150986.786
        45.000          32.0004
 123886461.873 6  96534896.04344  23574805.790    23574806.060    23574807.755
        40.000          24.0004
 107052983.037 8  83417923.86947  20371506.812    20371507.464    20371510.707
        53.000          47.0004
 119899055.696 7  93427813.36545  22816024.082    22816024.564    22816025.159
        47.000          30.0004
 109438428.785 8  85276689.69947  20825428.588    20825428.761    20825429.559
        50.000          44.0004
 129034779.250 6 100546581.06943  24554497.019    24554495.231    24554497.801
        39.000          23.0004
 110606484.489 8  86186877.50346  21047709.283    21047708.920    21047711.498
        51.000          41.0004
 126950641.068 7  98922577.33744  24157905.368    24157904.936    24157906.572
        42.000          25.0004
 13  1  1  0 28 30.0000000  0 10G29G25G02G14G24G04G12G17G09G15
 128399207.165 6 100051327.24542  24433556.758    24433557.850    24433558.206
        38.000          16.0004
 119832283.184 7  93375798.62245  22803318.966    22803318.915    22803323.508
        45.000          32.0004
 121498410.921 7  94674088.59145  23120377.846    23120377.724    23120378.126
        46.000          32.0004
 123737635.722 7  96418927.63844  23546485.859    23546485.215    23546487.441
        42.000          24.0004
 106981111.824 8  83361920.32248  20357830.260    20357830.858    20357834.386
        52.000          48.0004
 119794419.400 7  93346278.61245  22796111.426    22796112.974    22796113.587
        46.000          30.0004
 109327067.594 8  85189914.74347  20804237.077    20804237.362    20804238.079
        51.000          43.0004
 129042462.456 6 100552567.96043  24555958.201    24555957.173    24555959.643
        39.000          22.0004
 110588630.290 8  86172965.13746  21044311.754    21044311.955    21044313.836
        51.000          40.0004
 126962289.057 7  98931653.67744  24160120.431    24160121.912    24160124.391
        42.000          25.0004
 13  1  1  0 29  0.0000000  0 10G29G25G02G14G24G04G12G17G09G15
 128200474.253 6  99896470.46143  24395737.983    24395740.366    24395740.932
        37.000          18.0004
 119674240.175 7  93252648.24045  22773244.276    22773244.354    22773248.858
        46.000          33.0004
 121337813.770 7  94548947.96245  23089817.639    23089816.908    23089817.312
        45.000          32.0004
 123589288.847 6  96303332.67544  23518255.912    23518256.079    23518257.756
        41.000          24.0004
 106909717.823 9  83306288.62647  20344244.734    20344245.030    20344248.561
        54.000          47.0004
 119690357.477 7  93265191.40344  22776309.522    22776309.257    22776311.342
        44.000          29.0004
 109215944.324 8  85103325.18247  20783091.250    20783091.238    20783091.944
        52.000          43.0004
 129050246.411 6 100558633.37943  24557441.004    24557438.447    24557441.401
        39.000          22.0004
 110571201.801 8  86159384.48946  21040995.134    21040995.414    21040997.697
        51.000          41.0004
 126973961.352 7  98940748.94644  24162341.883    24162343.772    24162345.263
        43.000          25.0004
 13  1  1  0 29 30.0000000  0 10G29G25G02G14G24G04G12G17G09G15
 128001865.843 6  99741710.69043  24357943.327    24357946.162    24357945.597
        37.000          19.0004
 119516327.926 7  93129599.75745  22743195.427    22743194.578    22743199.199
        45.000          33.0004
 121177469.831 7  94424004.63145  23059304.814    23059304.883    23059304.665
        46.000          32.0004
 123441420.373 6  96188110.49544  23490117.266    23490117.591    23490119.756
        39.000          24.0004
 106838798.763 8  83251027.01847  20330749.127    20330749.353    20330753.141
        51.000          47.0004
 119586868.353 7  93184550.53744  22756616.041    22756616.288    22756618.647
        44.000          29.0004
 109105055.890 8  85016918.61247  20761989.724    20761989.924    20761990.542
        52.000          44.0004
 129058126.341 6 100564773.55443  24558939.308    24558937.754    24558940.778
        39.000          22.0004
 110554195.004 8  86146132.42946  21037759.163    21037759.087    21037761.161
        52.000          41.0004
 126985652.050 7  98949858.58244  24164566.706    24164569.164    24164569.665
        43.000          25.0004
 13  1  1  0 30  0.0000000  0 10G29G25G02G14G24G04G12G17G09G15
 127803385.871 6  99587051.02343  24320174.583    24320174.967    24320176.553
        37.000          19.0004
 119358548.707 7  93006654.92845  22713170.531    22713170.281    22713174.534
        44.000          33.0004
 121017383.116 7  94299261.73845  23028841.145    23028840.695    23028841.331
        46.000          32.0004
 123294034.213 6  96073264.13544  23462070.409    23462070.324    23462072.864
        40.000          24.0004
 106768356.982 8  83196137.31047  20317344.322    20317344.851    20317348.613
        53.000          47.0004
 119483955.473 7  93104358.67445  22737033.149    22737033.214    22737035.267
        45.000          30.0004
 108994403.737 8  84930696.15747  20740933.022    20740933.181    20740934.125
        52.000          44.0004
 129066102.290 6 100570988.57243  24560457.342    24560455.959    24560459.992
        39.000          21.0004
 110537610.713 8  86133209.60146  21034603.128    21034603.065    21034605.207
        50.000          40.0004
 126997361.019 6  98958982.46444  24166795.000    24166797.064    24166798.342
        40.000          24.0004
 13  1  1  0 30 30.0000000  0 10G29G25G02G14G24G04G12G17G09G15
 127605036.069 6  99432492.76343  24282428.887    24282429.104    24282431.625
        37.000          18.0004
 119200902.332 7  92883813.61145  22683171.339    22683171.506    22683175.170
        46.000          33.0004
 120857556.436 7  94174721.45845  22998426.993    22998427.162    22998426.826
        47.000          32.0004
 123147132.360 6  95958795.16243  23434116.244    23434115.580    23434117.990
        40.000          23.0004
 106698392.847 8  83141619.79947  20304030.628    20304031.196    20304034.613
        53.000          47.0004
 119381619.529 7  93024616.38745  22717559.154    22717559.183    22717561.001
        46.000          30.0004
 108883988.458 8  84844658.27147  20719921.846    20719922.223    20719922.811
        52.000          44.0004
 129074171.782 6 100577276.48143  24561992.741    24561991.902    24561994.360
        39.000          22.0004
 110521447.589 8  86120614.94846  21031527.354    21031527.359    21031529.280
        49.000          40.0004
 127009085.021 6  98968118.05344  24169026.879    24169028.086    24169028.299
        40.000          24.0004
 13  1  1  0 31  0.0000000  0 10G29G25G02G14G24G04G12G17G09G15
 127406817.079 6  99278036.44643  24244708.467    24244708.962    24244711.819
        37.000          18.0004
 119043387.901 7  92761075.08045  22653197.437    22653197.681    22653201.630
        45.000          33.0004
 120697991.361 7  94050385.04245  22968063.219    22968062.690    22968062.267
        45.000          32.0004
 123000715.078 6  95844703.75444  23406254.295    23406254.616    23406255.915
        40.000          25.0004
 106628905.358 8  83087473.69547  20290807.540    20290808.443    20290811.497
        53.000          46.0004
 119279860.753 7  92945323.83545  22698194.898    22698195.653    22698197.745
        46.000          30.0004
 108773808.113 8  84758803.45747  20698955.394    20698955.741    20698956.335
        53.000          45.0004
 129082331.689 6 100583634.84643  24563545.556    24563545.014    24563547.142
        39.000          22.0004
 110505703.102 8  86108346.51346  21028531.228    21028531.116    21028533.479
        51.000          40.0004
 127020820.458 6  98977262.50844  24171260.398    24171261.292    24171262.340
        41.000          25.0004
 13  1  1  0 31 30.0000000  0 10G29G25G02G14G24G04G12G17G09G15
 127208731.613 6  99123684.16443  24207014.218    24207015.009    24207016.121
        37.000          19.0004
 118886006.347 7  92638440.12245  22623249.042    22623249.172    22623252.749
        47.000          34.0004
 120538691.166 7  93926255.02145  22937749.371    22937749.285    22937748.569
        44.000          32.0004
 122854785.108 6  95730992.10144  23378483.630    23378483.958    23378485.696
        39.000          24.0004
 106559895.755 8  83033699.96747  20277675.566    20277676.122    20277679.375
        53.000          46.0004
 119178680.888 7  92866482.38545  22678940.738    22678941.119    22678943.655
        45.000          30.0004
 108663863.071 8  84673131.98747  20678033.668    20678033.663    20678034.558
        51.000          44.0004
 129090580.808 6 100590062.70743  24565114.621    24565114.565    24565117.102
        40.000          22.0004
 110490376.942 8  86096404.04146  21025614.810    21025614.580    21025616.711
        50.000          40.0004
 127032565.385 6  98986414.33744  24173496.028    24173495.613    24173496.057
        41.000          24.0004
 13  1  1  0 32  0.0000000  0 10G29G25G02G14G24G04G12G17G09G15
 127010782.322 6  98969437.97543  24169347.240    24169346.014    24169348.229
        36.000          18.0004
 118728758.341 7  92515909.21845  22593324.970    22593324.896    22593329.453
        45.000          33.0004
 120379659.213 7  93802334.01545  22907486.376    22907486.064    22907485.629
        46.000          32.0004
 122709344.738 6  95617661.93243  23350808.365    23350808.003    23350809.461
        38.000          23.0004
 106491364.816 9  82980299.23247  20264634.694    20264635.273    20264638.479
        54.000          47.0004
 119078081.556 7  92788093.30244  22659797.600    22659797.685    22659799.350
        46.000          29.0004
 108554153.485 8  84587643.99947  20657156.630    20657156.944    20657157.543
        53.000          44.0004
 129098917.316 6 100596558.68843  24566700.274    24566701.448    24566703.173
        39.000          23.0004
 110475468.241 8  86084786.86746  21022777.674    21022777.767    21022779.780
        51.000          40.0004
 127044317.651 6  98995571.91643  24175731.855    24175732.142    24175732.055
        41.000          23.0004
 13  1  1  0 32 30.0000000  0 10G29G25G02G14G24G04G12G17G09G15
 126812970.878 6  98815299.21443  24131703.196    24131703.587    24131706.503
        37.000          19.0004
 118571643.644 7  92393482.19445  22563426.936    22563426.446    22563431.286
        45.000          32.0004
 120220897.881 7  93678623.89045  22877274.728    22877274.576    22877274.946
        46.000          33.0004
 122564395.282 6  95504714.32043  23323225.057    23323223.997    23323226.961
        39.000          23.0004
 106423312.573 8  82927271.50547  20251684.350    20251685.133    20251688.687
        53.000          47.0004
 118978063.500 7  92710157.17444  22640764.221    22640765.185    22640766.719
        44.000          29.0004
 108444679.585 8  84502339.66347  20636324.392    20636324.858    20636325.347
        53.000          45.0004
 129107339.148 6 100603121.13343  24568304.080    24568303.704    24568305.760
        39.000          23.0004
 110460975.474 8  86073493.79846  21020019.798    21020019.971    21020022.012
        50.000          40.0004
 127056074.269 6  99004732.93343  24177970.432    24177969.364    24177970.095
        41.000          22.0004
 13  1  1  0 33  0.0000000  0 10G29G25G02G14G24G04G12G17G09G15
 126615297.855 6  98661268.33443  24094088.311    24094088.036    24094090.354
        38.000          20.0004
 118414661.433 7  92271158.41745  22533554.653    22533554.075    22533558.379
        45.000          32.0004
 120062408.585 7  93555125.74445  22847115.570    22847115.371    22847115.448
        46.000          33.0004
 122419937.656 6  95392149.94343  23295735.420    23295735.497    23295737.557
        40.000          23.0004
 106355738.316 9  82874616.23447  20238825.854    20238826.106    20238829.891
        54.000          46.0004
 118878626.704 7  92632673.96045  22621842.515    22621842.911    22621844.363
        46.000          30.0004
 108335439.795 8  84417217.74947  20615536.879    20615537.122    20615537.436
        52.000          44.0004
 129115843.150 6 100609747.59443  24569922.694    24569922.508    24569924.715
        40.000          23.0004
 110446896.520 8  86062523.17446  21017340.689    21017340.713    21017342.810
        51.000          40.0004
 127067831.573 6  99013894.45743  24180204.999    24180206.245    24180208.051
        39.000          23.0004
 13  1  1  0 33 30.0000000  0 10G29G25G02G14G24G04G12G17G09G15
 126417767.657 6  98507348.68543  24056498.710    24056499.577    24056501.398
        38.000          19.0004
 118257814.126 7  92148939.72845  22503707.659    22503707.319    22503711.324
        45.000          32.0004
 119904196.673 7  93431843.73845  22817009.141    22817008.894    22817008.810
        47.000          34.0004
 122275975.888 6  95279971.94644  23268340.466    23268340.915    23268342.335
        40.000          24.0004
 106288644.860 9  82822335.61047  20226058.461    20226058.516    20226062.451
        55.000          46.0004
 118779774.617 7  92555646.37545  22603030.995    22603032.215    22603033.471
        45.000          30.0004
 108226435.859 8  84332279.61247  20594793.938    20594794.282    20594794.577
        52.000          45.0004
 129124429.775 6 100616438.46343  24571554.241    24571556.511    24571558.350
        39.000          23.0004
 110433232.095 8  86051875.56746  21014740.266    21014740.427    21014742.336
        49.000          40.0004
 127079589.172 6  99023056.16543  24182442.624    24182443.174    24182445.024
        38.000          22.0004
 13  1  1  0 34  0.0000000  0 10G29G25G02G14G24G04G12G17G09G15
 126220377.862 6  98353538.50243  24018936.092    24018938.755    24018938.598
        39.000          18.0004
 118101097.946 7  92026823.23345  22473885.376    22473885.344    22473889.190
        43.000          33.0004
 119746260.570 7  93308776.66045  22786954.508    22786954.517    22786954.822
        45.000          34.0004
 122132507.657 6  95168178.50944  23241040.650    23241040.059    23241040.654
        40.000          24.0004
 106222028.091 8  82770426.43447  20213381.678    20213381.871    20213385.493
        53.000          46.0004
 118681503.983 7  92479071.84645  22584331.116    22584331.566    22584333.912
        46.000          30.0004
 108117664.269 8  84247522.52947  20574095.226    20574095.816    20574096.204
        51.000          45.0004
 129133092.653 6 100623188.72443  24573203.202    24573205.717    24573206.456
        41.000          23.0004
 110419977.077 8  86041546.97246  21012217.979    21012217.858    21012220.006
        50.000          39.0004
 127091340.350 6  99032212.88443  24184680.225    24184679.570    24184682.243
        39.000          22.0004
 13  1  1  0 34 30.0000000  0 10G29G25G02G14G24G04G12G17G09G15
 126023134.414 6  98199842.27843  23981403.217    23981403.989    23981404.316
        38.000          19.0004
 117944516.661 7  91904811.85045  22444089.068    22444088.908    22444092.736
        45.000          33.0004
 119588606.281 7  93185929.16945  22756953.747    22756954.046    22756953.731
        46.000          34.0004
 121989538.272 6  95056773.80344  23213833.008    23213834.418    23213834.952
        41.000          25.0004
 106155892.177 8  82718891.94847  20200796.462    20200796.506    20200800.136
        52.000          46.0004
 118583819.604 7  92402954.15145  22565742.277    22565742.928    22565745.697
        46.000          31.0004
 108009127.988 8  84162948.81247  20553441.764    20553442.234    20553442.333
        52.000          44.0004
 129141833.350 6 100629999.65743  24574867.106    24574869.076    24574870.059
        40.000          23.0004
 110407133.958 8  86031539.33646  21009774.103    21009774.042    21009776.345
        49.000          40.0004
 127103086.132 6  99041365.44643  24186914.489    24186915.778    24186917.448
        40.000          22.0004
 13  1  1  0 35  0.0000000  0 10G29G25G02G14G24G04G12G17G09G15
 127401465.236 6  99273866.26343  24243690.566    24243690.283    24243692.061
        37.000          18.0004
 119363495.263 7  93010509.49545  22714111.429    22714110.995    22714115.684
        44.000          32.0004
 121006661.174 7  94290907.01045  23026801.115    23026801.178    23026800.936
        45.000          34.0004
 123422493.903 6  96173362.60644  23486515.436    23486515.927    23486516.614
        41.000          24.0004
 107665659.410 9  83895333.94347  20488095.375    20488095.963    20488099.267
        54.000          46.0004
 120062144.976 7  93554896.00245  22847058.796    22847059.222    22847061.188
        46.000          31.0004
 109476250.230 8  85306160.94847  20832625.907    20832626.079    20832626.308
        53.000          44.0004
 130726069.272 6 101864469.18243  24876335.946    24876340.164    24876339.526
        40.000          23.0004
 111970121.220 8  87249451.47146  21307200.852    21307200.764    21307202.606
        49.000          39.0004
 128690243.127 6 100278111.14243  24488937.661    24488942.573    24488944.192
        40.000          21.0004
 13  1  1  0 35 30.0000000  0 10G29G25G02G14G24G04G12G17G09G15
 127204518.849 6  99120401.59043  24206212.311    24206213.039    24206214.360
        36.000          18.0004
 119207183.067 7  92888707.79945  22684366.499    22684365.797    22684370.341
        44.000          32.0004
 120849577.718 7  94168504.32445  22996909.357    22996909.101    22996908.381
        46.000          34.0004
 123280526.575 6  96062738.71044  23459500.937    23459500.504    23459502.193
        40.000          24.0004
 107600484.967 8  83844548.65047  20475693.229    20475693.767    20475697.054
        52.000          47.0004
 119965634.383 7  93479692.94045  22828693.539    22828693.930    22828695.214
        45.000          30.0004
 109368183.016 8  85221952.73047  20812061.145    20812061.640    20812061.912
        51.000          45.0004
 130734958.682 6 101871395.97643  24878028.094    24878031.470    24878030.768
        40.000          22.0004
 111958096.514 8  87240081.57146  21304912.831    21304912.231    21304914.038
        50.000          39.0004
 128701969.271 6 100287248.39943  24491171.274    24491174.200    24491174.043
        39.000          20.0004
 13  1  1  0 36  0.0000000  0 10G29G25G02G14G24G04G12G17G09G15
 127007722.098 6  98967053.47343  24168763.227    24168763.707    24168765.633
        37.000          19.0004
 119051004.009 7  92767009.85645  22654646.595    22654646.685    22654650.530
        44.000          33.0004
 120692781.848 8  94046325.72545  22967072.227    22967071.759    22967071.153
        48.000          35.0004
 123139060.744 6  95952505.60544  23432579.849    23432580.085    23432581.695
        40.000          24.0004
 107535789.722 8  83794136.76447  20463382.261    20463382.670    20463385.960
        53.000          47.0004
 119869710.609 7  93404947.17045  22810439.187    22810439.602    22810441.249
        45.000          30.0004
 109260348.068 8  85137925.50147  20791540.859    20791541.409    20791541.787
        53.000          43.0004
 130743917.673 6 101878376.98543  24879733.337    24879737.159    24879736.331
        41.000          22.0004
 111946477.184 8  87231027.54146  21302701.420    21302701.159    21302703.257
        49.000          39.0004
 128713680.169 6 100296373.74843  24493400.359    24493402.285    24493403.224
        40.000          22.0004
 13  1  1  0 36 30.0000000  0 10G29G25G02G14G24G04G12G17G09G15
 126811078.640 6  98813824.83743  24131344.219    24131345.163    24131346.260
        39.000          20.0004
 118894960.159 7  92645417.24045  22624951.659    22624951.860    22624956.766
        44.000          33.0004
 120536278.149 7  93924374.79145  22937290.528    22937289.675    22937289.840
        47.000          34.0004
 122998099.954 6  95842666.04244  23405755.218    23405755.715    23405757.739
        40.000          24.0004
 107471575.719 8  83744099.87247  20451162.647    20451163.098    20451166.425
        52.000          46.0004
 119774376.098 6  93330660.56444  22792297.179    22792297.192    22792299.741
        41.000          29.0004
 109152747.709 8  85054081.05947  20771065.389    20771065.346    20771066.108
        51.000          44.0004
 130752946.255 6 101885412.23743  24881450.750    24881455.481    24881454.043
        39.000          21.0004
 111935264.014 8  87222289.99846  21300567.816    21300567.741    21300569.664
        50.000          39.0004
 128725374.486 6 100305486.17344  24495626.817    24495627.905    24495629.053
        38.000          24.0004
 13  1  1  0 37  0.0000000  0 10G29G25G02G14G24G04G12G17G09G15
 126614588.533 6  98660715.70043  24093953.517    24093953.806    24093955.432
        39.000          21.0004
 118739049.959 7  92523928.79345  22595282.362    22595282.316    22595287.709
        44.000          31.0004
 120380067.771 8  93802652.43345  22907564.364    22907564.443    22907563.896
        48.000          35.0004
 122857644.211 6  95733219.99244  23379029.280    23379027.878    23379029.497
        41.000          24.0004
 107407841.899 8  83694437.15347  20439034.479    20439035.049    20439038.247
        53.000          46.0004
 119679630.133 7  93256832.54244  22774268.740    22774268.167    22774269.835
        44.000          29.0004
 109045380.345 8  84970418.18347  20750633.905    20750634.102    20750634.666
        51.000          44.0004
 130762040.859 6 101892498.93543  24883181.050    24883185.931    24883184.322
        40.000          20.0004
 111924453.738 8  87213866.39646  21298510.606    21298510.540    21298512.709
        50.000          39.0004
 128737048.541 6 100314582.78343  24497846.727    24497848.506    24497850.189
        39.000          23.0004
 13  1  1  0 37 30.0000000  0 10G29G25G02G14G24G04G12G17G09G15
 126418255.151 6  98507728.63543  24056592.516    24056591.877    24056594.673
        39.000          21.0004
 118583274.873 7  92402545.63045  22565639.528    22565639.699    22565644.756
        44.000          32.0004
 120224153.793 7  93681161.01845  22877895.499    22877894.840    22877894.790
        47.000          35.0004
 122717696.865 6  95624170.11244  23352398.038    23352397.252    23352398.155
        40.000          24.0004
 107344589.286 8  83645149.39547  20426997.909    20426998.340    20427001.716
        53.000          46.0004
 119585474.569 7  93183464.57144  22756351.031    22756351.652    22756353.150
        45.000          29.0004
 108938246.326 8  84886937.12747  20730247.149    20730247.566    20730247.683
        50.000          44.0004
 130771200.549 6 101899636.35643  24884923.939    24884929.260    24884926.944
        40.000          20.0004
 111914046.475 7  87205756.83546  21296529.997    21296530.193    21296532.023
        47.000          40.0004
 128748700.945 6 100323662.53943  24500065.765    24500065.910    24500066.917
        38.000          22.0004
 13  1  1  0 38  0.0000000  0 10G29G25G02G14G24G04G12G17G09G15
 126222080.785 6  98354865.50743  24019261.582    24019261.634    24019262.983
        40.000          22.0004
 118427635.413 7  92281268.14645  22536022.932    22536022.630    22536027.067
        43.000          32.0004
 120068539.705 8  93559903.29845  22848282.894    22848282.752    22848282.342
        48.000          35.0004
 122578259.325 6  95515517.48044  23325863.604    23325863.301    23325864.752
        40.000          25.0004
 107281818.362 8  83596236.98347  20415052.866    20415053.738    20415056.519
        53.000          46.0004
 119491910.854 7  93110557.77945  22738546.759    22738547.081    22738548.925
        46.000          30.0004
 108831345.942 8  84803638.12647  20709904.665    20709904.946    20709905.303
        53.000          44.0004
 130780423.723 6 101906823.21643  24886676.827    24886655.702    24886682.516
        40.000          20.0004
 111904040.981 8  87197960.34546  21294626.195    21294625.765    21294628.122
        50.000          39.0004
 128760328.974 5 100332723.29243  24502278.579    24502278.210    24502278.573
        35.000          21.0004
 13  1  1  0 38 30.0000000  0 10G29G25G02G14G24G04G12G17G09G15
 126026067.320 6  98202127.75243  23981961.781    23981961.487    23981962.681
        40.000          22.0004
 118272131.773 7  92160096.49745  22506431.483    22506431.220    22506436.112
        45.000          33.0004
 119913227.970 8  93438881.17545  22818727.620    22818727.337    22818726.698
        48.000          34.0004
 122439333.381 6  95407263.50044  23299426.721    23299427.340    23299428.228
        41.000          26.0004
 107219529.454 8  83547700.16347  20403199.968    20403200.559    20403203.527
        53.000          46.0004
 119398939.526 7  93038112.58245  22720854.960    22720855.388    22720857.038
        44.000          30.0004
 108724679.294 8  84720521.25947  20689606.458    20689606.804    20689607.313
        53.000          43.0004
 130789708.425 6 101914058.02243  24888443.451    24888423.287    24888448.517
        39.000          19.0004
 111894436.078 8  87190475.99446  21292798.342    21292798.169    21292800.321
        49.000          39.0004
 128771930.535 6 100341763.44943  24504485.504    24504484.878    24504485.923
        38.000          19.0004
 13  1  1  0 39  0.0000000  0 10G29G25G02G14G24G04G12G17G09G15
 125830216.514 6  98049516.73543  23944692.497    23944692.939    23944694.225
        40.000          22.0004
 118116764.150 7  92039030.84245  22476866.210    22476865.700    22476870.773
        43.000          33.0004
 119758221.394 7  93318096.82845  22789231.122    22789230.436    22789230.204
        47.000          35.0004
 122300920.778 7  95299409.52344  23273088.337    23273088.552    23273088.635
        42.000          26.0004
 107157722.777 8  83499539.10947  20391438.187    20391438.808    20391442.275
        53.000          46.0004
 119306561.324 7  92966129.56045  22703275.574    22703276.531    22703278.371
        47.000          31.0004
 108618245.504 8  84637585.83847  20669352.769    20669352.986    20669353.687
        52.000          44.0004
 130799052.779 6 101921339.28243  24890223.867    24890230.625    24890226.911
        38.000          18.0004
 111885230.234 8  87183302.60146  21291046.594    21291046.383    21291048.462
        49.000          39.0004
 128783502.781 6 100350780.78343  24506686.388    24506687.340    24506687.245
        37.000          19.0004
 13  1  1  0 39 30.0000000  0 10G29G25G02G14G24G04G12G17G09G15
 125634530.205 6  97897033.90743  23907453.700    23907455.748    23907455.594
        41.000          21.0004
 117961532.827 7  91918071.39545  22447326.642    22447326.367    22447330.837
        42.000          33.0004
 119603522.475 7  93197552.21845  22759792.825    22759792.290    22759792.043
        46.000          35.0004
 122163022.817 7  95191956.56944  23246846.451    23246847.160    23246847.094
        43.000          26.0004
 107096398.294 8  83451753.79547  20379768.500    20379769.056    20379772.723
        53.000          47.0004
 119214777.244 7  92894609.50845  22685809.204    22685809.324    22685812.074
        45.000          30.0004
 108512045.499 8  84554832.58847  20649143.654    20649144.390    20649144.233
        52.000          44.0004
 130808454.855 6 101928665.59243  24892011.505    24891990.439    24892015.980
        38.000          19.0004
 111876422.252 8  87176439.22946  21289370.123    21289370.022    21289372.507
        49.000          39.0004
 128795043.454 6 100359773.43943  24508883.521    24508883.829    24508882.876
        37.000          20.0004
 13  1  1  0 40  0.0000000  0 10G29G25G02G14G24G04G12G17G09G15
 125439008.177 6  97744679.09843  23870247.418    23870248.202    23870249.102
        40.000          21.0004
 117806435.670 7  91797216.45745  22417812.490    22417812.704    22417816.937
        45.000          33.0004
 119449131.500 7  93077247.57845  22730413.343    22730412.892    22730412.982
        47.000          35.0004
 122025638.638 7  95084903.95444  23220703.426    23220703.364    23220703.336
        43.000          26.0004
 107035554.097 8  83404342.72447  20368190.580    20368190.948    20368194.351
        53.000          47.0004
 119123585.290 7  92823550.86244  22668456.570    22668455.954    22668458.896
        45.000          29.0004
 108406076.338 8  84472259.22147  20628978.349    20628978.823    20628979.069
        52.000          44.0004
 130817910.333 6 101936033.46043  24893812.562    24893819.513    24893815.163
        39.000          19.0004
 111868008.278 8  87169882.87246  21287769.500    21287769.009    21287771.546
        49.000          39.0004
 128806547.260 6 100368737.37043  24511071.957    24511072.831    24511073.092
        38.000          20.0004
 13  1  1  0 40 30.0000000  0 10G29G25G02G14G24G04G12G17G09G15
 125243654.918 6  97592455.79343  23833073.180    23833074.043    23833074.635
        40.000          21.0004
 117651475.624 7  91676468.38445  22388324.581    22388324.831    22388328.835
        45.000          33.0004
 119295053.656 8  92957186.91145  22701092.802    22701093.189    22701092.720
        48.000          35.0004
 121888772.813 7  94978255.26444  23194659.123    23194658.653    23194659.384
        42.000          26.0004
 106975192.586 8  83357307.77447  20356703.938    20356704.302    20356707.944
        52.000          46.0004
 119032989.083 7  92752956.43744  22651216.401    22651216.225    22651218.714
        42.000          29.0004
 108300340.613 8  84389867.74747  20608857.781    20608857.745    20608858.341
        51.000          45.0004
 130827420.009 6 101943443.58443  24895623.807    24895629.191    24895624.614
        40.000          19.0004
 111859989.527 8  87163634.49146  21286243.400    21286243.547    21286245.620
        50.000          39.0004
 128818014.535 6 100377672.82643  24513254.445    24513256.045    24513256.033
        38.000          20.0004
 13  1  1  0 41  0.0000000  0 10G29G25G02G14G24G04G12G17G09G15
 125048472.947 6  97440365.96043  23795931.470    23795932.035    23795932.203
        38.000          21.0004
 117496653.125 7  91555827.49445  22358863.213    22358863.215    22358867.150
        45.000          34.0004
 119141291.989 7  92837372.63245  22671832.805    22671832.935    22671832.953
        47.000          34.0004
 121752427.073 7  94872011.82844  23168712.699    23168712.598    23168713.741
        43.000          27.0004
 106915314.183 8  83310649.27447  20345309.363    20345309.976    20345313.555
        52.000          47.0004
 118942989.378 7  92682826.82244  22634090.331    22634090.697    22634092.178
        45.000          29.0004
 108194838.952 8  84307658.66747  20588781.381    20588781.826    20588782.047
        52.000          44.0004
 130836982.717 6 101950895.04043  24897443.596    24897448.558    24897444.084
        40.000          19.0004
 111852364.766 8  87157693.11546  21284792.497    21284792.667    21284794.767
        49.000          39.0004
 128829443.277 6 100386578.28843  24515430.576    24515430.051    24515431.321
        37.000          20.0004
 13  1  1  0 41 30.0000000  0 10G29G25G02G14G24G04G12G17G09G15
 124853463.215 6  97288410.32443  23758821.409    23758823.638    23758824.402
        40.000          21.0004
 117341968.114 7  91435293.73045  22329427.180    22329427.211    22329431.177
        46.000          34.0004
 118987848.662 8  92717806.41745  22642633.299    22642633.674    22642633.682
        48.000          35.0004
 121616602.381 7  94766174.40644  23142866.165    23142865.679    23142866.983
        42.000          26.0004
 106855919.004 8  83264367.31047  20334007.090    20334007.512    20334010.994
        52.000          46.0004
 118853586.554 7  92613162.28744  22617077.139    22617077.853    22617079.316
        46.000          29.0004
 108089569.767 8  84225630.73347  20568749.330    20568749.966    20568749.804
        51.000          44.0004
 130846595.772 6 101958385.73343  24899270.776    24899276.313    24899272.921
        39.000          19.0004
 111845132.229 8  87152057.36446  21283416.283    21283416.460    21283418.615
        50.000          38.0004
 128840830.560 6 100395451.47443  24517598.022    24517597.158    24517599.214
        38.000          21.0004
 13  1  1  0 42  0.0000000  0 10G29G25G02G14G24G04G12G17G09G15
 124658626.644 6  97136589.63543  23721745.803    23721746.333    23721748.034
        40.000          21.0004
 117187419.633 7  91314866.35145  22300017.917    22300017.366    22300021.761
        46.000          34.0004
 118834724.983 7  92598489.27445  22613495.353    22613495.025    22613495.154
        47.000          34.0004
 121481299.134 7  94660743.31444  23117119.022    23117118.787    23117119.372
        42.000          27.0004
 106797005.670 8  83218460.80447  20322796.309    20322796.632    20322800.204
        53.000          47.0004
 118764779.946 7  92543962.33045  22600177.877    22600178.327    22600180.341
        45.000          30.0004
 107984532.892 8  84143783.81147  20548761.502    20548761.603    20548762.229
        53.000          45.0004
 130856256.551 6 101965913.61343  24901110.703    24901115.224    24901112.429
        38.000          19.0004
 111838289.316 8  87146725.21346  21282114.501    21282114.530    21282116.434
        51.000          39.0004
 128852172.527 6 100404289.29443  24519755.446    24519755.500    24519758.589
        38.000          21.0004
 13  1  1  0 42 30.0000000  0 10G29G25G02G14G24G04G12G17G09G15
 124463964.690 6  96984905.02743  23684703.054    23684703.957    23684705.619
        41.000          23.0004
 117033007.737 7  91194545.40845  22270634.317    22270634.216    22270638.281
        46.000          34.0004
 118681923.228 8  92479422.97345  22584417.991    22584417.824    22584417.312
        48.000          33.0004
 121346518.556 7  94555719.47844  23091471.244    23091471.540    23091471.804
        44.000          27.0004
 106738574.133 8  83172929.73347  20311676.896    20311677.568    20311680.995
        53.000          46.0004
 118676569.985 7  92475227.28644  22583392.133    22583391.750    22583394.173
        45.000          29.0004
 107879727.333 9  84062117.14747  20528817.592    20528817.541    20528818.498
        54.000          45.0004
 130865962.340 6 101973476.53343  24902957.518    24902961.098    24902958.642
        39.000          18.0004
 111831834.441 8  87141695.43646  21280886.024    21280885.970    21280887.686
        50.000          39.0004
 128863466.686 6 100413089.92043  24521905.181    24521903.935    24521907.567
        36.000          21.0004
 13  1  1  0 43  0.0000000  0 10G29G25G02G14G24G04G12G17G09G15
 124269479.201 6  96833357.88244  23647693.823    23647694.438    23647696.244
        41.000          24.0004
 116878732.282 7  91074330.77545  22241276.196    22241276.003    22241280.495
        45.000          34.0004
 118529445.920 7  92360609.49145  22555402.287    22555402.350    22555401.948
        47.000          33.0004
 121212261.782 7  94451103.81444  23065923.275    23065923.371    23065923.949
        44.000          28.0004
 106680624.041 8  83127773.81147  20300649.656    20300650.129    20300653.536
        53.000          46.0004
 118588956.898 7  92406957.34444  22566720.258    22566719.898    22566722.737
        44.000          29.0004
 107775153.191 8  83980630.81147  20508917.823    20508918.118    20508918.596
        52.000          44.0004
 130875711.279 6 101981073.09243  24904813.652    24904817.541    24904813.307
        40.000          18.0004
 111825765.677 8  87136966.52946  21279730.794    21279730.710    21279732.984
        49.000          38.0004
 128874709.886 6 100421850.77843  24524043.964    24524043.713    24524047.548
        37.000          23.0004
 13  1  1  0 43 30.0000000  0 10G29G25G02G14G24G04G12G17G09G15
 124075173.184 6  96681950.61544  23610716.975    23610719.008    23610721.044
        41.000          25.0004
 116724594.830 7  90954223.67745  22211944.848    22211945.147    22211949.192
        46.000          34.0004
 118377296.558 7  92242051.54545  22526449.587    22526449.072    22526448.706
        47.000          33.0004
 121078531.496 7  94346898.39444  23040475.048    23040474.924    23040476.381
        42.000          28.0004
 106623156.581 8  83082993.96547  20289713.786    20289714.413    20289717.805
        53.000          46.0004
 118501942.526 7  92339153.93945  22550162.011    22550161.556    22550163.916
        44.000          30.0004
 107670811.710 8  83899325.76047  20489062.390    20489062.776    20489062.891
        49.000          45.0004
 130885502.817 6 101988702.85643  24906676.422    24906680.078    24906676.881
        37.000          18.0004
 111820083.011 8  87132538.46946  21278649.397    21278649.337    21278651.295
        48.000          38.0004
 128885900.908 6 100430570.95943  24526172.943    24526172.551    24526176.429
        36.000          22.0004
 13  1  1  0 44  0.0000000  0 10G29G25G02G14G24G04G12G17G09G15
 125456473.999 7  97758288.92444  23873571.219    23873571.458    23873573.516
        42.000          25.0004
 118146019.685 7  92061827.47945  22482433.384    22482433.425    22482437.771
        47.000          35.0004
 119800901.825 7  93351354.37445  22797352.276    22797352.638    22797351.941
        47.000          34.0004
 122520752.721 7  95470707.14844  23314920.873    23314920.502    23314921.862
        43.000          28.0004
 108141592.473 8  84266190.75947  20578662.527    20578662.706    20578666.570
        52.000          46.0004
 119990949.065 7  93499418.79345  22833510.243    22833511.284    22833512.013
        45.000          30.0004
 109142124.491 9  85045803.25147  20769043.908    20769044.281    20769044.570
        54.000          45.0004
 132470753.484 6 103223963.10842  25208338.583    25208343.150    25208339.598
        39.000          17.0004
 113390203.786 8  88356009.19546  21577433.712    21577433.505    21577435.470
        48.000          38.0004
 130472455.805 6 101666847.45643  24828084.915    24828085.435    24828087.673
        38.000          21.0004
 13  1  1  0 44 30.0000000  0 10G29G25G02G14G24G04G12G17G09G15
 125262529.691 7  97607163.50844  23836664.263    23836665.685    23836666.647
        42.000          25.0004
 117992156.079 7  91941933.77145  22453154.194    22453154.128    22453158.547
        45.000          35.0004
 119649413.300 7  93233311.35745  22768525.252    22768525.716    22768524.722
        47.000          34.0004
 122388076.754 7  95367323.26844  23289673.604    23289673.284    23289673.868
        44.000          28.0004
 108085087.275 8  84222160.72847  20567909.855    20567910.141    20567913.755
        52.000          46.0004
 119905130.639 7  93432547.29445  22817179.561    22817179.763    22817181.477
        44.000          30.0004
 109038243.880 8  84964857.32347  20749275.964    20749276.401    20749276.747
        53.000          45.0004
 132480621.810 6 103231652.68542  25210218.562    25210222.783    25210217.989
        39.000          17.0004
 113385285.598 8  88352176.83246  21576497.821    21576497.855    21576499.854
        50.000          38.0004
 130483532.451 6 101675478.52343  24830191.017    24830193.951    24830195.396
        38.000          21.0004
 13  1  1  0 45  0.0000000  0 10G29G25G02G14G24G04G12G17G09G15
 125068768.823 6  97456181.01944  23799793.545    23799793.557    23799794.470
        40.000          24.0004
 117838429.570 7  91822146.87945  22423900.806    22423901.029    22423905.190
        47.000          35.0004
 119498258.470 7  93115528.38345  22739761.369    22739761.808    22739761.197
        47.000          34.0004
 122255929.566 7  95264351.42044  23264526.421    23264526.092    23264527.161
        43.000          28.0004
 108029063.317 8  84178505.68547  20557248.993    20557249.226    20557252.740
        50.000          45.0004
 119819910.509 7  93366142.01745  22800962.413    22800963.478    22800964.592
        45.000          30.0004
 108934594.078 9  84884091.24447  20729551.794    20729552.586    20729552.718
        54.000          45.0004
 132490525.528 6 103239369.86242  25212102.523    25212105.705    25212101.843
        38.000          16.0004
 113380747.342 7  88348640.51746  21575634.468    21575634.529    21575636.215
        47.000          38.0004
 130494547.974 6 101684061.97443  24832287.127    24832290.362    24832291.024
        37.000          20.0004
 13  1  1  0 45 30.0000000  0 10G29G25G02G14G24G04G12G17G09G15
 124875192.704 6  97305342.47544  23762957.030    23762957.121    23762958.548
        40.000          24.0004
 117684839.960 7  91702466.65445  22394674.208    22394674.060    22394677.876
        46.000          35.0004
 119347439.734 8  92998007.28145  22711061.812    22711061.635    22711061.118
        49.000          34.0004
 122124312.165 7  95161792.41144  23239480.631    23239479.992    23239481.218
        43.000          28.0004
 107973519.657 8  84135224.89847  20546679.658    20546679.872    20546683.246
        51.000          46.0004
 119735288.846 7  93300203.07445  22784859.832    22784860.216    22784862.421
        46.000          30.0004
 108831174.269 8  84803504.37547  20709871.936    20709872.225    20709872.633
        51.000          45.0004
 132500462.388 6 103247112.85042  25213994.146    25213996.272    25213994.532
        36.000          15.0004
 113376586.749 8  88345398.49346  21574842.267    21574842.461    21574844.576
        50.000          38.0004
 130505499.637 6 101692595.60343  24834372.226    24834374.818    24834374.822
        38.000          21.0004
 13  1  1  0 46  0.0000000  0 10G29G25G02G14G24G04G12G17G09G15
 124681801.957 6  97154648.40944  23726155.412    23726155.824    23726157.304
        41.000          24.0004
 117531386.760 7  91582892.72746  22365472.410    22365472.542    22365476.519
        47.000          36.0004
 119196958.891 8  92880749.49645  22682426.300    22682425.693    22682425.518
        48.000          34.0004
 121993225.153 7  95059646.68344  23214535.177    23214535.232    23214536.251
        42.000          28.0004
 107918455.558 8  84092317.80647  20536201.137    20536201.446    20536204.924
        53.000          46.0004
 119651264.989 7  93234729.93345  22768870.652    22768871.149    22768873.031
        44.000          30.0004
 108727983.329 8  84723095.85447  20690235.384    20690235.755    20690236.279
        53.000          45.0004
 132510429.361 6 103254879.33942  25215890.787    25215893.419    25215890.484
        36.000          13.0004
 113372801.584 8  88342449.00246  21574121.761    21574121.949    21574124.189
        48.000          38.0004
 130516383.853 6 101701076.72343  24836445.539    24836446.497    24836447.210
        39.000          23.0004
 13  1  1  0 46 30.0000000  0 10G29G25G02G14G24G04G12G17G09G15
 124488600.527 6  97004101.83844  23689391.262    23689391.134    23689392.617
        40.000          24.0004
 117378071.665 8  91463426.43645  22336297.806    22336297.562    22336301.614
        48.000          35.0004
 119046819.847 7  92763758.02645  22653856.009    22653855.845    22653854.747
        47.000          34.0004
 121862671.505 7  94957916.56544  23189691.777    23189691.410    23189692.704
        44.000          27.0004
 107863872.543 8  84049785.58547  20525814.426    20525814.685    20525818.143
        52.000          47.0004
 119567840.960 7  93169724.19844  22752994.935    22752995.731    22752998.111
        45.000          29.0004
 108625022.739 8  84642866.83147  20670642.672    20670643.136    20670643.368
        52.000          45.0004
 132520426.799 5 103262669.51942  25217793.483    25217795.876    25217793.079
        34.000          13.0004
 113369392.046 8  88339792.21446  21573473.519    21573473.222    21573475.632
        48.000          38.0004
 130527199.809 6 101709504.63043  24838502.786    24838504.087    24838505.004
        39.000          22.0004
 13  1  1  0 47  0.0000000  0 10G29G25G02G14G24G04G12G17G09G15
 124295591.259 6  96853705.01744  23652663.257    23652662.456    23652664.110
        41.000          24.0004
 117224896.177 7  91344068.92646  22307149.525    22307149.766    22307153.265
        47.000          36.0004
 118897026.195 7  92647035.69945  22625350.813    22625350.749    22625350.490
        47.000          35.0004
 121732653.482 7  94856603.82344  23164949.784    23164949.290    23164950.544
        42.000          27.0004
 107809771.745 8  84007629.11747  20515519.206    20515519.496    20515523.347
        53.000          45.0004
 119485018.153 7  93105186.93644  22737234.343    22737234.687    22737237.810
        45.000          29.0004
 108522293.251 8  84562817.87547  20651093.876    20651094.035    20651094.584
        52.000          44.0004
 132530454.018 5 103270482.95541  25219698.899    25219701.765    25219700.325
        32.000          10.0004
 113366357.635 8  88337427.72446  21572896.128    21572895.809    21572897.930
        49.000          37.0004
 130537946.081 6 101717878.23643  24840548.872    24840548.341    24840550.938
        38.000          22.0004
 13  1  1  0 47 30.0000000  0 10G29G25G02G14G24G04G12G17G09G15
 124102775.433 6  96703458.93344  23615970.461    23615970.919    23615972.773
        41.000          25.0004
 117071859.788 7  91224819.80246  22278027.902    22278027.744    22278031.460
        45.000          36.0004
 118747579.518 7  92530583.76145  22596911.938    22596912.160    22596911.288
        47.000          35.0004
 121603171.641 7  94755708.87544  23140310.110    23140310.786    23140311.506
        44.000          27.0004
 107756151.928 8  83965847.43347  20505315.608    20505316.013    20505319.814
        53.000          46.0004
 119402796.256 7  93041117.93244  22721588.323    22721588.567    22721590.964
        43.000          29.0004
 108419794.409 9  84482948.64847  20631589.103    20631589.290    20631589.631
        55.000          44.0004
 132540508.331 5 103278317.48241  25221618.185    25221615.421    25221615.454
        32.000           8.0004
 113363696.025 8  88335353.73446  21572389.314    21572389.431    21572391.341
        48.000          38.0004
 130548619.965 6 101726195.46143  24842581.240    24842579.609    24842581.715
        37.000          21.0004
 13  1  1  0 48  0.0000000  0 10G29G25G02G14G24G04G12G17G09G15
 123910154.276 7  96553364.54344  23579316.160    23579316.143    23579318.072
        42.000          26.0004
 116918962.562 7  91105679.13146  22248932.229    22248932.089    22248936.325
        47.000          36.0004
 118598482.140 7  92414403.98345  22568539.740    22568539.651    22568538.959
        47.000          35.0004
 121474226.798 7  94655232.37144  23115773.223    23115772.631    23115774.917
        44.000          27.0004
 107703012.859 8  83924440.35647  20495203.752    20495204.203    20495207.736
        52.000          46.0004
 119321175.147 7  92977517.07144  22706056.283    22706056.940    22706058.842
        45.000          29.0004
 108317526.903 8  84403259.68447  20612127.957    20612128.353    20612128.819
        53.000          45.0004
 132550587.863 5 103286171.66041  25223533.466    25223533.884    25223533.940
        31.000           7.0004
 113361405.488 7  88333568.88846  21571953.578    21571953.662    21571955.508
        47.000          38.0004
 130559218.286 6 101734453.77443  24844597.569    24844595.684    24844599.191
        36.000          21.0004
 13  1  1  0 48 30.0000000  0 10G29G25G02G14G24G04G12G17G09G15
 123717729.325 7  96403423.03644  23542699.503    23542698.657    23542700.416
        42.000          26.0004
 116766204.429 7  90986646.83246  22219863.306    22219863.543    22219867.378
        46.000          36.0004
 118449736.222 7  92298498.07545  22540234.556    22540234.320    22540233.770
        47.000          35.0004
 121345819.870 7  94555175.03644  23091338.035    23091337.387    23091339.598
        43.000          28.0004
 107650354.324 8  83883407.72747  20485182.804    20485183.711    20485187.050
        52.000          46.0004
 119240154.828 7  92914384.36444  22690638.794    22690638.958    22690641.259
        43.000          29.0004
 108215489.449 8  84323749.98347  20592711.027    20592711.042    20592711.756
        52.000          45.0004
 132560690.465 5 103294043.84841  25225461.243    25225456.087    25225451.897
        31.000           6.0004
 113359484.101 8  88332071.70446  21571587.710    21571587.996    21571589.844
        48.000          37.0004
 130569738.384 6 101742651.14643  24846599.190    24846597.230    24846601.693
        39.000          22.0004
 13  1  1  0 49  0.0000000  0 10G29G25G02G14G24G04G12G17G09G15
 123525501.804 7  96253635.37244  23506119.696    23506118.795    23506120.935
        42.000          26.0004
 116613584.912 7  90867722.53146  22190820.990    22190821.415    22190824.826
        47.000          36.0004
 118301343.282 8  92182867.21745  22511996.005    22511995.527    22511995.003
        48.000          34.0004
 121217951.872 7  94455537.62544  23067005.797    23067005.163    23067007.145
        44.000          28.0004
 107598175.277 8  83842748.72847  20475253.496    20475253.895    20475257.645
        53.000          46.0004
 119159734.744 7  92851719.36844  22675335.433    22675335.938    22675337.338
        44.000          29.0004
 108113680.995 9  84244418.71947  20573337.333    20573337.593    20573338.301
        54.000          45.0004
 132570813.511 5 103301931.9224   25227385.533    25227385.045    25227379.572
        32.000           5.0004
 113357929.429 8  88330860.25846  21571292.052    21571292.144    21571294.221
        49.000          37.0004
 130580177.265 6 101750785.23944  24848584.590    24848584.487    24848588.920
        39.000          24.0004
 13  1  1  0 49 30.0000000  0 10G29G25G02G14G24G04G12G17G09G15
 123333473.639 7  96104003.05744  23469577.199    23469576.812    23469579.031
        43.000          27.0004
 116461104.605 8  90748906.71046  22161804.624    22161805.487    22161808.998
        48.000          37.0004
 118153306.405 8  92067513.81145  22483825.703    22483824.825    22483825.224
        48.000          35.0004
 121090623.459 7  94356320.68644  23042776.157    23042775.724    23042777.137
        42.000          28.0004
 107546475.226 8  83802462.96147  20465415.303    20465415.787    20465419.404
        52.000          46.0004
 119079915.394 7  92789522.48844  22660145.752    22660146.382    22660148.148
        44.000          28.0004
 108012102.223 8  84165266.43047  20554007.817    20554007.616    20554008.343
        52.000          45.0004
 132580955.822 5 103309834.9084   25229315.897    25229319.269    25229308.773
        31.000           1.0004
 113356740.327 8  88329933.66946  21571066.193    21571066.159    21571068.028
        49.000          38.0004
 130590532.481 6 101758854.12143  24850554.946    24850555.328    24850558.195
        39.000          22.0004
 13  1  1  0 50  0.0000000  0 10G29G25G02G14G24G04G12G17G09G15
 123141647.584 6  95954528.22344  23433074.597    23433073.753    23433075.914
        41.000          27.0004
 116308764.695 8  90630200.30446  22132815.139    22132815.519    22132819.691
        48.000          36.0004
 118005628.830 8  91952440.38345  22455723.434    22455723.317    22455722.974
        48.000          35.0004
 120963836.886 7  94257525.93544  23018649.424    23018648.636    23018650.882
        43.000          28.0004
 107495255.865 8  83762551.76647  20455668.743    20455669.362    20455672.934
        52.000          46.0004
 119000698.066 7  92727794.70244  22645071.449    22645071.607    22645073.539
        44.000          28.0004
 107910753.146 8  84086293.12347  20534721.739    20534721.987    20534722.103
        53.000          44.0004
 132591116.348 5                  25231246.300
        30.000
 113355915.906 8  88329291.25746  21570908.859    21570909.088    21570910.899
        49.000          38.0004
 130600802.895 6 101766856.94043  24852508.767    24852510.847    24852512.477
        40.000          22.0004
 13  1  1  0 50 30.0000000  0  9G29G25G02G14G24G04G12G09G15
 122950023.542 7  95805210.80244  23396609.193    23396608.588    23396610.473
        42.000          26.0004
 116156563.620 7  90511602.07945  22103852.627    22103852.349    22103856.582
        47.000          35.0004
 117858310.955 7  91837647.24146  22427689.740    22427689.656    22427689.249
        47.000          36.0004
 120837591.703 7  94159153.05444  22994625.800    22994625.395    22994627.228
        43.000          28.0004
 107444514.743 8  83723013.22247  20446013.205    20446013.540    20446017.248
        52.000          46.0004
 118922080.725 7  92666534.43744  22630110.857    22630111.115    22630113.055
        43.000          27.0004
 107809632.820 8  84007498.06647  20515478.954    20515479.592    20515479.849
        53.000          45.0004
 113355452.782 7  88328930.37046  21570820.849    21570820.319    21570822.968
        47.000          37.0004
 130610983.986 6 101774790.06743  24854448.995    24854448.599    24854450.072
        39.000          23.0004
 13  1  1  0 51  0.0000000  0  9G29G25G02G14G24G04G12G09G15
 122758604.789 7  95656053.34844  23360183.545    23360183.092    23360185.023
        43.000          27.0004
 116004503.138 8  90393113.38946  22074916.379    22074916.313    22074920.239
        48.000          36.0004
 117711356.607 7  91723137.36546  22399725.341    22399725.353    22399725.018
        47.000          36.0004
 120711890.719 7  94061204.23544  22970705.219    22970705.653    22970707.054
        43.000          28.0004
 107394252.791 8  83683848.05547  20436448.379    20436448.921    20436452.761
        52.000          46.0004
 118844065.025 7  92605742.97644  22615265.282    22615265.436    22615267.119
        45.000          28.0004
 107708742.641 9  83928882.34147  20496280.079    20496280.542    20496281.306
        54.000          45.0004
 113355350.443 8  88328850.61646  21570801.782    21570801.268    21570803.328
        49.000          37.0004
 130621074.764 6 101782652.85643  24856368.770    24856368.641    24856369.865
        39.000          23.0004
 13  1  1  0 51 30.0000000  0  9G29G25G02G14G24G04G12G09G15
 122567391.836 7  95507056.25044  23323796.839    23323797.206    23323797.997
        44.000          27.0004
 115852582.238 8  90274733.49146  22046006.638    22046006.930    22046010.326
        49.000          36.0004
 117564766.885 8  91608911.62446  22371830.263    22371830.305    22371830.220
        49.000          36.0004
 120586733.063 7  93963678.77644  22946888.804    22946888.786    22946889.646
        44.000          28.0004
 107344468.626 8  83645055.19147  20426975.332    20426975.209    20426978.997
        52.000          45.0004
 118766649.844 7  92545419.47144  22600533.345    22600534.576    22600534.966
        45.000          28.0004
 107608080.509 8  83850444.31847  20477124.884    20477125.256    20477125.799
        53.000          45.0004
 113355605.996 8  88329049.74546  21570849.523    21570849.846    21570851.825
        49.000          37.0004
 130631072.114 6 101790442.81743  24858271.534    24858271.269    24858271.238
        38.000          22.0004
 13  1  1  0 52  0.0000000  0  9G29G25G02G14G24G04G12G09G15
 122376387.266 7  95358221.52844  23287449.738    23287450.394    23287450.803
        44.000          27.0004
 115700802.022 8  90156463.19546  22017123.939    22017124.480    22017127.948
        48.000          37.0004
 117418544.971 8  91494972.47146  22344005.392    22344005.423    22344004.722
        49.000          37.0004
 120462120.854 7  93866578.35644  22923175.988    22923175.687    22923177.592
        44.000          29.0004
 107295162.874 8  83606635.12247  20417592.444    20417592.740    20417596.518
        51.000          46.0004
 118689835.910 7  92485564.43944  22585916.712    22585916.869    22585917.955
        43.000          28.0004
 107507647.963 8  83772185.19547  20458013.406    20458013.479    20458013.983
        51.000          44.0004
 113356218.795 8  88329527.24646  21570966.190    21570966.623    21570968.474
        49.000          37.0004
 130640973.849 5 101798158.28043  24860155.368    24860153.500    24860156.849
        35.000          21.0004
 13  1  1  0 52 30.0000000  0  9G29G25G02G14G24G04G12G09G15
 123761018.702 7  96437155.11644  23550936.569    23550937.213    23550937.629
        43.000          27.0004
 117124587.512 7  91265906.44546  22288061.261    22288061.497    22288065.397
        47.000          36.0004
 118848117.761 7  92608925.30346  22616043.924    22616043.770    22616044.095
        47.000          36.0004
 121913479.038 7  94997506.81144  23199359.933    23199359.838    23199361.461
        43.000          29.0004
 108821756.073 8  84796188.25547  20708093.427    20708093.965    20708097.556
        52.000          47.0004
 120189045.530 7  93653779.73544  22871206.658    22871207.329    22871208.198
        43.000          28.0004
 108982867.200 8  84921706.67347  20738738.226    20738738.472    20738738.884
        52.000          45.0004
 114932606.847 8  89557881.56446  21870942.968    21870943.169    21870945.283
        48.000          36.0004
 132226197.101 5 103033396.98943  25161814.413    25161811.148    25161814.724
        33.000          19.0004
 13  1  1  0 53  0.0000000  0  9G29G25G02G14G24G04G12G09G15
 123570435.718 7  96288648.88644  23514669.487    23514669.776    23514671.573
        42.000          27.0004
 116973089.224 7  91147855.84546  22259232.432    22259232.027    22259236.374
        47.000          36.0004
 118702638.405 8  92495564.77146  22588359.875    22588359.566    22588359.763
        48.000          37.0004
 121789960.745 7  94901258.77444  23175855.708    23175855.554    23175856.558
        46.000          29.0004
 108773405.399 8  84758512.39647  20698892.805    20698893.277    20698896.844
        53.000          46.0004
 120113433.964 7  93594861.63644  22856817.804    22856817.976    22856820.372
        44.000          28.0004
 108882892.721 8  84843804.48047  20719713.549    20719713.755    20719714.321
        53.000          45.0004
 114933928.957 7  89558911.76846  21871195.183    21871194.676    21871196.778
        47.000          36.0004
 132235900.601 5 103040958.01043  25163659.025    25163657.148    25163661.483
        33.000          19.0004
 13  1  1  0 53 30.0000000  0  9G29G25G02G14G24G04G12G09G15
 123380064.938 7  96140308.02644  23478443.017    23478443.271    23478444.987
        44.000          28.0004
 116821731.486 7  91029914.75846  22230429.613    22230429.210    22230433.571
        46.000          36.0004
 118557532.933 7  92382495.58046  22560747.541    22560747.066    22560747.321
        47.000          36.0004
 121666989.923 7  94805437.34644  23152455.286    23152454.983    23152456.321
        44.000          29.0004
 108725531.134 8  84721207.77047  20689782.432    20689782.959    20689786.741
        53.000          46.0004
 120038422.574 7  93536411.21944  22842543.934    22842543.825    22842546.492
        44.000          29.0004
 108783146.388 8  84766080.05747  20700732.597    20700732.892    20700733.162
        53.000          46.0004
 114935602.122 8  89560215.51646  21871512.869    21871512.771    21871515.282
        49.000          36.0004
 132245500.330 5 103048438.18743  25165484.446    25165484.467    25165488.658
        34.000          20.0004
 13  1  1  0 54  0.0000000  0  9G29G25G02G14G24G04G12G09G15
 123189909.485 7  95992134.96944  23442257.760    23442258.523    23442260.045
        43.000          29.0004
 116670515.601 8  90912084.20045  22201653.885    22201653.659    22201657.732
        48.000          35.0004
 118412804.579 8  92269720.24946  22533206.421    22533206.234    22533205.870
        48.000          36.0004
 121544568.559 7  94710044.06444  23129158.745    23129158.451    23129159.705
        44.000          29.0004
 108678133.692 8  84684274.68947  20680763.201    20680763.514    20680767.301
        53.000          45.0004
 119964012.322 7  93478429.21544  22828384.111    22828384.492    22828386.811
        44.000          29.0004
 108683629.248 8  84688534.23347  20681795.044    20681795.453    20681795.689
        52.000          45.0004
 114937625.701 7  89561792.32146  21871898.440    21871898.262    21871900.154
        47.000          36.0004
 132254995.264 5 103055836.62543  25167290.216    25167292.341    25167296.305
        35.000          21.0004
 13  1  1  0 54 30.0000000  0  9G29G25G02G14G24G04G12G09G15
 122999972.852 7  95844132.40844  23406113.792    23406114.021    23406116.412
        42.000          29.0004
 116519443.741 7  90794365.88046  22172906.251    22172906.504    22172910.031
        47.000          36.0004
 118268457.418 7  92157241.94346  22505738.014    22505738.334    22505737.482
        46.000          36.0004
 121422699.462 7  94615081.13444  23105968.408    23105967.735    23105968.195
        45.000          29.0004
 108631215.049 8  84647714.70547  20671834.417    20671835.323    20671838.780
        51.000          45.0004
 119890204.889 7  93420916.93844  22814339.209    22814339.394    22814341.876
        45.000          29.0004
 108584342.855 8  84611168.20947  20662901.356    20662901.394    20662901.981
        51.000          45.0004
 114939999.831 8  89563642.29546  21872350.518    21872350.838    21872352.116
        49.000          36.0004
 132264384.821 6 103063152.99443  25169079.171    25169081.153    25169083.739
        37.000          22.0004
 13  1  1  0 55  0.0000000  0  9G29G25G02G14G24G04G12G09G15
 122810254.918 7  95696300.27344  23370011.571    23370011.984    23370013.902
        44.000          29.0004
 116368514.385 8  90676758.59346  22144185.669    22144186.059    22144189.294
        48.000          36.0004
 118124492.360 7  92045061.39346  22478342.346    22478342.292    22478341.813
        47.000          36.0004
 121301381.594 7  94520547.72744  23082882.010    23082882.146    23082882.606
        45.000          29.0004
 108584772.603 8  84611525.78147  20662996.821    20662997.568    20663001.345
        51.000          45.0004
 119816998.534 7  93363873.03444  22800408.320    22800409.012    22800410.768
        43.000          29.0004
 108485284.908 8  84533980.19047  20644051.356    20644051.723    20644052.016
        53.000          45.0004
 114942720.991 8  89565762.67445  21872867.501    21872867.996    21872870.047
        48.000          35.0004
 132273664.838 6 103070384.02143  25170846.269    25170846.738    25170849.519
        36.000          21.0004
 13  1  1  0 55 30.0000000  0  9G29G25G02G14G24G04G12G09G15
 122620757.437 7  95548639.91344  23333951.756    23333951.832    23333953.904
        43.000          29.0004
 116217727.749 7  90559262.52846  22115491.588    22115491.824    22115495.598
        47.000          36.0004
 117980911.128 7  91933179.91446  22451019.750    22451019.267    22451019.276
        47.000          36.0004
 121180615.596 7  94426444.35544  23059900.874    23059900.588    23059901.507
        42.000          29.0004
 108538805.753 8  84575707.44947  20654249.674    20654250.272    20654254.015
        53.000          46.0004
 119744392.907 7  93307297.22444  22786592.286    22786592.895    22786594.319
        45.000          29.0004
 108386456.150 8  84456970.76447  20625245.073    20625245.837    20625245.616
        53.000          45.0004
 114945787.158 7  89568151.87645  21873451.334    21873451.018    21873453.322
        46.000          35.0004
 132282832.591 6 103077527.53643  25172589.760    25172591.371    25172593.922
        37.000          20.0004
 13  1  1  0 56  0.0000000  0  9G29G25G02G14G24G04G12G09G15
 122431481.877 7  95401152.46945  23297933.718    23297933.834    23297936.542
        43.000          30.0004
 116067084.212 7  90441877.94846  22086824.950    22086824.979    22086829.212
        47.000          36.0004
 117837716.113 8  91821599.39446  22423770.556    22423771.303    22423770.258
        48.000          36.0004
 121060402.805 7  94332772.03144  23037025.379    23037024.746    23037026.047
        45.000          29.0004
 108493314.243 8  84540259.51447  20645592.634    20645593.724    20645597.108
        50.000          44.0004
 119672387.783 7  93251189.32844  22772889.797    22772890.229    22772891.798
        46.000          29.0004
 108287856.681 8  84380140.00847  20606482.188    20606482.451    20606482.702
        53.000          45.0004
 114949196.859 8  89570808.78045  21874100.416    21874100.395    21874102.114
        48.000          35.0004
 132291885.940 6 103084581.92643  25174313.465    25174313.633    25174316.920
        38.000          21.0004
 13  1  1  0 56 30.0000000  0  9G29G25G02G14G24G04G12G09G15
 122242429.133 7  95253838.67245  23261958.196    23261959.006    23261960.708
        43.000          30.0004
 115916582.867 7  90324604.18646  22058185.628    22058185.464    22058189.714
        46.000          36.0004
 117694908.348 7  91710320.62246  22396595.155    22396594.619    22396595.005
        47.000          36.0004
 120940742.813 7  94239530.45744  23014254.866    23014254.573    23014255.743
        45.000          29.0004
 108448296.455 8  84505180.71447  20637026.284    20637027.067    20637030.405
        50.000          45.0004
 119600981.980 7  93195548.45244  22759301.930    22759302.198    22759303.771
        46.000          29.0004
 108189485.176 8  84303486.88647  20587762.405    20587762.531    20587763.255
        51.000          45.0004
 114952947.172 7  89573731.09745  21874814.056    21874814.040    21874815.806
        47.000          35.0004
 132300821.357 6 103091544.40343  25176014.264    25176013.565    25176016.813
        36.000          20.0004
 13  1  1  0 57  0.0000000  0  9G29G25G02G14G24G04G12G09G15
 122053600.885 7  95106699.79544  23226025.380    23226026.529    23226026.800
        42.000          29.0004
 115766224.150 7  90207441.55446  22029573.394    22029573.116    22029577.381
        46.000          36.0004
 117552490.436 8  91599345.62946  22369494.410    22369494.185    22369493.733
        48.000          37.0004
 120821636.414 7  94146720.26244  22991589.846    22991589.266    22991590.722
        45.000          29.0004
 108403752.060 8  84470470.79047  20628549.931    20628550.154    20628554.066
        50.000          44.0004
 119530175.184 7  93140374.31044  22745828.428    22745827.680    22745830.459
        44.000          29.0004
 108091341.305 9  84227011.14347  20569086.253    20569086.707    20569087.148
        54.000          45.0004
 114957036.527 8  89576917.61245  21875592.306    21875592.630    21875594.144
        48.000          35.0004
 132309636.487 5 103098413.11442  25177690.883    25177690.772    25177693.484
        35.000          17.0004
 13  1  1  0 57 30.0000000  0  9G29G25G02G14G24G04G12G09G15
 121864998.325 7  94959736.74944  23190135.829    23190136.682    23190136.954
        43.000          29.0004
 115616008.517 7  90090390.41645  22000988.255    22000987.951    22000991.972
        47.000          35.0004
 117410464.739 8  91488676.25846  22342467.264    22342467.063    22342467.017
        48.000          37.0004
 120703084.624 7  94054342.24144  22969030.028    22969029.017    22969030.894
        44.000          29.0004
 108359680.491 8  84436129.30047  20620163.288    20620163.639    20620167.606
        50.000          45.0004
 119459967.433 7  93085666.98244  22732467.684    22732467.739    22732470.629
        42.000          29.0004
 107993425.343 8  84150712.98247  20550453.551    20550454.149    20550454.254
        52.000          45.0004
 114961462.982 8  89580366.78845  21876434.692    21876434.635    21876436.984
        48.000          35.0004
 132318329.678 5 103105186.79541  25179347.835    25179343.437    25179347.123
        32.000          11.0004
 13  1  1  0 58  0.0000000  0  9G29G25G02G14G24G04G12G09G15
 121676625.222 7  94812952.52844  23154289.894    23154290.426    23154290.977
        42.000          29.0004
 115465938.012 7  89973452.37245  21972430.538    21972430.329    21972434.356
        46.000          35.0004
 117268835.043 8  91378315.47046  22315516.440    22315515.915    22315515.769
        48.000          37.0004
 120585089.869 7  93962398.27644  22946576.612    22946575.995    22946576.897
        43.000          29.0004
 108316083.299 8  84402157.45847  20611867.013    20611867.698    20611871.324
        52.000          46.0004
 119390359.975 7  93031427.42144  22719221.958    22719221.969    22719224.395
        44.000          29.0004
 107895738.658 8  84074593.48547  20531864.519    20531864.768    20531864.963
        52.000          45.0004
 114966226.447 8  89584078.57045  21877341.093    21877340.927    21877342.917
        48.000          35.0004
 132326899.868 4 103111864.6944   25180977.231    25180973.541    25180979.406
        29.000           5.0004
 13  1  1  0 58 30.0000000  0  9G29G25G02G14G24G04G12G09G15
 121488483.447 7  94666348.57045  23118487.206    23118487.910    23118488.552
        43.000          30.0004
 115316012.982 7  89856627.67746  21943901.002    21943900.798    21943904.618
        47.000          36.0004
 117127603.347 8  91268264.79546  22288640.848    22288641.198    22288640.344
        51.000          37.0004
 120467652.969 7  93870888.98444  22924229.156    22924228.922    22924229.529
        45.000          29.0004
 108272959.824 8  84368554.74047  20603660.808    20603661.675    20603665.085
        51.000          45.0004
 119321352.664 7  92977655.51344  22706089.851    22706090.522    22706092.802
        44.000          29.0004
 107798281.903 8  83998653.14947  20513319.016    20513319.706    20513319.602
        53.000          45.0004
 114971325.436 8  89588051.80045  21878310.969    21878310.851    21878313.309
        48.000          35.0004
 132335344.917 4                  25182585.821
        28.000
 13  1  1  0 59  0.0000000  0  9G29G25G02G14G24G04G12G09G15
 121300573.151 7  94519924.98245  23082729.727    23082729.833    23082730.463
        44.000          30.0004
 115166232.108 8  89739915.30946  21915399.061    21915398.830    21915402.332
        48.000          36.0004
 116986770.474 8  91158524.89946  22261841.379    22261840.985    22261840.745
        49.000          37.0004
 120350772.819 7  93779813.52444  22901987.625    22901987.132    22901987.887
        44.000          28.0004
 108230307.692 8  84335319.29947  20595544.512    20595545.111    20595548.571
        53.000          46.0004
 119252943.402 7  92924349.60345  22693071.510    22693072.875    22693074.829
        44.000          30.0004
 107701053.455 8  83922890.71947  20494817.188    20494817.716    20494817.861
        52.000          46.0004
 114976756.352 8  89592283.67245  21879344.556    21879344.317    21879346.775
        48.000          34.0004
 132343661.485 4                  25184169.522
        26.000
 13  1  1  0 59 30.0000000  0  8G29G25G02G14G24G04G12G09
 121112897.227 7  94373684.02345  23047015.685    23047016.772    23047016.420
        44.000          30.0004
 115016597.330 7  89623316.79645  21886924.139    21886923.958    21886927.583
        47.000          35.0004
 116846340.064 8  91049098.60246  22235118.338    22235118.868    22235117.784
        49.000          38.0004
 120234451.949 7  93689173.87344  22879852.634    22879851.900    22879853.235
        44.000          29.0004
 108188128.212 8  84302452.16347  20587518.337    20587518.470    20587522.040
        51.000          45.0004
 119185133.388 7  92871510.64644  22680168.168    22680168.660    22680171.038
        45.000          29.0004
 107604054.308 8  83847306.96947  20476358.638    20476359.005    20476359.417
        53.000          45.0004
 114982518.999 7  89596774.03345  21880440.930    21880440.860    21880443.324
        46.000          34.0004
 13  1  1  1  0  0.0000000  0  8G29G25G02G14G24G04G12G09
 120925456.693 7  94227626.48445  23011346.738    23011348.325    23011347.680
        44.000          31.0004
 114867108.305 8  89506831.84946  21858477.353    21858477.702    21858480.819
        48.000          36.0004
 116706313.703 8  90939987.16446  22208471.694    22208471.527    22208471.669
        49.000          38.0004
 120118690.492 7  93598970.14944  22857823.551    22857823.724    22857824.207
        46.000          29.0004
 108146419.765 8  84269952.06847  20579581.363    20579581.332    20579585.090
        49.000          44.0004
 119117921.605 7  92819137.82744  22667378.187    22667378.926    22667380.561
        45.000          29.0004
 107507283.662 8  83771901.26547  20457943.962    20457943.923    20457944.457
        52.000          45.0004
 114988610.729 7  89601520.82745  21881600.556    21881600.357    21881602.564
        46.000          35.0004
 13  1  1  1  0 30.0000000  0  8G29G25G02G14G24G04G12G09
 120738252.345 7  94081752.97345  22975723.410    22975724.475    22975724.234
        44.000          30.0004
 114717764.578 7  89390460.12246  21830057.978    21830058.554    21830061.469
        47.000          36.0004
 116566692.716 8  90831191.59546  22181903.035    22181903.010    22181902.612
        50.000          37.0004
 120003487.797 7  93509201.80544  22835901.082    22835901.381    22835901.795
        45.000          29.0004
 108105181.871 8  84237818.63547  20571734.163    20571733.860    20571737.916
        52.000          45.0004
 119051306.852 7  92767230.22044  22654702.142    22654701.877    22654704.575
        44.000          29.0004
 107410741.599 8  83696673.68947  20439572.539    20439572.811    20439573.401
        53.000          47.0004
 114995028.942 8  89606522.02945  21882821.927    21882822.012    21882823.665
        48.000          34.0004
 13  1  1  1  1  0.0000000  0  8G29G25G02G14G24G04G12G09
 122126710.520 7  95163668.44845  23239938.418    23239939.313    23239939.097
        44.000          30.0004
 116143990.047 7  90501804.64145  22101459.770    22101459.405    22101463.259
        46.000          35.0004
 118002902.674 8  91950316.24246  22455204.168    22455204.340    22455203.880
        50.000          37.0004
 121464266.937 7  94647471.26444  23113878.191    23113878.106    23113879.328
        44.000          29.0004
 109639832.842 8  85433650.55147  20863768.688    20863768.638    20863772.492
        52.000          44.0004
 120560709.493 7  93943388.13744  22941931.378    22941933.259    22941934.209
        46.000          29.0004
 108889849.393 8  84849225.21847  20721037.594    20721037.953    20721038.312
        52.000          46.0004
 116577190.165 7  90839374.92745  22183897.263    22183897.186    22183898.920
        47.000          35.0004
 13  1  1  1  1 30.0000000  0  8G29G25G02G14G24G04G12G09
 121939981.156 7  95018165.08444  23204404.062    23204405.433    23204406.248
        42.000          29.0004
 115994935.615 7  90385658.34145  22073095.267    22073095.099    22073098.883
        46.000          35.0004
 117864096.623 8  91842155.68046  22428790.996    22428790.581    22428789.831
        48.000          37.0004
 121350181.549 7  94558573.55544  23092169.033    23092168.661    23092169.377
        45.000          29.0004
 109599530.283 8  85402245.95047  20856099.019    20856099.731    20856103.102
        52.000          45.0004
 120495285.124 7  93892408.11744  22929482.438    22929482.618    22929483.983
        43.000          29.0004
 108793760.933 8  84774351.09647  20702752.388    20702752.889    20702753.218
        52.000          45.0004
 116584253.376 7  90844878.72145  22185241.353    22185241.103    22185243.722
        47.000          35.0004
 13  1  1  1  2  0.0000000  0  8G29G25G02G14G24G04G12G09
 121753493.840 7  94872850.31145  23168917.036    23168918.111    23168919.011
        43.000          30.0004
 115846028.595 7  90269626.89045  22044759.429    22044759.284    22044763.085
        47.000          35.0004
 117725703.186 7  91734316.64446  22402455.319    22402455.026    22402454.535
        47.000          36.0004
 121236658.197 7  94470113.78344  23070565.664    23070565.909    23070566.046
        46.000          29.0004
 109559696.542 8  85371206.66947  20848518.709    20848519.681    20848522.990
        52.000          44.0004
 120430457.160 7  93841892.82944  22917145.930    22917146.031    22917147.880
        45.000          29.0004
 108697901.924 8  84699655.76347  20684510.833    20684511.298    20684511.669
        53.000          45.0004
 116591638.526 7  90850633.37745  22186646.652    22186646.640    22186648.870
        47.000          35.0004
 13  1  1  1  2 30.0000000  0  8G29G25G02G14G24G04G12G09
 121567249.124 7  94727724.57545  23133476.142    23133476.936    23133477.882
        43.000          31.0004
 115697268.139 7  90153709.64945  22016451.207    22016450.575    22016454.814
        47.000          35.0004
 117587723.256 7  91626799.82446  22376198.377    22376197.723    22376198.130
        47.000          37.0004
 121123696.188 7  94382091.44144  23049069.284    23049069.379    23049070.254
        45.000          28.0004
 109520330.221 8  85340531.60747  20841027.820    20841028.273    20841031.839
        51.000          45.0004
 120366224.115 7  93791841.10944  22904922.726    22904923.141    22904924.471
        44.000          29.0004
 108602270.892 8  84625138.07547  20666313.141    20666313.475    20666313.562
        51.000          45.0004
 116599342.856 7  90856636.73145  22188112.593    22188112.392    22188114.908
        46.000          35.0004
 13  1  1  1  3  0.0000000  0  8G29G25G02G14G24G04G12G09
 121381249.150 7  94582789.52745  23098081.460    23098082.195    23098083.225
        45.000          31.0004
 115548655.013 8  90037907.22245  21988171.006    21988170.831    21988174.671
        48.000          35.0004
 117450159.546 8  91519607.32646  22350020.893    22350021.012    22350020.236
        50.000          37.0004
 121011296.355 7  94294507.13544  23027680.849    23027681.268    23027681.626
        45.000          29.0004
 109481430.753 8  85310220.32847  20833625.620    20833625.888    20833629.616
        53.000          45.0004
 120302585.871 7  93742252.86544  22892812.784    22892812.945    22892814.648
        45.000          29.0004
 108506868.307 8  84550798.39547  20648158.706    20648159.021    20648159.031
        51.000          45.0004
 116607364.898 8  90862887.66445  22189639.298    22189638.807    22189641.427
        48.000          35.0004
 13  1  1  1  3 30.0000000  0  8G29G25G02G14G24G04G12G09
 121195492.627 7  94438044.17345  23062732.985    23062733.904    23062734.786
        45.000          32.0004
 115400187.096 8  89922217.94046  21959918.228    21959918.517    21959922.203
        48.000          36.0004
 117313011.558 8  91412738.77246  22323922.776    22323922.564    22323921.849
        51.000          37.0004
 120899456.779 7  94207359.40744  23006398.568    23006398.331    23006400.069
        45.000          29.0004
 109442995.155 9  85280270.50447  20826311.510    20826311.968    20826315.379
        54.000          45.0004
 120239539.225 7  93693125.60044  22880815.129    22880815.559    22880817.386
        45.000          29.0004
 108411691.546 9  84476634.68747  20630046.943    20630047.600    20630047.540
        54.000          45.0004
 116615700.086 7  90869382.60945  22191225.187    22191225.258    22191227.631
        47.000          35.0004
 13  1  1  1  4  0.0000000  0  8G29G25G02G14G24G04G12G09
 121009983.005 7  94293491.23145  23027431.851    23027432.658    23027433.650
        45.000          32.0004
 115251866.558 8  89806643.49946  21931694.279    21931693.825    21931697.509
        48.000          36.0004
 117176282.967 8  91306197.01546  22297903.907    22297903.843    22297903.580
        50.000          37.0004
 120788179.684 7  94120649.97044  22985223.532    22985222.787    22985224.027
        44.000          29.0004
 109405024.303 8  85250682.82347  20819085.822    20819086.225    20819089.634
        50.000          44.0004
 120177085.488 7  93644460.35744  22868930.900    22868931.467    22868933.141
        43.000          29.0004
 108316742.633 8  84402648.52647  20611978.750    20611978.959    20611979.536
        52.000          45.0004
 116624348.160 8  90876121.36145  22192871.137    22192871.274    22192873.386
        48.000          35.0004
 13  1  1  1  4 30.0000000  0  8G29G25G02G14G24G04G12G09
 120824722.135 7  94149132.12445  22992177.477    22992178.551    22992179.295
        44.000          31.0004
 115103693.792 8  89691184.20546  21903498.094    21903497.593    21903501.528
        49.000          36.0004
 117039975.982 8  91199983.78146  22271965.743    22271965.773    22271965.692
        49.000          37.0004
 120677465.388 7  94034379.08844  22964155.075    22964154.376    22964155.123
        45.000          28.0004
 109367517.613 8  85221456.82447  20811948.682    20811948.745    20811952.512
        50.000          44.0004
 120115224.065 7  93596256.65444  22857158.297    22857158.306    22857161.507
        43.000          28.0004
 108222021.349 9  84328839.72747  20593953.960    20593953.908    20593954.948
        54.000          44.0004
 116633307.345 7  90883102.53245  22194576.066    22194576.077    22194577.754
        47.000          34.0004
 13  1  1  1  5  0.0000000  0  8G29G25G02G14G24G04G12G09
 120639709.744 7  94004966.65645  22956970.602    22956971.948    22956972.243
        44.000          31.0004
 114955667.408 8  89575838.96746  21875329.097    21875329.673    21875333.007
        49.000          37.0004
 116904090.860 8  91094099.28046  22246107.862    22246107.617    22246107.697
        49.000          38.0004
 120567312.597 7  93948545.75044  22943193.169    22943193.599    22943194.225
        45.000          29.0004
 109330472.673 8  85192590.62747  20804898.938    20804899.538    20804903.131
        51.000          43.0004
 120053952.302 7  93548512.42844  22845499.247    22845499.311    22845501.172
        44.000          28.0004
 108127526.074 8  84255207.04947  20575972.223    20575972.288    20575973.065
        52.000          45.0004
 116642574.003 8  90890323.29945  22196339.081    22196339.346    22196341.296
        48.000          34.0004
 13  1  1  1  5 30.0000000  0  8G29G25G02G14G24G04G12G09
 120454949.977 7  93860998.00645  22921811.982    22921813.521    22921814.017
        46.000          32.0004
 114807790.561 8  89460610.26346  21847189.449    21847189.653    21847193.120
        48.000          37.0004
 116768632.257 8  90988547.12346  22220330.844    22220330.722    22220331.051
        50.000          39.0004
 120457724.782 7  93863152.63744  22922339.360    22922338.840    22922341.030
        44.000          29.0004
 109293891.138 8  85164085.53647  20797937.490    20797938.260    20797941.935
        51.000          44.0004
 119993272.565 6  93501229.51244  22833951.896    22833951.978    22833954.772
        40.000          28.0004
 108033260.342 8  84181753.23547  20558033.823    20558034.240    20558034.438
        52.000          45.0004
 116652148.887 7  90897784.24145  22198160.983    22198161.133    22198163.565
        47.000          34.0004
 13  1  1  1  6  0.0000000  0  8G29G25G02G14G24G04G12G09
 120270444.701 7  93717227.67645  22886702.013    22886702.608    22886703.856
        45.000          32.0004
 114660063.815 8  89345498.52646  21819077.641    21819077.823    21819081.726
        49.000          37.0004
 116633602.502 8  90883329.13546  22194635.383    22194635.425    22194635.287
        49.000          38.0004
 120348702.223 7  93778199.99245  22901593.078    22901592.768    22901594.705
        44.000          30.0004
 109257772.746 8  85135941.32447  20791064.373    20791065.215    20791068.752
        51.000          44.0004
 119933184.005 7  93454407.27244  22822517.514    22822517.479    22822520.063
        42.000          27.0004
 107939223.421 9  84108477.71747  20540139.215    20540139.597    20540139.776
        54.000          44.0004
 116662030.480 7  90905484.17645  22200041.333    22200041.772    22200044.495
        47.000          34.0004
 13  1  1  1  6 30.0000000  0  8G29G25G02G14G24G04G12G09
 120086195.120 7  93573656.58145  22851640.645    22851640.862    22851642.086
        45.000          32.0004
 114512487.427 8  89230503.94146  21790994.886    21790994.734    21790998.496
        48.000          37.0004
 116499003.368 8  90778446.69646  22169022.215    22169021.520    22169021.399
        49.000          37.0004
 120240245.295 7  93693688.10044  22880954.931    22880955.329    22880955.665
        45.000          29.0004
 109222116.562 8  85108157.27747  20784279.190    20784279.906    20784283.692
        51.000          44.0004
 119873686.176 7  93408045.31844  22811195.582    22811196.686    22811198.244
        45.000          29.0004
 107845415.741 8  84035380.82247  20522288.508    20522288.570    20522289.088
        53.000          45.0004
 116672216.541 7  90913421.36445  22201979.947    22201980.508    22201982.825
        46.000          34.0004
 13  1  1  1  7  0.0000000  0  8G29G25G02G14G24G04G12G09
 119902201.115 7  93430284.63145  22816627.450    22816627.906    22816628.911
        45.000          32.0004
 114365060.018 8  89115625.44246  21762940.547    21762940.273    21762943.798
        49.000          37.0004
 116364834.989 8  90673899.90946  22143490.681    22143490.091    22143490.139
        49.000          37.0004
 120132352.440 7  93609615.75144  22860423.392    22860422.687    22860424.542
        44.000          29.0004
 109186919.934 8  85080731.32147  20777582.043    20777582.191    20777586.157
        52.000          44.0004
 119814776.177 7  93362141.40944  22799985.744    22799985.220    22799987.926
        43.000          28.0004
 107751835.270 8  83962460.97547  20504480.647    20504480.781    20504481.423
        53.000          46.0004
 116682703.169 8  90921592.75345  22203975.800    22203976.324    22203978.153
        48.000          34.0004
 13  1  1  1  7 30.0000000  0  8G29G25G02G14G24G04G12G09
 119718465.076 7  93287113.71945  22781663.871    22781663.677    22781665.085
        44.000          31.0004
 114217782.823 8  89000863.98846  21734914.541    21734914.353    21734917.929
        48.000          36.0004
 116231100.300 8  90569691.07346  22118041.687    22118041.535    22118041.352
        50.000          37.0004
 120025024.863 7  93525983.84544  22839999.864    22839999.034    22840000.426
        45.000          29.0004
 109152182.980 8  85053663.55147  20770972.038    20770971.987    20770975.711
        51.000          44.0004
 119756454.240 7  93316695.74444  22788887.976    22788887.633    22788890.077
        43.000          29.0004
 107658482.925 8  83889718.88947  20486716.157    20486716.634    20486716.952
        53.000          45.0004
 116693489.375 7  90929997.58745  22206028.264    22206028.438    22206030.458
        46.000          33.0004
 13  1  1  1  8  0.0000000  0  8G29G25G02G14G24G04G12G09
 119534988.533 7  93144145.01345  22746749.955    22746749.892    22746750.605
        46.000          32.0004
 114070655.991 8  88886219.70546  21706917.217    21706917.292    21706920.856
        50.000          37.0004
 116097800.881 8  90465821.40046  22092675.743    22092675.451    22092675.207
        48.000          37.0004
 119918262.702 7  93442792.54144  22819683.411    22819683.158    22819684.301
        44.000          29.0004
 109117904.325 8  85026952.90947  20764448.500    20764449.250    20764452.717
        53.000          44.0004
 119698719.010 7  93271707.26444  22777900.149    22777900.055    22777902.665
        42.000          28.0004
 107565358.678 8  83817154.53947  20468995.317    20468995.543    20468995.812
        52.000          45.0004
 116704573.038 7  90938634.19945  22208137.298    22208137.841    22208139.633
        47.000          33.0004
 13  1  1  1  8 30.0000000  0  8G29G25G02G14G24G04G12G09
 119351771.226 7  93001378.29045  22711884.574    22711884.934    22711885.331
        46.000          33.0004
 113923678.940 8  88771692.13746  21678948.618    21678948.324    21678952.419
        49.000          38.0004
 115964937.458 8  90362291.47646  22067392.519    22067392.362    22067392.246
        49.000          37.0004
 119812065.185 7  93360041.21444  22799474.032    22799474.501    22799475.176
        45.000          29.0004
 109084082.449 8  85000598.19047  20758012.638    20758013.227    20758016.662
        53.000          45.0004
 119641568.847 7  93227174.66644  22767025.431    22767025.151    22767027.390
        43.000          28.0004
 107472460.936 9  83744766.68647  20451317.475    20451317.659    20451317.996
        54.000          46.0004
 116715951.271 7  90947500.33845  22210302.440    22210302.680    22210304.729
        47.000          32.0004
 13  1  1  1  9  0.0000000  0  8G29G25G02G14G24G04G12G09
 119168817.536 7  92858816.97445  22677069.703    22677070.154    22677070.373
        46.000          33.0004
 113776854.474 8  88657283.46646  21651008.467    21651008.745    21651012.769
        50.000          38.0004
 115832514.531 7  90259104.78946  22042193.038    22042193.040    22042192.959
        47.000          37.0004
 119706434.467 7  93277731.57144  22779373.560    22779373.680    22779374.512
        44.000          29.0004
 109050718.428 8  84974600.24047  20751663.949    20751664.196    20751667.724
        52.000          45.0004
 119585005.398 7  93183099.25644  22756261.250    22756262.016    22756264.053
        44.000          28.0004
 107379793.116 8  83672557.99447  20433683.453    20433683.808    20433684.033
        53.000          45.0004
 116727624.207 7  90956596.13345  22212523.651    22212524.107    22212525.931
        46.000          32.0004
 13  1  1  1  9 30.0000000  0  8G29G25G02G14G24G04G12G09
 118986127.302 7  92716460.95845  22642304.747    22642304.922    22642305.689
        46.000          34.0004
 113630181.326 8  88542992.70246  21623097.944    21623098.198    21623101.736
        50.000          38.0004
 115700532.241 8  90156261.45446  22017077.628    22017078.016    22017077.331
        49.000          38.0004
 119601369.491 7  93195862.75644  22759380.528    22759380.713    22759381.486
        46.000          28.0004
 109017810.331 8  84948957.56347  20745401.779    20745402.258    20745405.527
        51.000          44.0004
 119529026.010 7  93139478.94144  22745608.395    22745608.998    22745611.624
        44.000          28.0004
 107287353.146 8  83600526.84847  20416092.539    20416093.059    20416093.269
        52.000          45.0004
 116739588.569 7  90965918.99645  22214800.944    22214800.720    22214802.681
        45.000          32.0004
 13  1  1  1 10  0.0000000  0  8G29G25G02G14G24G04G12G09
 120379127.313 7  93801915.51245  22907383.946    22907383.938    22907385.096
        46.000          34.0004
 115059084.192 8  89656423.52046  21895009.138    21895009.259    21895012.946
        49.000          38.0004
 117144416.145 8  91281365.80246  22291839.662    22291840.349    22291839.420
        50.000          38.0004
 121072293.538 7  94342037.33744  23039287.570    23039288.005    23039289.355
        44.000          28.0004
 110560776.965 8  86151269.21747  21039018.466    21039018.898    21039022.553
        50.000          44.0004
 121049050.768 7  94323913.81644  23034859.907    23034859.931    23034861.924
        42.000          27.0004
 108770563.577 8  84756275.23747  20698337.946    20698338.140    20698338.880
        53.000          44.0004
 118327261.071 7  92203066.39845  22516924.843    22516925.048    22516926.464
        45.000          32.0004
 13  1  1  1 10 30.0000000  0  8G29G25G02G14G24G04G12G09
 120196966.809 7  93659972.27645  22872719.966    22872720.018    22872721.283
        46.000          34.0004
 114912713.482 8  89542368.42046  21867155.086    21867155.571    21867159.376
        50.000          38.0004
 117013319.256 8  91179212.39046  22266893.302    22266892.929    22266892.894
        49.000          38.0004
 120968359.280 7  94261049.58644  23019509.930    23019509.602    23019511.402
        44.000          29.0004
 110528775.619 8  86126333.09847  21032928.294    21032929.023    21032933.298
        51.000          43.0004
 120994235.091 7  94281200.30244  23024428.873    23024429.216    23024431.356
        43.000          27.0004
 108678578.053 8  84684598.19847  20680833.881    20680833.940    20680834.579
        53.000          45.0004
 118339800.483 7  92212837.37445  22519310.948    22519311.237    22519312.611
        45.000          32.0004
 13  1  1  1 11  0.0000000  0  8G29G25G02G14G24G04G12G09
 120015074.040 7  93518237.66845  22838106.756    22838106.970    22838108.601
        46.000          34.0004
 114766495.296 8  89428432.16246  21839330.998    21839331.089    21839334.770
        48.000          38.0004
 116882668.516 8  91077406.63746  22242031.185    22242030.547    22242031.173
        49.000          38.0004
 120864991.141 7  94180502.97844  22999840.106    22999839.685    22999840.985
        46.000          29.0004
 110497226.729 8  86101749.53747  21026925.104    21026925.539    21026929.434
        51.000          44.0004
 120940000.582 7  94238939.63444  23014108.155    23014108.823    23014110.610
        42.000          27.0004
 108586820.703 8  84613098.96347  20663373.247    20663373.442    20663373.588
        52.000          45.0004
 118352625.138 7  92222830.59745  22521751.486    22521751.706    22521753.664
        45.000          32.0004
 13  1  1  1 11 30.0000000  0  8G29G25G02G14G24G04G12G09
 119833451.885 7  93376713.93245  22803544.651    22803545.193    22803546.791
        46.000          34.0004
 114620431.565 8  89314616.26646  21811536.131    21811535.654    21811539.868
        49.000          38.0004
 116752466.910 8  90975950.84346  22217254.593    22217254.549    22217254.176
        49.000          38.0004
 120762190.843 7  94100398.83044  22980277.741    22980277.459    22980278.789
        45.000          28.0004
 110466131.088 8  86077519.16047  21021007.700    21021008.453    21021012.180
        51.000          44.0004
 120886347.542 7  94197132.08844  23003898.685    23003898.736    23003900.853
        45.000          28.0004
 108495293.141 8  84541778.78947  20645955.987    20645956.210    20645956.472
        53.000          45.0004
 118365734.539 7  92233045.69745  22524245.473    22524245.888    22524248.118
        46.000          31.0004
 13  1  1  1 12  0.0000000  0  8G29G25G02G14G24G04G12G09
 119652101.018 7  93235401.58745  22769035.501    22769035.200    22769036.670
        46.000          34.0004
 114474521.335 8  89200919.98246  21783769.825    21783769.865    21783774.034
        49.000          38.0004
 116622715.272 8  90874845.67146  22192563.579    22192563.449    22192563.487
        50.000          38.0004
 120659957.115 7  94020736.18644  22960822.739    22960822.663    22960824.567
        43.000          28.0004
 110435486.260 8  86053640.06447  21015176.270    21015176.675    21015180.446
        52.000          44.0004
 120833273.788 7  94155775.91144  22993799.369    22993799.009    22993801.223
        44.000          28.0004
 108403994.015 9  84470636.60947  20628582.232    20628582.474    20628583.071
        54.000          45.0004
 118379125.169 7  92243479.95045  22526794.170    22526793.799    22526796.296
        45.000          31.0004
 13  1  1  1 12 30.0000000  0  8G29G25G02G14G24G04G12G09
 119471021.928 7  93094301.01945  22734576.715    22734577.235    22734578.183
        47.000          34.0004
 114328764.967 8  89087343.59346  21756033.808    21756033.570    21756037.951
        49.000          39.0004
 116493415.271 8  90774092.42546  22167958.473    22167958.206    22167958.226
        50.000          38.0004
 120558289.778 7  93941514.87244  22941476.197    22941476.713    22941478.309
        43.000          29.0004
 110405291.296 8  86030111.52347  21009430.253    21009430.527    21009434.654
        50.000          44.0004
 120780778.119 7  94114870.20144  22983809.529    22983809.041    22983811.627
        45.000          28.0004
 108312922.976 9  84399672.16047  20611252.354    20611252.420    20611253.035
        54.000          46.0004
 118392794.839 7  92254131.62245  22529395.217    22529394.774    22529397.339
        44.000          31.0004
 13  1  1  1 13  0.0000000  0  8G29G25G02G14G24G04G12G09
 119290215.450 8  92953412.83845  22700170.978    22700171.074    22700171.929
        48.000          34.0004
 114183162.147 8  88973886.85146  21728326.600    21728326.175    21728330.281
        48.000          39.0004
 116364567.551 8  90673691.61046  22143439.644    22143439.151    22143439.226
        50.000          38.0004
 120457188.055 7  93862734.29044  22922237.580    22922237.259    22922238.281
        42.000          28.0004
 110375544.309 8  86006932.04047  21003769.848    21003769.886    21003774.153
        52.000          43.0004
 120728858.641 7  94074413.45544  22973929.378    22973929.982    22973931.544
        45.000          28.0004
 108222079.703 9  84328885.18647  20593965.217    20593965.690    20593966.054
        54.000          46.0004
 118406740.824 7  92264998.61445  22532049.020    22532048.711    22532051.159
        44.000          31.0004
 13  1  1  1 13 30.0000000  0  8G29G25G02G14G24G04G12G09
 119109684.134 7  92812739.07345  22665817.073    22665817.316    22665817.628
        47.000          33.0004
 114037714.361 8  88860550.91946  21700649.263    21700648.518    21700652.532
        50.000          39.0004
 116236175.182 8  90573645.61946  22119007.271    22119006.937    22119006.821
        48.000          38.0004
 120356653.138 7  93784395.38744  22903105.874    22903105.771    22903107.648
        43.000          28.0004
 110346245.319 8  85984101.64847  20998194.467    20998194.631    20998198.666
        49.000          43.0004
 120677515.376 7  94034405.73044  22964158.451    22964159.304    22964161.516
        45.000          28.0004
 108131464.993 8  84258276.32347  20576721.508    20576721.950    20576722.337
        52.000          46.0004
 118420962.215 7  92276080.20045  22534755.399    22534754.944    22534757.744
        47.000          30.0004
 13  1  1  1 14  0.0000000  0  8G29G25G02G14G24G04G12G09
 118929428.762 7  92672280.35545  22631515.108    22631515.056    22631515.919
        46.000          32.0004
 113892421.820 8  88747335.95646  21673000.441    21673000.440    21673004.117
        50.000          39.0004
 116108239.645 8  90473955.59346  22094662.238    22094661.462    22094661.317
        49.000          38.0004
 120256684.428 7  93706497.68344  22884082.276    22884082.013    22884084.561
        42.000          27.0004
 110317392.773 8  85961619.13947  20992703.866    20992704.292    20992708.252
        53.000          43.0004
 120626746.958 7  93994845.92844  22954497.888    22954498.749    22954500.080
        44.000          27.0004
 108041078.052 9  84187844.94147  20559521.913    20559522.097    20559522.033
        54.000          46.0004
 118435456.764 7  92287374.64645  22537513.816    22537513.329    22537515.683
        45.000          31.0004
 13  1  1  1 14 30.0000000  0  8G29G25G02G14G24G04G12G09
 118749452.540 7  92532039.16545  22597266.198    22597267.068    22597268.153
        46.000          33.0004
 113747286.158 8  88634243.23646  21645382.320    21645382.144    21645385.533
        50.000          39.0004
 115980763.736 8  90374623.72246  22070404.188    22070404.064    22070403.463
        49.000          38.0004
 120157283.223 6  93629042.19044  22865167.206    22865166.280    22865169.147
        41.000          27.0004
 110288987.195 8  85939484.91947  20987298.718    20987298.756    20987302.481
        50.000          42.0004
 120576553.428 7  93955734.07044  22944946.646    22944947.524    22944948.571
        44.000          27.0004
 107950921.735 8  84117593.26247  20542365.522    20542366.141    20542366.056
        53.000          45.0004
 118450223.614 7  92298881.27445  22540323.544    22540323.425    22540325.665
        46.000          30.0004
 13  1  1  1 15  0.0000000  0  8G29G25G02G14G24G04G12G09
 118569755.265 7  92392015.33745  22563071.233    22563071.459    22563072.500
        46.000          34.0004
 113602306.453 8  88521272.04446  21617793.649    21617793.457    21617796.949
        49.000          39.0004
 115853747.676 8  90275650.17346  22046233.673    22046233.553    22046232.872
        48.000          38.0004
 120058447.977 7  93552027.69344  22846359.987    22846359.943    22846361.532
        43.000          28.0004
 110261026.006 8  85917696.97147  20981977.870    20981978.244    20981981.653
        51.000          42.0004
 120526932.243 7  93917068.22144  22935504.661    22935504.919    22935506.478
        45.000          28.0004
 107860994.156 9  84047519.82247  20525253.034    20525253.071    20525253.719
        54.000          45.0004
 118465259.091 7  92310597.23445  22543184.718    22543184.485    22543186.363
        45.000          30.0004
 13  1  1  1 15 30.0000000  0  8G29G25G02G14G24G04G12G09
 118390336.801 7  92252208.75845  22528929.634    22528929.856    22528930.885
        47.000          34.0004
 113457481.826 8  88408421.69146  21590234.004    21590234.293    21590237.993
        50.000          40.0004
 115727192.012 8  90177035.37346  22022151.171    22022151.384    22022150.255
        50.000          38.0004
 119960177.635 7  93475453.39944  22827659.612    22827659.275    22827660.747
        43.000          28.0004
 110233507.005 8  85896253.58947  20976740.505    20976741.795    20976744.941
        51.000          43.0004
 120477880.789 7  93878846.31544  22926170.290    22926170.927    22926171.620
        44.000          28.0004
 107771293.819 8  83977623.45047  20508183.459    20508183.578    20508184.201
        53.000          45.0004
 118480560.097 7  92322520.08445  22546096.557    22546096.501    22546098.596
        45.000          31.0004
 13  1  1  1 16  0.0000000  0  8G29G25G02G14G24G04G12G09
 118211199.202 7  92112621.03345  22494840.242    22494840.092    22494841.614
        44.000          34.0004
 113312813.303 8  88295692.98146  21562704.564    21562704.756    21562708.687
        50.000          39.0004
 115601098.643 8  90078780.80146  21998156.426    21998156.534    21998155.857
        51.000          38.0004
 119862472.392 7  93399319.41744  22809066.611    22809066.479    22809067.842
        44.000          28.0004
 110206429.156 8  85875153.96547  20971587.952    20971588.825    20971592.120
        52.000          42.0004
 120429398.588 7  93841067.96644  22916943.944    22916944.927    22916945.695
        45.000          27.0004
 107681821.841 9  83907905.03247  20491157.341    20491157.758    20491158.179
        55.000          46.0004
 118496125.190 7  92334648.71845  22549058.181    22549058.942    22549060.320
        46.000          31.0004
 13  1  1  1 16 30.0000000  0  8G29G25G02G14G24G04G12G09
 118032345.810 7  91973254.76345  22460805.330    22460805.200    22460807.037
        44.000          33.0004
 113168303.420 8  88183087.86546  21535205.186    21535205.202    21535209.415
        49.000          39.0004
 115475471.518 7  89980889.53946  21974250.239    21974250.126    21974249.851
        47.000          38.0004
 119765334.203 6  93323627.31344  22790582.191    22790581.385    22790582.764
        41.000          26.0004
 110179793.646 8  85854399.01647  20966519.693    20966519.977    20966523.620
        50.000          42.0004
 120381486.345 7  93803733.75844  22907826.760    22907827.807    22907829.126
        45.000          28.0004
 107592579.625 8  83838365.64547  20474175.034    20474175.560    20474175.946
        51.000          45.0004
 118511954.047 7  92346982.88245  22552070.748    22552071.185    22552072.459
        47.000          31.0004
 13  1  1  1 17  0.0000000  0  8G29G25G02G14G24G04G12G09
 117853778.234 7  91834111.21645  22426824.899    22426824.196    22426826.235
        44.000          32.0004
 113023952.651 8  88070606.76046  21507736.222    21507736.093    21507740.152
        49.000          39.0004
 115350312.320 8  89883362.90046  21950433.091    21950433.149    21950432.912
        50.000          38.0004
 119668762.843 7  93248376.88744  22772205.499    22772204.086    22772206.118
        43.000          26.0004
 110153599.515 8  85833988.01147  20961535.167    20961535.643    20961539.315
        51.000          43.0004
 120334142.736 7  93766842.63744  22898817.484    22898818.238    22898819.126
        45.000          27.0004
 107503567.636 8  83769005.64947  20457236.696    20457237.186    20457237.477
        52.000          45.0004
 118528044.838 7  92359521.15345  22555132.841    22555133.170    22555134.512
        46.000          31.0004
 13  1  1  1 17 30.0000000  0  8G29G25G02G14G24G04G12G09
 117675495.659 7  91695189.73045  22392898.941    22392898.839    22392900.076
        44.000          32.0004
 112879759.667 7  87958248.59546  21480297.043    21480297.510    21480301.114
        47.000          40.0004
 115225620.776 8  89786200.66546  21926705.472    21926705.072    21926704.829
        49.000          38.0004
 119572756.171 7  93173566.49444  22753935.574    22753935.159    22753936.997
        43.000          27.0004
 110127843.308 8  85813918.23347  20956634.251    20956634.361    20956638.210
        52.000          43.0004
 120287364.841 7  93730392.34044  22889916.135    22889917.054    22889917.945
        44.000          27.0004
 107414784.344 8  83699823.86747  20440341.903    20440342.370    20440342.570
        51.000          45.0004
 118544393.584 7  92372260.42245  22558243.343    22558243.662    22558245.797
        44.000          31.0004
 13  1  1  1 18  0.0000000  0  8G29G25G02G14G24G04G12G09
 117497500.438 7  91556492.16745  22359027.567    22359027.918    22359029.519
        46.000          34.0004
 112735725.759 8  87846014.39046  21452888.638    21452888.801    21452892.337
        50.000          40.0004
 115101398.870 8  89689404.38346  21903066.805    21903066.133    21903065.949
        49.000          38.0004
 119477314.849 7  93099196.62244  22735773.848    22735772.987    22735775.186
        43.000          27.0004
 110102525.184 8  85794189.81147  20951815.980    20951816.415    20951820.137
        52.000          43.0004
 120241152.049 7  93694382.36744  22881122.292    22881122.656    22881123.564
        45.000          27.0004
 107326230.654 8  83630820.98747  20423490.653    20423490.878    20423491.339
        52.000          44.0004
 118560998.759 7  92385199.51445  22561403.425    22561403.750    22561405.888
        46.000          31.0004
 13  1  1  1 18 30.0000000  0  8G29G25G02G14G24G04G12G09
 118895219.357 7  92645623.80745  22625005.183    22625004.748    22625006.976
        47.000          34.0004
 114167275.860 8  88961507.97246  21725303.536    21725303.286    21725307.415
        49.000          40.0004
 116553072.293 8  90820578.49546  22179310.588    22179310.780    22179310.206
        50.000          39.0004
 120957861.718 7  94252869.48544  23017512.607    23017511.855    23017513.773
        44.000          27.0004
 111653064.123 8  87002401.96747  21246873.858    21246874.318    21246877.457
        49.000          43.0004
 121770924.166 7  94886412.58644  23172228.340    23172228.766    23172229.744
        43.000          27.0004
 108813329.352 8  84789599.19647  20706476.171    20706476.019    20706476.753
        51.000          45.0004
 120153277.481 7  93625936.16445  22864403.880    22864403.561    22864406.430
        44.000          30.0004
 13  1  1  1 19  0.0000000  0  8G29G25G02G14G24G04G12G09
 118717801.379 7  92507376.05645  22591243.953    22591244.020    22591245.395
        46.000          35.0004
 114023560.799 8  88849522.21546  21697955.172    21697955.348    21697959.271
        50.000          40.0004
 116429794.238 8  90724517.67546  22155851.959    22155851.862    22155851.322
        50.000          39.0004
 120863549.601 7  94179379.51644  22999565.651    22999564.678    22999567.478
        43.000          28.0004
 111628617.051 8  86983352.29447  21242221.243    21242222.336    21242225.380
        52.000          42.0004
 121725836.614 7  94851279.42344  23163648.633    23163648.584    23163649.859
        43.000          26.0004
 108725234.058 8  84720953.50447  20689712.218    20689712.388    20689712.782
        53.000          45.0004
 120170388.639 7  93639269.52445  22867660.105    22867659.890    22867662.409
        45.000          30.0004
 13  1  1  1 19 30.0000000  0  8G29G25G02G14G24G04G12G09
 118540674.499 7  92369355.13745  22557537.572    22557537.221    22557539.325
        45.000          34.0004
 113880006.074 8  88737661.39446  21670637.686    21670637.690    21670641.433
        50.000          39.0004
 116306990.643 8  90628826.56946  22132483.020    22132482.993    22132482.728
        50.000          39.0004
 120769801.851 7  94106329.30644  22981725.951    22981725.135    22981727.378
        43.000          28.0004
 111604604.113 8  86964640.91247  21237652.182    21237652.818    21237655.894
        51.000          42.0004
 121681309.874 7  94816583.27244  23155175.695    23155175.122    23155176.897
        44.000          26.0004
 108637368.684 9  84652486.98247  20672992.121    20672992.480    20672992.749
        54.000          46.0004
 120187749.858 7  93652797.73845  22870963.697    22870964.274    22870966.285
        44.000          31.0004
 13  1  1  1 20  0.0000000  0  8G29G25G02G14G24G04G12G09
 118363839.235 8  92231561.44645  22523887.068    22523887.820    22523888.375
        48.000          35.0004
 113736611.477 8  88625925.33846  21643350.889    21643350.238    21643354.344
        49.000          39.0004
 116184662.258 8  90533505.76146  22109204.514    22109204.259    22109204.374
        49.000          39.0004
 120676617.631 7  94033718.21044  22963993.433    22963993.199    22963994.417
        44.000          28.0004
 111581022.851 8  86946265.89447  21233164.739    21233165.429    21233168.673
        50.000          42.0004
 121637341.816 7  94782322.44044  23146808.463    23146808.878    23146810.938
        43.000          27.0004
 108549731.654 8  84584198.38547  20656315.353    20656315.728    20656315.954
        51.000          45.0004
 120205358.319 7  93666518.61245  22874314.989    22874314.897    22874316.863
        44.000          31.0004
 13  1  1  1 20 30.0000000  0  8G29G25G02G14G24G04G12G09
 118187298.072 7  92093996.93245  22490292.334    22490292.186    22490293.771
        46.000          35.0004
 113593378.695 8  88514315.38546  21616094.344    21616094.063    21616098.254
        50.000          40.0004
 116062811.683 8  90438557.26846  22086017.135    22086017.254    22086016.789
        49.000          39.0004
 120583997.637 7  93961546.78444  22946368.557    22946368.416    22946369.851
        45.000          28.0004
 111557873.594 8  86928227.50947  21228759.379    21228760.624    21228763.779
        52.000          43.0004
 121593932.050 7  94748496.67144  23138548.010    23138547.591    23138549.925
        42.000          26.0004
 108462325.719 9  84516089.86647  20639682.380    20639682.907    20639683.103
        54.000          46.0004
 120223212.951 7  93680431.30345  22877712.252    22877712.758    22877714.571
        44.000          30.0004
 13  1  1  1 21  0.0000000  0  8G29G25G02G14G24G04G12G09
 118011050.680 7  91956661.29146  22456753.544    22456753.942    22456754.486
        47.000          36.0004
 113450306.724 8  88402830.73646  21588868.770    21588868.804    21588872.645
        49.000          40.0004
 115941439.062 8  90343981.20946  22062920.936    22062921.257    22062920.425
        50.000          39.0004
 120491939.629 7  93889813.26244  22928850.295    22928850.241    22928852.175
        45.000          29.0004
 111535153.649 8  86910523.64447  21224436.064    21224436.722    21224440.182
        50.000          42.0004
 121551078.059 7  94715103.95244  23130392.999    23130392.963    23130394.399
        43.000          26.0004
 108375148.733 8  84448159.74347  20623093.172    20623093.409    20623093.945
        53.000          45.0004
 120241310.099 7  93694532.98245  22881156.585    22881155.901    22881157.875
        44.000          30.0004
 13  1  1  1 21 30.0000000  0  8G29G25G02G14G24G04G12G09
 117835099.726 7  91819556.66446  22423270.871    22423271.155    22423272.543
        46.000          36.0004
 113307397.724 7  88291473.08246  21561673.854    21561674.059    21561677.910
        47.000          40.0004
 115820547.045 8  90249779.64846  22039915.906    22039915.801    22039915.478
        50.000          38.0004
 120400445.159 7  93818518.87345  22911440.019    22911440.075    22911441.354
        45.000          30.0004
 111512863.400 8  86893154.62347  21220194.263    21220194.721    21220198.563
        48.000          42.0004
 121508779.411 7  94682143.96444  23122343.629    23122343.018    23122345.498
        43.000          26.0004
 108288202.509 8  84380409.44147  20606547.759    20606547.871    20606548.730
        52.000          45.0004
 120259649.658 7  93708823.53645  22884646.643    22884646.228    22884648.364
        45.000          30.0004
 13  1  1  1 22  0.0000000  0  8G29G25G02G14G24G04G12G09
 117659445.560 8  91682683.31746  22389844.887    22389844.982    22389846.426
        48.000          36.0004
 113164651.245 8  88180242.05746  21534510.327    21534510.206    21534513.970
        51.000          39.0004
 115700136.309 8  90155953.10346  22017002.608    22017002.255    22017001.701
        50.000          38.0004
 120309512.657 7  93747662.34244  22894135.831    22894135.869    22894136.789
        44.000          29.0004
 111491000.560 8  86876118.63247  21216033.689    21216034.234    21216038.359
        48.000          42.0004
 121467033.951 7  94649615.01944  23114400.004    23114398.808    23114401.824
        42.000          26.0004
 108201486.243 8  84312838.32747  20590046.116    20590046.424    20590047.189
        51.000          46.0004
 120278228.271 7  93723300.36545  22888181.322    22888181.410    22888183.788
        45.000          31.0004
 13  1  1  1 22 30.0000000  0  8G29G25G02G14G24G04G12G09
 117484091.242 8  91546043.60046  22356476.454    22356476.650    22356477.808
        48.000          37.0004
 113022069.476 8  88069139.38346  21507377.749    21507377.666    21507381.659
        50.000          40.0004
 115580210.077 8  90062504.08746  21994181.467    21994181.262    21994180.521
        51.000          38.0004
 120219143.444 7  93677244.78844  22876939.401    22876938.853    22876940.141
        44.000          29.0004
 111469565.318 7  86859415.84747  21211954.606    21211955.592    21211959.472
        47.000          42.0004
 121425841.941 7  94617517.35544  23106561.162    23106560.995    23106562.931
        42.000          26.0004
 108115001.674 8  84245447.75047  20573588.981    20573589.396    20573589.717
        52.000          45.0004
 120297045.517 7  93737963.13245  22891762.495    22891762.608    22891764.643
        45.000          30.0004
 13  1  1  1 23  0.0000000  0  8G29G25G02G14G24G04G12G09
 117309034.676 7  91409635.90946  22323163.831    22323164.095    22323165.377
        46.000          36.0004
 112879649.518 8  87958162.80546  21480276.170    21480275.913    21480280.023
        50.000          39.0004
 115460766.160 8  89969430.91146  21971451.889    21971451.837    21971450.957
        48.000          38.0004
 120129333.477 7  93607262.98844  22859849.827    22859849.232    22859850.727
        44.000          29.0004
 111448552.866 8  86843042.48947  21207956.762    21207957.030    21207960.999
        48.000          42.0004
 121385198.211 7  94585846.91344  23098827.623    23098827.443    23098829.001
        45.000          27.0004
 108028745.636 8  84178235.25547  20557174.956    20557175.460    20557175.651
        53.000          45.0004
 120316095.549 7  93752807.29445  22895387.665    22895387.067    22895389.703
        43.000          30.0004
 13  1  1  1 23 30.0000000  0  8G29G25G02G14G24G04G12G09
 117134279.990 8  91273463.43446  22289909.430    22289910.049    22289910.411
        48.000          36.0004
 112737395.077 8  87847315.19346  21453205.783    21453205.884    21453209.918
        49.000          40.0004
 115341809.319 8  89876737.27146  21948815.247    21948815.068    21948814.407
        51.000          39.0004
 120040085.698 7  93537719.23944  22842865.111    22842865.405    22842867.146
        43.000          28.0004
 111427964.815 8  86826999.84247  21204038.810    21204038.987    21204043.171
        50.000          42.0004
 121345104.323 7  94554604.93344  23091197.247    23091197.769    23091199.168
        42.000          27.0004
 107942721.175 8  84111203.20547  20540804.984    20540805.032    20540805.782
        53.000          45.0004
 120335379.577 7  93767833.82145  22899057.310    22899057.010    22899059.916
        45.000          30.0004
 13  1  1  1 24  0.0000000  0  8G29G25G02G14G24G04G12G09
 116959826.886 7  91137525.96946  22256711.945    22256712.090    22256713.118
        47.000          36.0004
 112595305.320 8  87736595.91346  21426167.067    21426166.995    21426171.264
        50.000          40.0004
 115223339.433 8  89784423.08546  21926271.058    21926270.819    21926270.381
        50.000          39.0004
 119951397.862 7  93468611.81744  22825988.924    22825988.810    22825990.657
        44.000          28.0004
 111407799.018 8  86811286.22547  21200201.545    21200201.700    21200205.774
        49.000          42.0004
 121305557.693 7  94523789.36744  23083671.584    23083671.250    23083673.762
        43.000          26.0004
 107856927.378 9  84044350.89347  20524479.100    20524479.323    20524479.666
        54.000          45.0004
 120354894.139 7  93783039.96045  22902769.840    22902770.563    22902773.054
        43.000          30.0004
 13  1  1  1 24 30.0000000  0  8G29G25G02G14G24G04G12G09
 116785676.838 8  91001824.63646  22223572.795    22223572.635    22223573.250
        49.000          37.0004
 112453380.880 8  87626005.44946  21399160.224    21399159.695    21399164.107
        50.000          40.0004
 115105357.486 8  89692489.10846  21903819.666    21903819.800    21903819.297
        50.000          39.0004
 119863269.644 7  93399940.47344  22809218.936    22809218.003    22809219.642
        45.000          28.0004
 111388053.630 8  86795900.19747  21196444.083    21196444.088    21196448.416
        49.000          42.0004
 121266556.382 7  94493398.74244  23076249.914    23076249.469    23076251.925
        42.000          26.0004
 107771364.114 9  83977678.22447  20508196.890    20508197.577    20508197.549
        54.000          46.0004
 120374637.086 7  93798424.06144  22906527.049    22906527.723    22906529.604
        44.000          29.0004
 13  1  1  1 25  0.0000000  0  8G29G25G02G14G24G04G12G09
 116611830.359 7  90866359.85846  22190490.644    22190490.873    22190491.793
        47.000          37.0004
 112311621.554 8  87515543.65946  21372184.299    21372184.059    21372188.145
        51.000          41.0004
 114987864.758 8  89600936.34246  21881461.703    21881461.472    21881461.255
        50.000          39.0004
 119775699.675 7  93331704.13344  22792555.064    22792554.136    22792555.934
        44.000          28.0004
 111368726.788 8  86780840.30946  21192766.334    21192766.099    21192770.531
        50.000          41.0004
 121228098.284 7  94463431.39144  23068931.635    23068931.263    23068933.172
        42.000          26.0004
 107686031.546 9  83911185.31047  20491958.665    20491958.956    20491959.243
        55.000          45.0004
 120394605.657 7  93813983.97144  22910326.960    22910327.100    22910329.979
        43.000          29.0004
 13  1  1  1 25 30.0000000  0  8G29G25G02G14G24G04G12G09
 116438288.523 7  90731132.47246  22157466.836    22157467.336    22157467.905
        46.000          37.0004
 112170027.790 8  87405210.85946  21345239.502    21345239.669    21345243.493
        48.000          40.0004
 114870861.866 8  89509765.26646  21859196.851    21859196.967    21859196.525
        48.000          40.0004
 119688687.185 7  93263902.17944  22775996.999    22775996.491    22775997.945
        43.000          29.0004
 111349816.898 8  86766105.32247  21189167.838    21189167.819    21189171.970
        49.000          42.0004
 121190181.587 7  94433885.90244  23061716.757    23061716.338    23061718.659
        42.000          27.0004
 107600929.015 8  83844871.64847  20475764.289    20475764.338    20475764.693
        50.000          45.0004
 120414797.362 7  93829717.75244  22914169.489    22914169.898    22914172.533
        43.000          29.0004
 13  1  1  1 26  0.0000000  0  8G29G25G02G14G24G04G12G09
 116265050.489 7  90596141.82746  22124500.596    22124501.057    22124501.788
        47.000          37.0004
 112028598.225 8  87295006.00146  21318326.365    21318326.363    21318330.197
        49.000          40.0004
 114754348.424 8  89418975.58446  21837025.090    21837024.972    21837024.631
        50.000          40.0004
 119602229.683 7  93196532.67344  22759544.497    22759544.043    22759545.877
        43.000          28.0004
 111331320.624 8  86751692.63847  21185648.119    21185648.574    21185651.944
        52.000          42.0004
 121152802.736 7  94404759.51844  23054603.353    23054603.612    23054605.339
        44.000          27.0004
 107516055.077 9  83778736.11447  20459613.016    20459613.567    20459613.952
        54.000          45.0004
 120435208.091 7  93845622.21444  22918053.083    22918053.498    22918056.488
        42.000          28.0004
 13  1  1  1 26 30.0000000  0  8G29G25G02G14G24G04G12G09
 116092120.156 7  90461390.93946  22091593.164    22091593.218    22091594.604
        47.000          37.0004
 111887335.934 8  87184931.48846  21291444.969    21291444.781    21291448.982
        50.000          40.0004
 114638328.089 8  89328570.14046  21814947.212    21814947.143    21814946.769
        50.000          39.0004
 119516328.998 7  93129597.08644  22743198.287    22743198.127    22743198.875
        44.000          28.0004
 111313239.010 8  86737603.07047  21182207.173    21182207.830    21182211.510
        51.000          42.0004
 121115962.404 7  94376052.76944  23047593.420    23047593.157    23047595.458
        43.000          27.0004
 107431411.930 8  83712780.41247  20443506.084    20443506.404    20443506.908
        53.000          46.0004
 120455838.176 7  93861697.58844  22921979.319    22921979.217    22921982.045
        43.000          27.0004
 13  1  1  1 27  0.0000000  0  8G29G25G02G14G24G04G12G09
 115919499.354 8  90326881.24046  22058744.616    22058745.017    22058745.988
        49.000          38.0004
 111746242.643 8  87074988.68146  21264595.647    21264595.583    21264599.857
        50.000          40.0004
 114522803.345 8  89238550.86946  21792963.583    21792963.365    21792962.850
        49.000          39.0004
 119430985.710 7  93063095.81144  22726957.737    22726957.340    22726959.004
        44.000          28.0004
 111295572.196 8  86723836.71547  21178845.307    21178845.915    21178849.686
        51.000          42.0004
 121079660.271 7  94347765.38244  23040684.730    23040684.673    23040688.069
        43.000          27.0004
 107347001.735 8  83647006.23247  20427443.365    20427443.784    20427444.179
        53.000          45.0004
 120476686.712 7  93877943.20944  22925946.320    22925947.032    22925949.513
        43.000          28.0004
 13  1  1  1 27 30.0000000  0  8G29G25G02G14G24G04G12G09
 117322616.568 8  91420219.32946  22325748.588    22325749.157    22325750.136
        49.000          38.0004
 113180745.058 8  88192782.78046  21537572.784    21537572.456    21537576.687
        51.000          40.0004
 115983200.458 8  90376522.65846  22070867.806    22070867.522    22070867.209
        49.000          39.0004
 120921623.386 7  94224631.64644  23010616.743    23010616.174    23010618.012
        43.000          28.0004
 112853740.319 8  87937993.68747  21475354.891    21475355.727    21475359.430
        51.000          42.0004
 122619317.070 7  95547497.95744  23333672.259    23333671.468    23333674.384
        42.000          26.0004
 108838248.308 8  84809016.55047  20711218.303    20711218.508    20711218.777
        53.000          45.0004
 122073172.343 7  95121957.97244  23229748.073    23229748.777    23229750.942
        44.000          29.0004
 13  1  1  1 28  0.0000000  0  8G29G25G02G14G24G04G12G09
 117150618.282 7  91286194.69546  22293018.433    22293018.736    22293019.876
        47.000          38.0004
 113039990.955 8  88083104.25346  21510787.992    21510787.620    21510791.848
        48.000          41.0004
 115868669.596 8  90287277.84046  22049073.225    22049073.379    22049072.828
        51.000          39.0004
 120837392.433 7  94158997.12844  22994588.350    22994588.231    22994588.986
        44.000          29.0004
 112836897.288 8  87924869.24247  21472149.666    21472150.476    21472154.440
        51.000          42.0004
 122584085.396 7  95520044.69444  23326967.176    23326966.664    23326970.165
        43.000          26.0004
 108754302.439 8  84743604.18947  20695243.728    20695243.942    20695244.322
        53.000          45.0004
 122094450.768 7  95138538.55444  23233797.296    23233798.307    23233800.289
        45.000          29.0004
 13  1  1  1 28 30.0000000  0  8G29G25G02G14G24G04G12G09
 116978932.969 7  91152413.96746  22260347.608    22260347.775    22260349.134
        47.000          38.0004
 112899407.656 8  87973558.83746  21484036.073    21484035.596    21484039.454
        49.000          40.0004
 115754638.116 8  90198422.14946  22027373.647    22027373.704    22027373.258
        51.000          39.0004
 120753716.350 7  94093794.98745  22978665.190    22978665.471    22978666.548
        43.000          30.0004
 112820464.437 8  87912064.41746  21469022.625    21469023.418    21469027.219
        50.000          41.0004
 122549386.495 7  95493006.58944  23320364.228    23320363.585    23320367.656
        42.000          27.0004
 108670590.028 8  84678373.74147  20679313.620    20679314.206    20679314.496
        51.000          45.0004
 122115941.044 7  95155284.22444  23237886.982    23237887.815    23237889.799
        45.000          29.0004
 13  1  1  1 29  0.0000000  0  8G29G25G02G14G24G04G12G09
 116807561.410 8  91018877.70046  22227736.795    22227736.939    22227738.144
        48.000          38.0004
 112758995.095 8  87864146.45946  21457316.235    21457316.363    21457319.741
        50.000          40.0004
 115641106.433 8  90109955.90846  22005769.388    22005768.890    22005768.965
        50.000          39.0004
 120670593.858 7  94029024.20745  22962847.855    22962847.366    22962848.664
        45.000          30.0004
 112804439.603 8  87899577.52246  21465972.736    21465973.975    21465977.486
        51.000          41.0004
 122515218.050 7  95466381.81444  23313862.806    23313861.816    23313865.697
        42.000          27.0004
 108587110.588 8  84613324.82747  20663428.066    20663428.719    20663429.010
        53.000          44.0004
 122137640.440 7  95172192.83044  23242015.764    23242016.785    23242018.940
        44.000          29.0004
 13  1  1  1 29 30.0000000  0  8G29G25G02G14G24G04G12G09
 116636504.938 8  90885586.96946  22195186.180    22195186.442    22195187.214
        49.000          38.0004
 112618754.215 8  87754867.85746  21430629.451    21430629.334    21430632.929
        51.000          40.0004
 115528075.844 8  90021880.14046  21984260.486    21984259.580    21984259.993
        49.000          39.0004
 120588024.725 7  93964684.60344  22947135.021    22947135.009    22947136.427
        46.000          29.0004
 112788821.227 8  87887407.36046  21463001.019    21463001.940    21463005.053
        50.000          40.0004
 122481578.761 7  95440169.38144  23307461.501    23307460.470    23307464.133
        42.000          27.0004
 108503863.530 8  84548456.97847  20647586.833    20647587.035    20647587.569
        53.000          45.0004
 122159547.098 7  95189262.93944  23246184.505    23246184.436    23246187.454
        43.000          28.0004
 13  1  1  1 30  0.0000000  0  8G29G25G02G14G24G04G12G09
 116465764.446 8  90752542.44246  22162695.060    22162695.274    22162695.970
        48.000          38.0004
 112478685.370 7  87645723.31446  21403975.097    21403974.901    21403978.962
        47.000          40.0004
 115415547.356 8  89934195.60746  21962846.833    21962846.400    21962846.415
        49.000          39.0004
 120506007.733 7  93900775.25744  22931528.016    22931527.289    22931528.820
        44.000          29.0004
 112773608.018 8  87875552.90846  21460106.290    21460106.786    21460110.043
        48.000          40.0004
 122448466.358 7  95414367.51244  23301159.365    23301159.537    23301163.591
        43.000          26.0004
 108420850.317 9  84483771.35847  20631790.058    20631790.510    20631790.682
        55.000          45.0004
 122181658.257 7  95206492.38444  23250392.257    23250392.190    23250394.597
        42.000          27.0004
 13  1  1  1 30 30.0000000  0  8G29G25G02G14G24G04G12G09
 116295339.934 8  90619744.13546  22130264.309    22130264.272    22130265.591
        48.000          38.0004
 112338788.282 8  87536712.60646  21377353.247    21377353.489    21377357.657
        49.000          41.0004
 115303521.074 8  89846902.41046  21941528.884    21941528.594    21941528.424
        50.000          39.0004
 120424541.145 7  93837294.78644  22916024.540    22916025.021    22916025.971
        43.000          28.0004
 112758797.635 8  87864012.35146  21457287.628    21457288.532    21457291.865
        49.000          40.0004
 122415878.172 7  95388974.10644  23294958.225    23294958.731    23294962.029
        43.000          26.0004
 108338069.415 8  84419266.75547  20616037.352    20616037.811    20616037.907
        53.000          45.0004
 122203970.911 7  95223878.86044  23254637.843    23254637.360    23254640.610
        43.000          27.0004
 13  1  1  1 31  0.0000000  0  8G29G25G02G14G24G04G12G09
 116125232.786 8  90487193.13046  22097893.928    22097894.623    22097895.192
        48.000          38.0004
 112199063.833 8  87427836.42446  21350764.878    21350764.933    21350768.916
        51.000          40.0004
 115191998.534 8  89760001.73546  21920306.927    21920306.691    21920306.255
        49.000          39.0004
 120343624.346 7  93774242.70144  22900626.908    22900626.808    22900628.202
        43.000          28.0004
 112744388.118 8  87852784.14746  21454545.466    21454546.246    21454549.828
        50.000          39.0004
 122383812.758 7  95363988.06144  23288856.413    23288856.553    23288859.843
        43.000          26.0004
 108255521.295 9  84354943.54647  20600328.755    20600329.197    20600329.424
        54.000          45.0004
 122226483.057 7  95241420.78444  23258922.553    23258922.197    23258924.531
        44.000          28.0004
 13  1  1  1 31 30.0000000  0  8G29G25G02G14G24G04G12G09
 115955443.495 8  90354889.79846  22065584.173    22065584.643    22065585.339
        48.000          38.0004
 112059511.986 8  87319094.72446  21324209.101    21324208.953    21324212.838
        50.000          40.0004
 115080979.930 8  89673493.73946  21899180.699    21899180.643    21899179.895
        51.000          38.0004
 120263255.878 7  93711617.91844  22885333.517    22885333.115    22885334.475
        44.000          28.0004
 112730377.789 8  87841867.00146  21451879.658    21451879.687    21451884.039
        49.000          40.0004
 122352267.379 7  95339407.23344  23282853.463    23282853.392    23282857.188
        43.000          26.0004
 108173205.478 8  84290801.35047  20584664.866    20584664.905    20584665.507
        53.000          45.0004
 122249192.303 7  95259116.30144  23263243.554    23263243.118    23263245.822
        43.000          28.0004
 13  1  1  1 32  0.0000000  0  8G29G25G02G14G24G04G12G09
 115785973.435 8  90222835.20746  22033335.192    22033335.031    22033336.285
        49.000          38.0004
 111920133.549 8  87210488.15446  21297686.142    21297686.087    21297689.939
        50.000          40.0004
 114970466.443 8  89587379.34046  21878150.525    21878150.703    21878150.126
        51.000          39.0004
 120183434.587 7  93649419.49044  22870144.057    22870143.512    22870145.276
        44.000          28.0004
 112716765.188 8  87831259.77646  21449289.510    21449289.586    21449293.907
        48.000          40.0004
 122321240.376 7  95315230.34544  23276949.796    23276949.452    23276953.032
        43.000          26.0004
 108091122.658 8  84226840.70947  20569044.962    20569045.140    20569045.762
        53.000          45.0004
 122272096.390 7  95276963.61844  23267601.735    23267602.031    23267604.237
        43.000          28.0004
 13  1  1  1 32 30.0000000  0  8G29G25G02G14G24G04G12G09
 115616823.849 8  90091030.35246  22001146.834    22001146.894    22001148.379
        48.000          38.0004
 111780929.562 8  87102017.51346  21271196.610    21271196.431    21271200.452
        50.000          41.0004
 114860459.770 8  89501659.86146  21857217.081    21857217.127    21857216.645
        52.000          39.0004
 120104160.427 7  93587647.41444  22855058.525    22855057.660    22855059.613
        45.000          28.0004
 112703549.032 8  87820961.45646  21446774.271    21446774.467    21446779.082
        49.000          40.0004
 122290730.466 7  95291456.38844  23271143.829    23271143.569    23271146.934
        43.000          26.0004
 108009273.115 9  84163061.84347  20553469.440    20553469.646    20553470.191
        54.000          45.0004
 122295193.415 7  95294961.30244  23271997.557    23271997.310    23271999.469
        42.000          27.0004
 13  1  1  1 33  0.0000000  0  8G29G25G02G14G24G04G12G09
 115447996.460 8  89959476.56646  21969019.954    21969019.610    21969021.540
        48.000          38.0004
 111641901.467 8  86993683.93946  21244740.474    21244740.229    21244744.371
        49.000          41.0004
 114750961.688 8  89416336.69046  21836380.401    21836379.959    21836379.871
        51.000          39.0004
 120025433.267 7  93526301.56144  22840077.379    22840077.137    22840078.715
        44.000          28.0004
 112690728.830 8  87810971.67546  21444334.996    21444335.132    21444339.248
        49.000          40.0004
 122260736.115 7  95268084.16944  23265435.926    23265436.131    23265439.343
        43.000          26.0004
 107927658.017 9  84099465.65847  20537938.561    20537938.765    20537939.254
        54.000          45.0004
 122318482.048 7  95313108.27144  23276429.723    23276428.964    23276430.867
        43.000          27.0004
 13  1  1  1 33 30.0000000  0  8G29G25G02G14G24G04G12G09
 115279491.158 8  89828173.74846  21936954.721    21936954.805    21936955.962
        48.000          38.0004
 111503048.839 8  86885487.09346  21218318.272    21218317.319    21218321.404
        50.000          40.0004
 114641971.966 8  89331409.62346  21815640.388    21815640.196    21815639.549
        50.000          39.0004
 119947250.774 7  93465380.13644  22825200.256    22825199.543    22825201.235
        44.000          29.0004
 112678301.351 8  87801287.92246  21441970.105    21441970.396    21441974.177
        49.000          40.0004
 122231254.690 7  95245111.62944  23259825.405    23259825.276    23259828.335
        42.000          25.0004
 107846276.658 8  84036051.60747  20522452.116    20522452.381    20522452.943
        53.000          45.0004
 122341958.967 7  95331401.96444  23280896.145    23280897.089    23280899.254
        44.000          27.0004
 13  1  1  1 34  0.0000000  0  8G29G25G02G14G24G04G12G09
 115111308.948 8  89697122.68046  21904950.882    21904950.685    21904951.600
        49.000          38.0004
 111364371.970 8  86777427.19046  21191928.462    21191928.201    21191931.879
        50.000          41.0004
 114533491.043 8  89246879.03846  21794997.437    21794997.101    21794996.432
        52.000          39.0004
 119869611.854 7  93404882.27644  22810426.124    22810424.850    22810427.233
        44.000          28.0004
 112666264.853 8  87791908.82546  21439679.616    21439680.262    21439683.634
        50.000          40.0004
 122202283.971 7  95222537.05244  23254312.148    23254312.764    23254315.305
        42.000          24.0004
 107765128.811 8  83972819.51347  20507010.409    20507010.512    20507011.163
        53.000          45.0004
 122365621.596 7  95349840.37744  23285399.409    23285400.825    23285401.416
        45.000          27.0004
 13  1  1  1 34 30.0000000  0  8G29G25G02G14G24G04G12G09
 114943450.153 8  89566323.62546  21873008.375    21873008.316    21873009.097
        48.000          37.0004
 111225870.989 8  86669504.35246  21165572.296    21165572.603    21165576.252
        50.000          41.0004
 114425519.445 8  89162745.33546  21774450.646    21774450.521    21774450.248
        50.000          39.0004
 119792514.471 7  93344806.39744  22795753.874    22795754.000    22795755.899
        44.000          29.0004
 112654617.578 8  87782833.02246  21437463.191    21437463.765    21437467.498
        48.000          40.0004
 122173821.048 7  95200358.14044  23248896.166    23248896.803    23248898.949
        42.000          24.0004
 107684213.465 8  83909768.59547  20491612.536    20491612.694    20491613.255
        53.000          46.0004
 122389467.163 7  95368421.31344  23289937.406    23289938.229    23289938.841
        45.000          27.0004
 13  1  1  1 35  0.0000000  0  8G29G25G02G14G24G04G12G09
 114775917.786 8  89435778.93246  21841128.144    21841128.321    21841129.154
        49.000          38.0004
 111087548.361 8  86561720.48746  21139250.372    21139250.462    21139254.515
        50.000          41.0004
 114318060.091 8  89079010.78146  21754001.537    21754001.813    21754001.387
        50.000          39.0004
 119715959.626 7  93285153.24444  22781186.245    22781186.312    22781187.519
        44.000          28.0004
 112643359.124 8  87774060.19746  21435320.606    21435321.472    21435325.357
        49.000          40.0004
 122145865.753 7  95178574.77044  23243576.748    23243576.925    23243579.528
        42.000          24.0004
 107603533.844 8  83846901.35747  20476259.707    20476259.785    20476260.383
        53.000          45.0004
 122413495.063 7  95387144.37144  23294509.813    23294510.338    23294511.438
        43.000          28.0004
 13  1  1  1 35 30.0000000  0  8G29G25G02G14G24G04G12G09
 114608712.102 8  89305488.81046  21809309.481    21809309.947    21809311.126
        49.000          38.0004
 110949404.319 8  86454075.78947  21112962.482    21112962.175    21112966.596
        50.000          42.0004
 114211113.449 8  88995675.73946  21733650.515    21733650.501    21733650.301
        50.000          40.0004
 119639945.775 7  93225921.65344  22766721.853    22766721.305    22766723.037
        44.000          28.0004
 112632487.638 8  87765588.89046  21433251.219    21433252.779    21433256.310
        50.000          40.0004
 122118415.846 7  95157185.22844  23238353.244    23238353.585    23238355.589
        43.000          25.0004
 107523089.061 8  83784217.11247  20460951.782    20460951.950    20460952.405
        53.000          45.0004
 122437702.798 7  95406007.52444  23299116.561    23299116.709    23299118.470
        44.000          28.0004
 13  1  1  1 36  0.0000000  0  8G29G25G02G14G24G04G12G09
 116017259.179 7  90403057.98946  22077347.065    22077347.342    22077348.417
        47.000          37.0004
 112386863.791 8  87574174.08146  21386501.952    21386501.487    21386505.739
        50.000          41.0004
 115680103.383 8  90140343.23146  22013190.035    22013189.738    22013189.758
        50.000          39.0004
 121139894.056 7  94394712.50544  23052152.633    23052152.107    23052153.397
        43.000          27.0004
 114197421.311 8  88985017.72646  21731049.026    21731049.827    21731052.915
        50.000          39.0004
 123666889.902 7  96363788.36944  23533018.649    23533018.844    23533020.966
        43.000          25.0004
 109018301.970 8  84949318.08447  20745481.272    20745481.629    20745482.077
        53.000          45.0004
 124037507.109 7  96652608.26944  23603549.573    23603549.095    23603550.789
        42.000          27.0004
 13  1  1  1 36 30.0000000  0  8G29G25G02G14G24G04G12G09
 115850710.049 8  90273279.45546  22045654.181    22045654.176    22045654.847
        48.000          38.0004
 112249079.489 8  87466809.69046  21360282.773    21360282.562    21360286.346
        50.000          41.0004
 115574184.998 8  90057809.44046  21993034.481    21993034.272    21993034.021
        50.000          40.0004
 121064959.317 7  94336321.79144  23037892.446    23037892.773    23037892.932
        44.000          27.0004
 114187319.223 8  88977145.96446  21729126.103    21729127.544    21729130.682
        49.000          39.0004
 123640445.328 7  96343182.21244  23527986.210    23527986.648    23527989.264
        43.000          25.0004
 108938328.442 8  84887001.04147  20730262.634    20730262.767    20730263.428
        52.000          45.0004
 124062068.658 7  96671747.14344  23608222.173    23608222.575    23608224.782
        43.000          27.0004
 13  1  1  1 37  0.0000000  0  8G29G25G02G14G24G04G12G09
 115684489.764 8  90143757.16446  22014023.491    22014023.726    22014024.514
        49.000          38.0004
 112111474.959 8  87359585.38346  21334097.530    21334097.564    21334100.954
        50.000          41.0004
 115468781.033 8  89975676.48046  21972976.772    21972976.750    21972976.321
        51.000          39.0004
 120990561.208 7  94278349.22544  23023734.955    23023734.429    23023735.759
        43.000          26.0004
 114177597.936 7  88969570.92746  21727276.645    21727277.337    21727280.661
        47.000          39.0004
 123614498.891 7  96322964.20244  23523048.560    23523049.374    23523051.402
        43.000          26.0004
 108858589.727 8  84824866.97547  20715088.902    20715088.991    20715089.611
        52.000          45.0004
 124086802.526 7  96691020.25644  23612929.844    23612929.145    23612931.506
        43.000          26.0004
 13  1  1  1 37 30.0000000  0  8G29G25G02G14G24G04G12G09
 115518600.092 8  90014492.49046  21982455.645    21982456.142    21982457.024
        50.000          38.0004
 111974051.886 8  87252502.47246  21307946.688    21307946.340    21307950.075
        50.000          41.0004
 115363893.077 8  89893945.61646  21953017.578    21953017.116    21953017.120
        50.000          40.0004
 120916699.862 7  94220794.92644  23009679.661    23009679.088    23009680.878
        42.000          26.0004
 114168257.052 8  88962292.30446  21725499.451    21725499.819    21725503.221
        50.000          39.0004
 123589049.881 7  96303133.78644  23518206.383    23518206.689    23518208.319
        43.000          25.0004
 108779087.106 8  84762916.87747  20699960.238    20699960.628    20699960.820
        53.000          45.0004
 124111707.301 7  96710426.57144  23617668.080    23617668.612    23617671.238
        42.000          26.0004
 13  1  1  1 38  0.0000000  0  8G29G25G02G14G24G04G12G09
 115353041.252 7  89885485.62146  21950950.625    21950951.044    21950952.445
        47.000          39.0004
 111836810.133 8  87145560.85847  21281830.261    21281830.020    21281833.908
        50.000          42.0004
 115259521.152 8  89812616.86046  21933155.987    21933155.803    21933155.424
        51.000          39.0004
 120843372.918 6  94163657.03544  22995725.074    22995725.525    22995727.704
        41.000          26.0004
 114159293.930 8  88955308.05246  21723793.417    21723793.897    21723797.383
        48.000          39.0004
 123564095.248 7  96283688.62844  23513457.416    23513458.487    23513459.553
        43.000          25.0004
 108699820.047 8  84701150.33447  20684876.093    20684876.605    20684876.982
        53.000          46.0004
 124136780.073 7  96729963.79044  23622439.849    23622439.745    23622442.198
        43.000          26.0004
 13  1  1  1 38 30.0000000  0  8G29G25G02G14G24G04G12G09
 115187814.472 8  89756737.48646  21919509.219    21919508.733    21919510.491
        49.000          38.0004
 111699750.907 8  87038761.46446  21255748.714    21255748.775    21255752.547
        52.000          41.0004
 115155666.534 8  89731691.18846  21913393.097    21913392.677    21913392.691
        50.000          39.0004
 120770579.848 6  94106935.13344  22981874.499    22981874.078    22981875.534
        41.000          27.0004
 114150707.591 8  88948617.39246  21722159.922    21722160.313    21722163.712
        48.000          39.0004
 123539633.339 6  96264627.37544  23508802.405    23508802.542    23508804.610
        41.000          25.0004
 108620789.298 8  84639567.93547  20669837.184    20669837.472    20669838.255
        53.000          45.0004
 124162019.152 7  96749630.60644  23627243.134    23627242.203    23627245.154
        43.000          25.0004
 13  1  1  1 39  0.0000000  0  8G29G25G02G14G24G04G12G09
 115022922.241 7  89628250.05646  21888130.867    21888130.784    21888132.637
        46.000          38.0004
 111562876.071 8  86932105.74646  21229702.378    21229702.413    21229706.030
        49.000          41.0004
 115052331.259 8  89651170.20446  21893728.864    21893728.664    21893728.849
        50.000          39.0004
 120698320.279 7  94050628.97144  22968123.229    22968123.894    22968125.072
        44.000          27.0004
 114142496.974 8  88942219.51046  21720597.598    21720597.953    21720601.199
        49.000          39.0004
 123515663.258 6  96245949.39544  23504240.386    23504240.803    23504243.573
        40.000          25.0004
 108541996.108 8  84578170.64247  20654843.321    20654843.553    20654844.251
        52.000          45.0004
 124187423.306 7  96769426.04144  23632077.082    23632076.615    23632079.939
        42.000          26.0004
 13  1  1  1 39 30.0000000  0  8G29G25G02G14G24G04G12G09
 114858364.195 8  89500023.02146  21856816.717    21856816.817    21856818.495
        48.000          38.0004
 111426185.297 8  86825593.46346  21203690.989    21203690.770    21203694.657
        49.000          41.0004
 114949515.000 8  89571053.64746  21874163.686    21874163.867    21874163.408
        51.000          40.0004
 120626592.235 7  93994736.97844  22954474.914    22954474.470    22954475.920
        43.000          27.0004
 114134659.614 8  88936112.47146  21719105.340    21719106.415    21719110.098
        48.000          39.0004
 123492181.846 7  96227652.17444  23499772.711    23499772.594    23499775.656
        42.000          25.0004
 108463439.893 8  84516958.00247  20639894.620    20639894.616    20639895.049
        51.000          45.0004
 124212989.391 6  96789347.62944  23636942.037    23636941.039    23636945.252
        41.000          26.0004
 13  1  1  1 40  0.0000000  0  8G29G25G02G14G24G04G12G09
 114694141.189 8  89372057.05646  21825566.204    21825566.249    21825567.344
        49.000          38.0004
 111289679.458 8  86719225.27746  21177714.672    21177714.732    21177718.543
        50.000          41.0004
 114847218.741 8  89491342.28146  21854697.676    21854697.460    21854696.573
        51.000          39.0004
 120555394.518 7  93939258.22644  22940926.212    22940925.824    22940927.694
        43.000          27.0004
 114127193.638 8  88930294.82346  21717684.957    21717685.720    21717689.107
        48.000          39.0004
 123469187.179 7  96209734.23044  23495396.683    23495396.638    23495400.571
        42.000          25.0004
 108385121.170 9  84455930.42747  20624991.071    20624991.224    20624991.432
        55.000          45.0004
 124238715.381 6  96809393.83944  23641837.887    23641836.843    23641839.977
        41.000          25.0004
 13  1  1  1 40 30.0000000  0  8G29G25G02G14G24G04G12G09
 114530253.701 8  89244352.52346  21794379.399    21794379.314    21794380.138
        48.000          38.0004
 111153358.937 8  86613001.50047  21151773.852    21151774.110    21151777.537
        51.000          42.0004
 114745442.612 8  89412036.21346  21835329.980    21835330.194    21835328.970
        50.000          39.0004
 120484725.358 7  93884191.32544  22927477.879    22927477.452    22927480.120
        43.000          28.0004
 114120097.114 8  88924765.05546  21716334.596    21716335.393    21716338.869
        49.000          39.0004
 123446676.632 7  96192193.54244  23491113.644    23491113.008    23491116.105
        42.000          25.0004
 108307039.608 8  84395087.64847  20610132.567    20610133.010    20610133.213
        52.000          45.0004
 124264598.318 6  96829562.36644  23646762.886    23646762.052    23646765.298
        39.000          25.0004
 13  1  1  1 41  0.0000000  0  8G29G25G02G14G24G04G12G09
 114366701.226 8  89116909.04046  21763256.352    21763256.215    21763256.854
        49.000          38.0004
 111017223.021 8  86506921.56646  21125868.010    21125868.141    21125871.790
        51.000          41.0004
 114644185.667 8  89333134.70446  21816061.820    21816061.909    21816060.625
        51.000          40.0004
 120414581.936 7  93829534.10744  22914130.315    22914129.982    22914131.876
        44.000          27.0004
 114113366.785 8  88919520.63946  21715054.400    21715054.498    21715058.327
        49.000          39.0004
 123424646.683 6  96175027.34344  23486921.374    23486920.358    23486924.107
        39.000          24.0004
 108229193.755 9  84334428.53847  20595318.932    20595319.245    20595319.711
        55.000          44.0004
 124290635.028 6  96849850.69644  23651717.372    23651716.990    23651719.594
        41.000          25.0004
 13  1  1  1 41 30.0000000  0  8G29G25G02G14G24G04G12G09
 114203485.546 8  88989728.00246  21732197.282    21732197.607    21732197.805
        49.000          38.0004
 110881273.336 8  86400986.75046  21099997.805    21099997.622    21100001.593
        50.000          41.0004
 114543449.811 8  89254639.24246  21796892.332    21796892.055    21796891.737
        50.000          39.0004
 120344963.774 7  93775286.18444  22900882.761    22900882.522    22900883.423
        43.000          27.0004
 114107001.782 8  88914560.88246  21713842.506    21713843.677    21713847.074
        49.000          40.0004
 123403095.890 6  96158234.49344  23482820.867    23482819.263    23482822.662
        39.000          24.0004
 108151585.281 8  84273954.39747  20580550.581    20580550.910    20580551.210
        52.000          44.0004
 124316823.926 7  96870257.61144  23656700.525    23656701.143    23656704.374
        42.000          26.0004
 13  1  1  1 42  0.0000000  0  8G29G25G02G14G24G04G12G09
 114040610.084 8  88862812.07246  21701203.149    21701203.936    21701203.933
        50.000          39.0004
 110745513.139 8  86295199.58746  21074163.446    21074163.346    21074167.055
        50.000          41.0004
 114443238.107 8  89176552.20946  21777822.276    21777822.018    21777821.955
        50.000          39.0004
 120275871.908 7  93721448.34844  22887735.017    22887734.471    22887735.818
        44.000          27.0004
 114101002.741 8  88909886.30446  21712701.343    21712702.218    21712705.474
        49.000          39.0004
 123382024.612 6  96141815.32243  23478810.179    23478809.013    23478813.234
        39.000          23.0004
 108074216.635 8  84213667.14147  20565827.959    20565828.345    20565828.631
        53.000          45.0004
 124343165.118 7  96890783.20244  23661713.871    23661713.705    23661716.954
        43.000          25.0004
 13  1  1  1 42 30.0000000  0  8G29G25G02G14G24G04G12G09
 113878072.062 8  88736159.07846  21670273.340    21670273.837    21670274.444
        50.000          39.0004
 110609939.578 8  86189557.85346  21048364.491    21048364.346    21048368.242
        49.000          41.0004
 114343547.428 8  89098871.16646  21758851.829    21758851.338    21758851.553
        51.000          39.0004
 120207301.709 7  93668017.02944  22874686.377    22874685.593    22874687.606
        42.000          27.0004
 114095364.269 8  88905492.68646  21711627.432    21711628.789    21711632.496
        48.000          39.0004
 123361427.154 6  96125765.34443  23474890.335    23474890.255    23474893.791
        39.000          23.0004
 107997084.858 8  84153564.45747  20551149.960    20551150.401    20551151.101
        52.000          45.0004
 124369652.936 6  96911423.05644  23666754.456    23666753.788    23666756.648
        41.000          25.0004
 13  1  1  1 43  0.0000000  0  8G29G25G02G14G24G04G12G09
 113715873.999 8  88609770.98746  21639407.797    21639408.430    21639408.953
        50.000          39.0004
 110474555.135 8  86084063.48547  21022601.738    21022601.612    21022605.537
        51.000          42.0004
 114244380.330 8  89021598.10246  21739980.963    21739980.604    21739980.689
        48.000          39.0004
 120139253.326 7  93614992.29944  22861736.998    22861736.420    22861738.235
        42.000          27.0004
 114090086.215 8  88901379.91346  21710623.045    21710624.229    21710628.313
        49.000          39.0004
 123341302.761 6  96110083.97943  23471061.647    23471061.468    23471063.753
        41.000          23.0004
 107920191.772 8  84093647.76047  20536517.754    20536517.802    20536518.394
        52.000          44.0004
 124396286.656 7  96932176.63444  23671822.127    23671822.686    23671824.689
        43.000          24.0004
 13  1  1  1 43 30.0000000  0  8G29G25G02G14G24G04G12G09
 113554015.167 8  88483647.22546  21608607.414    21608607.764    21608608.577
        50.000          40.0004
 110339359.166 8  85978715.96947  20996874.908    20996874.813    20996878.778
        50.000          42.0004
 114145735.947 8  88944732.36246  21721209.704    21721209.451    21721209.402
        50.000          39.0004
 120071723.561 7  93562371.70744  22848887.081    22848886.193    22848887.663
        44.000          26.0004
 114085165.594 7  88897545.65046  21709687.695    21709687.766    21709691.958
        46.000          39.0004
 123321647.999 7  96094768.55744  23467321.362    23467322.318    23467324.193
        43.000          25.0004
 107843536.260 8  84033916.18647  20521930.740    20521931.110    20521931.088
        52.000          44.0004
 124423062.893 6  96953041.24243  23676917.431    23676917.755    23676920.348
        41.000          23.0004
 13  1  1  1 44  0.0000000  0  8G29G25G02G14G24G04G12G09
 113392497.547 8  88357789.35146  21577871.430    21577872.237    21577873.074
        50.000          40.0004
 110204353.327 8  85873516.61047  20971184.054    20971184.056    20971188.050
        50.000          42.0004
 114047615.652 8  88868274.99646  21702537.888    21702537.727    21702538.073
        50.000          39.0004
 120004712.079 7  93510154.95944  22836135.003    22836133.956    22836135.805
        42.000          26.0004
 114080601.136 8  88893988.91646  21708818.940    21708819.392    21708823.484
        49.000          39.0004
 123302461.410 7  96079817.95544  23463670.450    23463671.617    23463673.752
        42.000          25.0004
 107767118.976 8  83974370.25547  20507388.913    20507389.493    20507389.620
        53.000          45.0004
 124449979.927 7  96974015.55243  23682039.504    23682040.301    23682042.448
        42.000          23.0004
 13  1  1  1 44 30.0000000  0  8G29G25G02G14G24G04G12G09
 113231321.912 8  88232197.96146  21547200.843    21547201.532    21547202.578
        52.000          41.0004
 110069538.606 8  85768466.17647  20945529.487    20945529.755    20945533.573
        51.000          42.0004
 113950020.346 8  88792226.71346  21683966.193    21683965.740    21683966.024
        50.000          39.0004
 119938217.607 7  93458341.09644  22823480.952    22823481.235    22823483.232
        44.000          27.0004
 114076391.199 8  88890708.43946  21708017.563    21708018.189    21708022.494
        48.000          39.0004
 123283741.001 7  96065230.62544  23460107.834    23460108.415    23460110.876
        42.000          24.0004
 107690941.223 8  83915010.96947  20492892.963    20492893.114    20492893.681
        52.000          45.0004
 124477036.007 6  96995098.19743  23687188.611    23687188.704    23687190.609
        40.000          23.0004
 13  1  1  1 45  0.0000000  0  8G29G25G02G14G24G04G12G09
 114645913.311 8  89334476.97947  21816388.865    21816389.443    21816390.267
        51.000          42.0004
 111510339.298 8  86891168.01246  21219705.100    21219705.087    21219708.628
        50.000          41.0004
 115428372.608 8  89944189.52246  21965287.128    21965287.245    21965286.677
        50.000          39.0004
 121447659.752 7  94634529.76944  23110718.701    23110718.778    23110719.620
        44.000          28.0004
 115647953.242 7  90115302.22746  22007076.220    22007076.708    22007080.526
        46.000          38.0004
 124840904.145 6  97278604.48943  23756425.718    23756426.303    23756429.079
        41.000          23.0004
 109190424.639 8  85083439.59647  20778235.123    20778235.194    20778235.965
        52.000          44.0004
 126079647.009 6  98243885.98143  23992154.613    23992154.246    23992157.506
        41.000          22.0004
 13  1  1  1 45 30.0000000  0  8G29G25G02G14G24G04G12G09
 114485423.738 8  89209420.17146  21785848.578    21785848.913    21785850.493
        50.000          41.0004
 111375908.814 8  86786416.98546  21194123.820    21194123.625    21194127.389
        52.000          41.0004
 115331827.937 8  89868959.92146  21946915.343    21946915.010    21946914.152
        51.000          39.0004
 121382194.339 7  94583517.75044  23098260.902    23098260.756    23098261.241
        45.000          27.0004
 115644446.833 8  90112569.95346  22006409.083    22006409.529    22006413.129
        49.000          38.0004
 124823108.725 6  97264737.91043  23753039.900    23753039.324    23753042.435
        41.000          22.0004
 109114726.261 8  85024453.84547  20763830.071    20763830.298    20763831.014
        53.000          44.0004
 126106973.903 7  98265179.62644  23997355.271    23997355.510    23997358.002
        42.000          24.0004
 13  1  1  1 46  0.0000000  0  8G29G25G02G14G24G04G12G09
 114325278.044 8  89084631.33346  21755374.009    21755373.925    21755375.654
        48.000          41.0004
 111241671.147 8  86681816.19847  21168579.314    21168579.282    21168582.852
        52.000          42.0004
 115235808.840 8  89794139.86746  21928643.370    21928643.130    21928643.007
        50.000          40.0004
 121317240.818 7  94532904.61744  23085900.296    23085900.042    23085901.565
        43.000          26.0004
 115641288.567 7  90110108.95446  22005808.273    22005808.412    22005812.390
        45.000          38.0004
 124805772.130 6  97251228.87444  23749740.108    23749740.949    23749743.200
        41.000          24.0004
 109039267.251 8  84965654.61247  20749470.622    20749471.031    20749471.560
        53.000          45.0004
 126134432.331 6  98286575.78943  24002581.240    24002580.699    24002583.077
        40.000          23.0004
 13  1  1  1 46 30.0000000  0  8G29G25G02G14G24G04G12G09
 114165476.202 8  88960110.43246  21724964.297    21724964.773    21724966.170
        51.000          41.0004
 111107626.549 8  86577365.86147  21143071.660    21143071.331    21143075.253
        52.000          43.0004
 115140315.133 8  89719729.18846  21910471.647    21910471.261    21910471.949
        49.000          40.0004
 121252796.791 7  94482688.46144  23073637.550    23073637.093    23073638.675
        44.000          28.0004
 115638476.254 7  90107917.53446  22005272.923    22005272.910    22005276.940
        46.000          38.0004
 124788891.104 7  97238074.80144  23746528.275    23746529.377    23746531.338
        42.000          24.0004
 108964047.140 8  84907041.53347  20735157.012    20735157.024    20735157.581
        52.000          45.0004
 126162019.504 7  98308072.30243  24007830.145    24007830.338    24007832.773
        42.000          23.0004
 13  1  1  1 47  0.0000000  0  8G29G25G02G14G24G04G12G09
 114006021.723 8  88835860.20146  21694621.162    21694621.366    21694622.956
        51.000          41.0004
 110973778.628 8  86473068.78447  21117600.868    21117600.901    21117604.779
        51.000          43.0004
 115045350.427 8  89645730.71546  21892400.582    21892400.755    21892400.456
        51.000          40.0004
 121188863.627 7  94432870.40944  23061471.630    23061471.555    23061472.764
        45.000          29.0004
 115636010.879 7  90105996.45846  22004803.662    22004803.777    22004807.648
        46.000          37.0004
 124772466.377 7  97225276.29644  23743403.742    23743404.216    23743405.095
        44.000          25.0004
 108889069.196 8  84848617.16047  20720888.993    20720889.324    20720889.751
        51.000          44.0004
 126189735.977 6  98329669.55043  24013104.546    24013104.675    24013106.444
        41.000          23.0004
 13  1  1  1 47 30.0000000  0  8G29G25G02G14G24G04G12G09
 113846912.789 8  88711879.21546  21664343.565    21664343.842    21664345.166
        50.000          41.0004
 110840125.678 8  86368923.62447  21092167.648    21092167.370    21092171.143
        50.000          42.0004
 114950912.111 8  89572142.44246  21874429.391    21874429.628    21874428.747
        50.000          39.0004
 121125437.381 7  94383447.35945  23049402.228    23049401.882    23049403.591
        47.000          30.0004
 115633888.010 7  90104342.26546  22004399.668    22004399.702    22004403.396
        46.000          37.0004
 124756492.950 7  97212829.46844  23740364.376    23740364.463    23740365.464
        43.000          24.0004
 108814331.671 8  84790380.12347  20706666.968    20706667.349    20706667.699
        53.000          44.0004
 126217577.109 7  98351363.91143  24018402.205    24018402.429    24018404.215
        42.000          22.0004
 13  1  1  1 48  0.0000000  0  8G29G25G02G14G24G04G12G09
 113688150.117 8  88588168.04046  21634132.256    21634132.353    21634133.881
        51.000          41.0004
 110706668.134 8  86264930.73647  21066771.123    21066771.113    21066774.888
        50.000          42.0004
 114857000.457 8  89498964.54646  21856558.797    21856558.895    21856559.179
        50.000          40.0004
 121062515.679 7  94334417.45244  23037428.344    23037428.175    23037429.602
        45.000          29.0004
 115632105.138 7  90102953.01446  22004060.542    22004060.556    22004063.996
        46.000          36.0004
 124740968.178 7  97200732.24144  23737409.166    23737410.298    23737410.583
        42.000          24.0004
 108739834.310 9  84732330.22647  20692490.534    20692490.498    20692491.491
        54.000          44.0004
 126245540.309 6  98373153.43343  24023723.192    24023724.061    24023726.458
        41.000          22.0004
 13  1  1  1 48 30.0000000  0  8G29G25G02G14G24G04G12G09
 113529733.695 8  88464726.67646  21603986.248    21603986.320    21603988.224
        49.000          40.0004
 110573406.270 8  86161090.32747  21041412.271    21041412.476    21041416.002
        51.000          42.0004
 114763615.450 8  89426196.99746  21838787.941    21838787.914    21838788.586
        50.000          40.0004
 121000096.503 7  94285779.12844  23025549.470    23025549.504    23025551.358
        45.000          28.0004
 115630659.750 7  90101826.73046  22003785.641    22003785.657    22003789.250
        46.000          36.0004
 124725889.123 6  97188982.31943  23734538.955    23734540.195    23734542.232
        41.000          23.0004
 108665576.672 8  84674467.12247  20678359.777    20678359.904    20678360.607
        53.000          44.0004
 126273622.635 6  98395035.75043  24029067.285    24029068.080    24029069.539
        40.000          21.0004
 13  1  1  1 49  0.0000000  0  9G29G25G02G14G31G24G04G12G09
 113371665.056 8  88341556.31946  21573906.968    21573907.119    21573908.622
        50.000          40.0004
 110440341.867 8  86057403.77347  21016091.272    21016091.343    21016094.787
        51.000          42.0004
 114670758.372 8  89353840.82446  21821118.036    21821117.529    21821116.837
        49.000          39.0004
 120938178.897 7  94237531.63644  23013767.902    23013768.283    23013768.732
        45.000          28.0004
 132719785.327 6 103418014.26743  25255733.977    25255733.797    25255734.313
        40.000          22.0004
 115629551.290 7  90100962.99146  22003574.687    22003574.671    22003579.049
        47.000          37.0004
 124711254.369 7  97177578.60843  23731754.588    23731755.263    23731757.818
        43.000          23.0004
 108591560.166 8  84616791.91747  20664275.081    20664275.293    20664275.866
        52.000          45.0004
 126301822.814 6  98417009.91343  24034433.415    24034434.885    24034436.842
        41.000          22.0004
 13  1  1  1 49 30.0000000  0  9G29G25G02G14G31G24G04G12G09
 113213945.907 8  88218658.28946  21543894.270    21543894.380    21543895.622
        51.000          41.0004
 110307476.758 8  85953872.51947  20990807.624    20990807.634    20990811.447
        50.000          42.0004
 114578430.309 8  89281896.90446  21803548.829    21803548.334    21803547.086
        50.000          39.0004
 120876762.426 7  94189674.64544  23002080.593    23002080.609    23002081.095
        44.000          27.0004
 132527259.773 6 103267994.38943  25219097.148    25219098.364    25219098.273
        39.000          23.0004
 115628778.171 7  90100360.54846  22003426.951    22003427.711    22003431.739
        46.000          37.0004
 124697062.561 6  97166520.04844  23729052.992    23729055.059    23729056.690
        41.000          24.0004
 108517786.037 8  84559305.58447  20650236.286    20650236.586    20650237.071
        53.000          45.0004
 126330139.491 6  98439074.87343  24039822.542    24039822.722    24039824.462
        40.000          22.0004
 13  1  1  1 50  0.0000000  0  9G29G25G02G14G31G24G04G12G09
 113056577.151 8  88096033.30146  21513948.015    21513947.909    21513949.258
        50.000          40.0004
 110174812.110 8  85850497.46947  20965562.526    20965562.431    20965566.237
        50.000          42.0004
 114486631.870 8  89210365.66246  21786079.980    21786079.771    21786079.427
        52.000          40.0004
 120815845.620 7  94142206.99344  22990487.811    22990488.088    22990488.925
        43.000          27.0004
 132334798.492 6 103118024.57144  25182473.304    25182474.109    25182473.867
        39.000          24.0004
 115628339.049 7  90100018.36446  22003343.786    22003343.786    22003348.205
        47.000          36.0004
 124683311.620 7  97155805.01044  23726437.764    23726438.708    23726439.766
        43.000          24.0004
 108444254.821 8  84502008.53147  20636243.658    20636243.834    20636244.452
        52.000          44.0004
 126358570.583 6  98461228.94843  24045232.073    24045232.881    24045235.480
        40.000          21.0004
 13  1  1  1 50 30.0000000  0  9G29G25G02G14G31G24G04G12G09
 112899559.377 8  87973681.81446  21484068.653    21484068.896    21484069.642
        50.000          41.0004
 110042348.447 8  85747279.03247  20940355.498    20940355.779    20940359.204
        52.000          42.0004
 114395363.305 8  89139247.29746  21768712.072    21768712.162    21768711.527
        50.000          40.0004
 120755426.481 7  94095127.10744  22978991.196    22978990.860    22978992.190
        44.000          28.0004
 132142402.397 6 102968105.55844  25145860.044    25145861.331    25145862.316
        39.000          24.0004
 115628231.890 7  90099934.85746  22003323.815    22003323.911    22003327.580
        45.000          36.0004
 124669998.804 7  97145431.38144  23723904.086    23723905.493    23723906.546
        44.000          24.0004
 108370966.841 8  84444901.01647  20622297.340    20622297.470    20622298.336
        52.000          44.0004
 126387113.744 6  98483470.37543  24050663.597    24050664.454    24050666.393
        41.000          21.0004
 13  1  1  1 51  0.0000000  0  9G29G25G02G14G31G24G04G12G09
 112742892.181 8  87851603.50246  21454255.623    21454256.303    21454256.632
        51.000          41.0004
 109910085.591 8  85644217.07147  20915187.010    20915187.214    20915190.492
        51.000          43.0004
 114304623.524 8  89068540.98346  21751444.905    21751445.098    21751443.424
        52.000          39.0004
 120695502.169 7  94048432.82244  22967587.565    22967588.583    22967589.031
        44.000          28.0004
 131950073.087 6 102818238.56544  25109262.376    25109262.543    25109263.782
        40.000          24.0004
 115628453.332 7  90100107.40546  22003365.115    22003366.197    22003369.550
        47.000          36.0004
 124657120.572 7  97135396.38743  23721453.218    23721454.810    23721454.985
        43.000          23.0004
 108297921.323 8  84387982.41847  20608397.416    20608397.535    20608398.284
        53.000          45.0004
 126415765.736 6  98505796.59243  24056115.637    24056116.591    24056118.985
        40.000          22.0004
 13  1  1  1 51 30.0000000  0  9G29G25G02G14G31G24G04G12G09
 112586575.602 8  87729798.38546  21424509.443    21424510.223    21424510.782
        52.000          41.0004
 109778024.165 8  85541312.06647  20890056.336    20890056.272    20890060.173
        50.000          42.0004
 114214412.686 8  88998246.84446  21734278.162    21734278.282    21734277.363
        51.000          39.0004
 120636070.665 7  94002122.55144  22956278.596    22956278.560    22956279.513
        44.000          28.0004
 131757812.588 6 102668425.20743  25072676.112    25072677.034    25072677.040
        40.000          23.0004
 115629001.411 8  90100534.47246  22003469.691    22003470.626    22003474.220
        48.000          36.0004
 124644674.582 6  97125698.20043  23719085.127    23719086.453    23719086.996
        41.000          22.0004
 108225117.987 8  84331252.54247  20594543.306    20594543.397    20594544.260
        51.000          44.0004
 126444523.951 6  98528205.57743  24061588.069    24061588.669    24061591.764
        40.000          21.0004
 13  1  1  1 52  0.0000000  0  9G29G25G02G14G31G24G04G12G09
 112430611.878 8  87608268.21846  21394830.489    21394830.926    21394831.786
        51.000          41.0004
 109646166.106 8  85438565.52747  20864964.335    20864964.056    20864968.366
        51.000          42.0004
 114124732.233 8  88928365.97646  21717212.553    21717212.484    21717212.528
        49.000          40.0004
 120577131.303 7  93956195.76244  22945062.608    22945062.112    22945063.984
        43.000          27.0004
 131565624.149 6 102518667.98843  25036104.565    25036104.475    25036104.225
        39.000          23.0004
 115629875.012 7  90101215.18946  22003635.280    22003636.802    22003640.518
        47.000          36.0004
 124632658.950 7  97116335.34843  23716798.331    23716799.914    23716800.170
        42.000          22.0004
 108152558.347 8  84274712.55947  20580735.736    20580735.874    20580736.417
        53.000          44.0004
 126473387.414 6  98550696.59443  24067080.942    24067081.583    24067084.375
        40.000          21.0004
 13  1  1  1 52 30.0000000  0  9G29G25G02G14G31G24G04G12G09
 112275001.496 8  87487013.38746  21365219.069    21365219.538    21365220.137
        50.000          41.0004
 109514512.376 8  85335978.21147  20839911.747    20839911.232    20839915.452
        52.000          42.0004
 114035582.141 8  88858898.36846  21700248.136    21700247.712    21700247.779
        50.000          40.0004
 120518682.323 7  93910651.09544  22933939.560    22933940.076    22933941.435
        43.000          27.0004
 131373509.975 6 102368968.63743  24999545.517    24999545.892    24999546.008
        41.000          23.0004
 115631072.071 8  90102147.95446  22003864.316    22003864.375    22003868.195
        48.000          36.0004
 124621071.833 7  97107306.42943  23714593.922    23714595.459    23714595.100
        42.000          22.0004
 108080243.335 8  84218363.19947  20566974.391    20566974.826    20566975.157
        53.000          44.0004
 126502353.816 6  98573267.81943  24072592.777    24072594.390    24072595.989
        40.000          21.0004
 13  1  1  1 53  0.0000000  0  9G29G25G02G14G31G24G04G12G09
 112119743.610 8  87366033.22146  21335674.410    21335674.522    21335675.541
        50.000          41.0004
 109383062.228 8  85233549.52447  20814897.634    20814897.556    20814901.177
        50.000          42.0004
 113946961.174 8  88789843.07546  21683383.932    21683383.588    21683383.416
        50.000          39.0004
 120460720.194 7  93865485.77444  22922910.110    22922910.349    22922912.340
        43.000          27.0004
 131181470.680 6 102219327.61043  24963002.935    24963001.950    24963002.633
        40.000          23.0004
 115632589.536 7  90103330.38746  22004153.420    22004153.406    22004156.990
        47.000          36.0004
 124609908.871 6  97098608.00043  23712469.054    23712470.609    23712470.988
        41.000          22.0004
 108008171.578 8  84162203.39247  20553259.800    20553259.991    20553260.529
        52.000          45.0004
 126531419.490 6  98595916.36743  24078123.881    24078125.066    24078126.861
        39.000          20.0004
 13  1  1  1 53 30.0000000  0  9G29G25G02G14G31G24G04G12G09
 113540263.291 8  88472931.67946  21605990.374    21605990.458    21605991.762
        50.000          41.0004
 110827240.423 8  86358883.18447  21089715.314    21089715.641    21089719.009
        52.000          43.0004
 115434291.877 8  89948802.07046  21966413.285    21966413.016    21966413.144
        49.000          38.0004
 121978664.666 7  95048299.63944  23211765.353    23211764.788    23211767.441
        42.000          26.0004
 132564934.571 6 103297351.41544  25226266.377    25226266.912    25226267.269
        40.000          24.0004
 117209844.356 7  91332360.11146  22304294.328    22304295.213    22304298.307
        47.000          37.0004
 126174587.588 6  98317838.14943  24010217.819    24010219.223    24010219.966
        41.000          23.0004
 109511764.752 8  85333834.43147  20839384.103    20839384.415    20839384.927
        52.000          45.0004
 128136000.622 6  99846239.30443  24383466.952    24383465.645    24383469.237
        39.000          21.0004
 13  1  1  1 54  0.0000000  0  9G29G25G02G14G31G24G04G12G09
 113385712.840 8  88352502.77046  21576579.995    21576580.681    21576581.818
        51.000          41.0004
 110696201.229 8  86256774.71847  21064779.732    21064779.576    21064783.112
        50.000          42.0004
 115346730.785 8  89880572.65846  21949751.300    21949750.966    21949750.540
        51.000          39.0004
 121921671.976 6  95003889.75144  23200920.268    23200919.387    23200921.567
        41.000          26.0004
 132373052.922 6 103147833.22544  25189752.810    25189752.406    25189753.671
        41.000          24.0004
 117211996.900 7  91334037.42346  22304703.185    22304704.696    22304708.450
        47.000          36.0004
 126164266.799 6  98309795.97543  24008253.985    24008255.226    24008256.282
        40.000          23.0004
 109440181.089 8  85278054.94947  20825762.299    20825762.828    20825763.124
        52.000          45.0004
 128165259.065 6  99869038.08543  24389033.273    24389033.061    24389036.646
        37.000          19.0004
 13  1  1  1 54 30.0000000  0  9G29G25G02G14G31G24G04G12G09
 113231517.537 8  88232350.59647  21547237.857    21547237.940    21547239.056
        52.000          42.0004
 110565369.227 8  86154827.70447  21039883.155    21039882.853    21039886.719
        51.000          43.0004
 115259699.996 8  89812756.46846  21933189.835    21933189.867    21933188.875
        49.000          39.0004
 121865161.358 6  94959855.47344  23190165.723    23190165.375    23190167.378
        41.000          25.0004
 132181253.815 6 102998379.35743  25153254.182    25153254.351    25153255.562
        40.000          23.0004
 117214464.351 7  91335960.09746  22305173.728    22305173.865    22305177.505
        46.000          36.0004
 126154363.802 6  98302079.35843  24006368.987    24006369.594    24006371.543
        41.000          22.0004
 109368842.061 8  85222466.09647  20812186.833    20812187.218    20812187.736
        52.000          44.0004
 128194610.783 6  99891909.53043  24394619.065    24394618.295    24394622.650
        38.000          19.0004
 13  1  1  1 55  0.0000000  0  9G29G25G02G14G31G24G04G12G09
 113077676.533 8  88112474.48946  21517962.884    21517963.112    21517964.066
        50.000          41.0004
 110434743.910 8  86053041.74347  21015025.758    21015025.744    21015029.781
        51.000          43.0004
 115173198.509 8  89745352.71546  21916729.177    21916729.320    21916728.315
        50.000          39.0004
 121809129.937 7  94916194.60244  23179503.849    23179503.868    23179505.542
        42.000          26.0004
 131989538.137 6 102848990.49243  25116772.856    25116772.685    25116773.235
        40.000          22.0004
 117217243.395 7  91338125.57346  22305702.554    22305702.620    22305706.394
        45.000          36.0004
 126144874.748 6  98294685.25543  24004563.829    24004564.179    24004565.357
        40.000          21.0004
 109297747.226 8  85167067.51847  20798658.444    20798658.028    20798658.762
        52.000          44.0004
 128224052.189 6  99914850.88043  24400221.718    24400220.590    24400224.421
        38.000          19.0004
 13  1  1  1 55 30.0000000  0  9G29G25G02G14G31G24G04G12G09
 112924192.517 8  87992876.55846  21488756.167    21488755.881    21488757.143
        51.000          41.0004
 110304328.542 8  85951419.37947  20990208.677    20990208.520    20990212.531
        51.000          43.0004
 115087228.573 8  89678363.16846  21900369.704    21900369.554    21900368.628
        50.000          39.0004
 121753578.007 6  94872907.37944  23168931.978    23168932.813    23168934.416
        41.000          26.0004
 131797910.651 7 102699670.33843  25080307.238    25080306.518    25080307.458
        42.000          23.0004
 117220334.428 7  91340534.17546  22306290.584    22306291.006    22306294.737
        47.000          36.0004
 126135799.227 6  98287613.42443  24002836.452    24002837.165    24002838.654
        40.000          21.0004
 109226899.145 8  85111861.22547  20785176.452    20785176.269    20785176.878
        52.000          45.0004
 128253583.333 6  99937862.14043  24405841.176    24405840.308    24405843.996
        38.000          18.0004
 13  1  1  1 56  0.0000000  0  9G29G25G02G14G31G24G04G12G09
 112771064.799 8  87873556.27146  21459616.773    21459616.538    21459618.132
        51.000          41.0004
 110174122.638 8  85849960.23347  20965431.008    20965431.150    20965435.180
        51.000          43.0004
 115001788.824 8  89611786.74346  21884111.072    21884110.892    21884110.103
        51.000          39.0004
 121698502.134 7  94829991.09144  23158451.927    23158451.969    23158452.876
        42.000          26.0004
 131606372.396 7 102550419.74444  25043858.922    25043859.084    25043859.420
        42.000          24.0004
 117223733.477 7  91343182.77546  22306936.529    22306938.144    22306941.578
        46.000          36.0004
 126127133.693 6  98280861.05043  24001187.559    24001187.581    24001189.324
        41.000          21.0004
 109156296.121 8  85056845.87847  20771740.990    20771741.052    20771741.574
        52.000          45.0004
 128283200.742 6  99960940.67643  24411477.229    24411477.031    24411480.532
        38.000          19.0004
 13  1  1  1 56 30.0000000  0  9G29G25G02G14G31G24G04G12G09
 112618295.420 8  87754515.21447  21430545.768    21430545.679    21430547.041
        50.000          42.0004
 110044128.413 8  85748666.04247  20940694.334    20940694.315    20940698.085
        53.000          42.0004
 114916880.647 8  89545624.52646  21867953.486    21867953.445    21867952.607
        50.000          39.0004
 121643901.500 6  94787445.14244  23148061.968    23148062.079    23148063.063
        41.000          25.0004
 131414926.292 6 102401240.96044  25007428.196    25007427.676    25007429.311
        41.000          24.0004
 117227440.619 7  91346071.44845  22307642.516    22307643.277    22307647.194
        45.000          35.0004
 126118876.719 6  98274427.03543  23999616.602    23999616.580    23999616.984
        41.000          21.0004
 109085940.993 8  85002023.69547  20758352.469    20758352.910    20758353.397
        53.000          44.0004
 128312903.474 6  99984085.66343  24417129.529    24417128.666    24417131.691
        36.000          18.0004
 13  1  1  1 57  0.0000000  0  9G29G25G02G14G31G24G04G12G09
 112465881.643 8  87635751.23646  21401542.189    21401542.055    21401543.531
        52.000          41.0004
 109914343.679 8  85647535.08247  20915997.100    20915997.188    20916000.669
        52.000          42.0004
 114832500.996 8  89479874.15246  21851896.641    21851896.660    21851896.058
        51.000          39.0004
 121589771.371 6  94745265.81044  23137761.891    23137761.553    23137762.693
        41.000          26.0004
 131223571.891 7 102252133.64844  24971013.259    24971014.344    24971014.415
        42.000          24.0004
 117231450.054 7  91349195.66245  22308405.600    22308406.763    22308409.989
        45.000          35.0004
 126111022.626 7  98268306.93543  23998122.184    23998122.767    23998123.123
        42.000          22.0004
 109015830.281 8  84947391.96747  20745010.931    20745011.284    20745011.665
        51.000          45.0004
 128342685.959 6 100007292.79443  24422797.459    24422796.389    24422799.569
        37.000          19.0004
 13  1  1  1 57 30.0000000  0  9G29G25G02G14G31G24G04G12G09
 112313825.071 8  87517265.61346  21372606.521    21372606.690    21372608.137
        49.000          41.0004
 109784770.329 8  85546568.83647  20891340.274    20891340.069    20891343.592
        51.000          43.0004
 114748650.919 8  89414536.43546  21835940.508    21835940.740    21835939.975
        52.000          39.0004
 121536110.623 7  94703452.22944  23127550.352    23127549.831    23127551.984
        42.000          26.0004
 131032312.257 6 102103100.18944  24934618.799    24934619.225    24934619.387
        41.000          24.0004
 117235760.843 7  91352554.72145  22309225.950    22309226.743    22309230.060
        45.000          35.0004
 126103570.054 6  98262499.72043  23996704.136    23996704.862    23996705.409
        41.000          21.0004
 108945964.951 8  84892951.44747  20731716.060    20731716.249    20731717.033
        51.000          45.0004
 128372547.064 6 100030561.21943  24428479.978    24428478.361    24428482.724
        37.000          21.0004
 13  1  1  1 58  0.0000000  0  9G29G25G02G14G31G24G04G12G09
 112162126.213 8  87399058.72546  21343739.665    21343739.665    21343740.438
        52.000          41.0004
 109655409.305 8  85445768.04447  20866723.568    20866723.548    20866727.255
        51.000          43.0004
 114665330.210 8  89349611.21446  21820084.984    21820085.101    21820084.530
        51.000          40.0004
 121482916.996 6  94662002.64044  23117427.171    23117426.937    23117430.532
        41.000          26.0004
 130841150.080 6 101954142.64344  24898241.805    24898242.251    24898242.322
        41.000          25.0004
 117240370.996 7  91356147.03345  22310103.378    22310104.419    22310107.326
        44.000          35.0004
 126096516.256 6  98257003.25643  23995361.338    23995361.802    23995363.686
        41.000          21.0004
 108876346.204 8  84838703.07247  20718468.032    20718468.374    20718469.087
        53.000          46.0004
 128402484.664 6 100053889.20443  24434177.333    24434175.751    24434179.556
        37.000          21.0004
 13  1  1  1 58 30.0000000  0  9G29G25G02G14G31G24G04G12G09
 112010786.735 8  87281131.87046  21314940.586    21314940.465    21314941.320
        49.000          41.0004
 109526262.788 8  85345134.39547  20842147.647    20842147.429    20842151.549
        50.000          42.0004
 114582540.144 8  89285099.48046  21804330.807    21804330.266    21804329.955
        51.000          40.0004
 121430189.811 6  94620916.49844  23107393.596    23107393.575    23107395.323
        40.000          26.0004
 130650088.503 6 101805263.50944  24861884.026    24861884.627    24861884.528
        39.000          24.0004
 117245279.599 7  91359971.91845  22311037.751    22311038.324    22311041.207
        45.000          35.0004
 126089859.963 6  98251816.56543  23994094.576    23994095.047    23994096.313
        41.000          20.0004
 108806975.148 8  84784647.69547  20705267.260    20705267.671    20705268.216
        52.000          45.0004
 128432497.605 6 100077275.90243  24439887.742    24439888.054    24439891.067
        37.000          20.0004
 13  1  1  1 59  0.0000000  0  9G29G25G02G14G31G24G04G12G09
 111859806.404 8  87163484.87046  21286210.002    21286209.946    21286210.764
        51.000          40.0004
 109397331.155 8  85244668.19447  20817612.666    20817612.536    20817616.590
        50.000          43.0004
 114500280.129 8  89221000.78346  21788677.198    21788676.828    21788676.338
        50.000          40.0004
 121377926.450 6  94580191.78244  23097448.751    23097447.839    23097449.419
        40.000          25.0004
 130459129.475 6 101656464.29844  24825544.612    24825545.667    24825546.066
        41.000          24.0004
 117250483.895 7  91364027.20445  22312027.810    22312028.321    22312031.903
        45.000          35.0004
 126083598.324 6  98246937.34943  23992902.970    23992903.432    23992904.460
        41.000          20.0004
 108737851.805 8  84730785.33947  20692113.015    20692113.579    20692114.228
        52.000          45.0004
 128462583.088 6 100100719.15443  24445612.649    24445612.840    24445615.277
        37.000          21.0004
 13  1  1  1 59 30.0000000  0  9G29G25G02G14G31G24G04G12G09
 111709186.052 8  87046118.38047  21257547.457    21257548.100    21257548.690
        50.000          42.0004
 109268615.627 8  85144370.37947  20793119.249    20793119.189    20793122.818
        52.000          43.0004
 114418549.982 8  89157314.96146  21773124.049    21773123.792    21773123.519
        50.000          39.0004
 121326125.206 6  94539827.14844  23087591.477    23087590.748    23087591.806
        41.000          24.0004
 130268275.557 6 101507746.97843  24789226.951    24789227.414    24789227.489
        40.000          23.0004
 117255982.129 7  91368311.55345  22313073.803    22313074.546    22313078.457
        44.000          35.0004
 126077728.704 6  98242363.62243  23991785.200    23991786.938    23991787.972
        41.000          21.0004
 108668976.931 8  84677116.60347  20679007.089    20679007.092    20679007.657
        52.000          44.0004
 128492739.381 6 100124217.54043  24451351.989    24451351.208    24451354.334
        40.000          21.0004
 13  1  1  2  0  0.0000000  0  9G29G25G02G14G31G24G04G12G09
 111558926.537 8  86929033.04846  21228954.432    21228954.709    21228955.364
        52.000          41.0004
 109140117.324 8  85044241.83547  20768666.731    20768666.952    20768670.514
        52.000          43.0004
 114337350.278 8  89094042.47846  21757672.374    21757671.722    21757671.804
        50.000          39.0004
 121274784.150 6  94499821.08544  23077822.002    23077821.213    23077822.915
        41.000          25.0004
 130077529.524 6 101359113.71744  24752929.227    24752929.836    24752929.855
        40.000          24.0004
 117261772.253 7  91372823.32345  22314176.038    22314176.401    22314180.125
        46.000          34.0004
 126072248.982 6  98238093.70643  23990742.950    23990743.571    23990745.124
        40.000          21.0004
 108600350.510 8  84623641.46147  20665947.745    20665948.270    20665948.541
        53.000          44.0004
 128522964.093 6 100147769.24043  24457103.971    24457102.629    24457105.912
        39.000          21.0004
 13  1  1  2  0 30.0000000  0  9G29G25G02G14G31G24G04G12G09
 111409026.658 8  86812227.94446  21200429.120    21200429.522    21200430.663
        50.000          41.0004
 109011835.729 8  84944282.15047  20744255.436    20744255.545    20744259.324
        52.000          43.0004
 114256679.362 8  89031182.03246  21742321.020    21742321.486    21742320.926
        52.000          39.0004
 121223899.609 7  94460170.77644  23068138.973    23068139.088    23068139.978
        43.000          26.0004
 129886891.701 6 101210564.78443  24716652.582    24716653.003    24716652.429
        39.000          23.0004
 117267850.902 7  91377559.92445  22315332.727    22315333.539    22315336.729
        45.000          34.0004
 126067154.971 6  98234124.33543  23989773.853    23989773.712    23989776.287
        40.000          21.0004
 108531971.684 8  84570359.26047  20652935.714    20652935.929    20652936.542
        53.000          44.0004
 128553253.480 6 100171371.32043  24462866.872    24462867.204    24462869.823
        40.000          21.0004
 13  1  1  2  1  0.0000000  0  9G29G25G02G14G31G24G04G12G09
 111259486.997 8  86695703.53447  21171972.655    21171973.119    21171974.476
        51.000          42.0004
 108883771.907 8  84844492.16047  20719885.867    20719885.471    20719889.617
        52.000          43.0004
 114176537.027 8  88968733.47246  21727070.817    21727070.805    21727070.547
        50.000          39.0004
 121173469.695 7  94420874.72044  23058542.552    23058542.294    23058544.210
        43.000          27.0004
 129696364.742 6 101062102.23243  24680396.211    24680396.517    24680396.474
        39.000          23.0004
 117274216.041 7  91382519.75245  22316544.411    22316545.147    22316548.090
        46.000          35.0004
 126062444.212 6  98230453.63343  23988876.806    23988876.835    23988879.398
        39.000          20.0004
 108463841.118 8  84517270.50347  20639970.705    20639971.120    20639971.634
        52.000          44.0004
 128583605.611 6 100195022.31843  24468642.895    24468642.937    24468645.592
        38.000          20.0004
 13  1  1  2  1 30.0000000  0  9G29G25G02G14G31G24G04G12G09
 111110308.535 8  86579460.58246  21143585.039    21143585.283    21143586.497
        52.000          41.0004
 108755927.380 8  84744873.05147  20695557.669    20695557.617    20695561.682
        52.000          43.0004
 114096923.559 8  88906697.01246  21711920.883    21711920.841    21711920.554
        52.000          40.0004
 121123492.820 7  94381931.68644  23049031.653    23049031.651    23049033.533
        43.000          27.0004
 129505951.637 6 100913728.38443  24644162.127    24644161.746    24644162.328
        38.000          22.0004
 117280865.859 7  91387701.43045  22317809.308    22317811.038    22317813.435
        47.000          34.0004
 126058114.605 6  98227079.90443  23988052.792    23988052.997    23988055.937
        40.000          20.0004
 108395959.560 8  84464375.78447  20627053.662    20627053.926    20627054.315
        52.000          44.0004
 128614018.736 6 100218720.82643  24474429.725    24474429.844    24474432.385
        39.000          20.0004
 13  1  1  2  2  0.0000000  0  9G29G25G02G14G31G24G04G12G09
 110961489.916 8  86463498.01746  21115265.934    21115266.133    21115267.070
        51.000          41.0004
 108628301.366 8  84645424.21747  20671271.191    20671271.388    20671275.286
        51.000          43.0004
 114017837.074 8  88845071.17746  21696870.845    21696871.127    21696870.867
        51.000          40.0004
 121073965.135 7  94343338.68344  23039606.443    23039606.094    23039608.521
        42.000          26.0004
 129315653.136 6 100765443.85543  24607948.936    24607949.234    24607949.651
        38.000          23.0004
 117287796.707 7  91393102.09045  22319127.163    22319129.048    22319132.536
        46.000          34.0004
 126054161.981 6  98223999.94643  23987301.122    23987301.672    23987304.646
        40.000          21.0004
 108328325.725 8  84411674.09647  20614183.207    20614183.551    20614184.133
        52.000          43.0004
 128644489.140 6 100242463.99143  24480229.096    24480228.687    24480230.838
        40.000          20.0004
 13  1  1  2  2 30.0000000  0  9G29G25G02G14G31G24G04G12G09
 112388457.279 8  87575420.64346  21386808.675    21386808.811    21386809.989
        52.000          41.0004
 110076320.043 8  85773750.45447  20946820.171    20946820.093    20946824.100
        53.000          43.0004
 115514701.171 8  90011458.79046  21981714.774    21981714.070    21981714.558
        48.000          40.0004
 122600306.863 7  95532695.87144  23330059.588    23330059.659    23330062.162
        43.000          26.0004
 130700898.489 6 101844855.80743  24871552.398    24871552.573    24871553.592
        37.000          21.0004
 118870426.990 7  92626320.48245  22620292.181    22620292.571    22620297.009
        44.000          33.0004
 127626004.620 6  99448812.39243  24286413.104    24286412.874    24286416.198
        40.000          20.0004
 109836363.260 8  85586768.26447  20901152.865    20901153.244    20901153.993
        53.000          43.0004
 130250434.499 6 101493849.98743  24785830.736    24785830.272    24785832.374
        40.000          21.0004
 13  1  1  2  3  0.0000000  0  9G29G25G02G14G31G24G04G12G09
 112240362.742 8  87460022.31046  21358627.359    21358627.358    21358628.648
        51.000          41.0004
 109949137.105 8  85674646.86047  20922618.039    20922617.936    20922622.085
        51.000          43.0004
 115436671.472 8  89950656.42746  21966866.537    21966866.465    21966866.175
        50.000          40.0004
 122551674.068 7  95494800.17344  23320806.037    23320806.186    23320807.674
        42.000          27.0004
 130510838.726 5 101696757.30443  24835386.143    24835384.809    24835386.181
        35.000          20.0004
 118877916.185 7  92632156.20845  22621717.643    22621718.219    22621722.213
        45.000          33.0004
 127622800.943 6  99446316.01743  24285802.949    24285803.157    24285807.064
        41.000          20.0004
 109769229.272 8  85534456.06347  20888377.914    20888377.832    20888378.562
        52.000          44.0004
 130281015.616 6 101517679.45843  24791649.283    24791649.276    24791651.558
        39.000          20.0004
 13  1  1  2  3 30.0000000  0  9G29G25G02G14G31G24G04G12G09
 112092631.069 8  87344906.72947  21330514.834    21330514.967    21330516.134
        51.000          42.0004
 109822177.090 8  85575716.98047  20898458.366    20898458.275    20898462.415
        51.000          44.0004
 115359169.300 8  89890265.12746  21952118.497    21952118.665    21952117.669
        50.000          40.0004
 122503485.207 7  95457250.39544  23311635.372    23311635.038    23311638.212
        42.000          26.0004
 130320902.098 5 101548754.74943  24799242.172    24799241.146    24799241.890
        34.000          18.0004
 118885681.518 7  92638207.09445  22623195.450    22623195.804    22623199.926
        45.000          33.0004
 127619967.808 6  99444108.37843  24285263.921    24285263.906    24285267.680
        39.000          19.0004
 109702345.574 8  85482338.89547  20875650.792    20875650.639    20875651.049
        51.000          43.0004
 130311648.695 6 101541549.38143  24797479.119    24797478.972    24797481.206
        37.000          20.0004
 13  1  1  2  4  0.0000000  0  9G29G25G02G14G31G24G04G12G09
 111945263.160 8  87230074.58546  21302471.790    21302471.748    21302472.859
        51.000          41.0004
 109695441.817 8  85476962.22347  20874341.114    20874341.355    20874345.469
        53.000          43.0004
 115282195.539 8  89830285.58346  21937470.198    21937469.898    21937469.591
        50.000          39.0004
 122455738.922 7  95420045.47844  23302549.863    23302550.559    23302551.781
        42.000          26.0004
 130131091.444 6 101400850.40443  24763121.752    24763122.163    24763121.990
        36.000          18.0004
 118893721.599 7  92644472.08945  22624725.649    22624725.877    22624730.335
        46.000          33.0004
 127617503.383 6  99442188.05243  24284794.701    24284794.219    24284799.833
        38.000          19.0004
 109635713.062 9  85430417.45747  20862970.569    20862971.061    20862971.516
        54.000          44.0004
 130342332.064 6 101565458.53143  24803317.878    24803316.019    24803319.395
        36.000          19.0004
 13  1  1  2  4 30.0000000  0  9G29G25G02G14G31G24G04G12G09
 111798257.886 8  87115525.02547  21274497.607    21274497.592    21274499.067
        51.000          42.0004
 109568930.668 8  85378382.10847  20850266.912    20850266.901    20850271.122
        51.000          43.0004
 115205748.345 8  89770716.34946  21922923.083    21922922.494    21922922.285
        51.000          39.0004
 122408431.293 7  95383182.38844  23293547.401    23293547.666    23293548.847
        42.000          26.0004
 129941407.813 6 101253045.00243  24727026.226    24727027.359    24727026.954
        36.000          19.0004
 118902032.500 7  92650948.11645  22626307.460    22626307.497    22626311.563
        44.000          33.0004
 127615403.556 6  99440551.81843  24284395.627    24284394.703    24284398.441
        37.000          19.0004
 109569330.888 8  85378691.08847  20850338.486    20850338.900    20850339.348
        53.000          44.0004
 130373062.086 6 101589404.00143  24809165.427    24809164.574    24809167.764
        36.000          19.0004
 13  1  1  2  5  0.0000000  0  9G29G25G02G14G31G24G04G12G09
 111651614.894 8  87001257.77247  21246592.540    21246592.510    21246593.856
        51.000          42.0004
 109442644.550 8  85279977.34247  20826235.628    20826235.544    20826239.563
        51.000          44.0004
 115129827.156 8  89711556.99746  21908476.153    21908476.490    21908475.141
        51.000          40.0004
 122361560.349 7  95346659.54244  23284628.308    23284628.485    23284629.165
        42.000          26.0004
 129751853.500 6 101105340.34943  24690955.580    24690955.753    24690956.273
        37.000          21.0004
 118910612.121 7  92657633.52145  22627939.728    22627940.077    22627944.114
        44.000          32.0004
 127613665.297 6  99439197.30243  24284065.000    24284064.334    24284068.387
        39.000          19.0004
 109503199.432 8  85327160.07047  20837754.226    20837754.337    20837754.982
        53.000          44.0004
 130403836.336 6 101613383.90343  24815021.978    24815020.326    24815023.488
        36.000          19.0004
 13  1  1  2  5 30.0000000  0  9G29G25G02G14G31G24G04G12G09
 111505335.987 8  86887274.21347  21218756.197    21218756.494    21218757.757
        51.000          42.0004
 109316585.368 8  85181749.41347  20802247.308    20802247.513    20802251.220
        53.000          43.0004
 115054432.556 8  89652807.97046  21894128.364    21894128.648    21894128.315
        51.000          39.0004
 122315124.271 7  95310475.55144  23275791.902    23275792.223    23275792.611
        43.000          25.0004
 129562431.888 6 100957739.10543  24654909.249    24654908.948    24654910.749
        38.000          22.0004
 118919458.749 7  92664526.99045  22629622.971    22629623.405    22629627.728
        44.000          32.0004
 127612287.164 6  99438123.43843  24283802.529    24283801.969    24283806.787
        39.000          20.0004
 109437319.817 8  85275825.30647  20825218.081    20825218.100    20825218.526
        53.000          44.0004
 130434653.497 6 101637397.28543  24820884.326    24820885.219    24820889.088
        38.000          18.0004
 13  1  1  2  6  0.0000000  0  9G29G25G02G14G31G24G04G12G09
 111359421.461 8  86773574.59247  21190989.698    21190989.755    21190990.802
        50.000          43.0004
 109190753.663 8  85083698.73347  20778302.436    20778302.404    20778306.315
        51.000          44.0004
 114979563.674 8  89594468.59346  21879881.269    21879880.798    21879881.482
        49.000          39.0004
 122269120.473 7  95274628.43244  23267037.134    23267037.171    23267039.182
        42.000          25.0004
 129373144.630 6 100810242.56243  24618888.335    24618888.939    24618890.085
        39.000          23.0004
 118928570.207 7  92671626.82045  22631357.306    22631357.397    22631362.176
        43.000          32.0004
 127611265.915 6  99437327.63443  24283608.190    24283608.738    24283612.136
        38.000          20.0004
 109371691.731 8  85224686.53547  20812729.045    20812729.398    20812730.023
        52.000          45.0004
 130465511.099 6 101661442.13243  24826757.734    24826757.627    24826760.146
        38.000          18.0004
 13  1  1  2  6 30.0000000  0  9G29G25G02G14G31G24G04G12G09
 111213872.270 8  86660159.63547  21163292.749    21163292.830    21163293.574
        51.000          42.0004
 109065151.534 8  84985826.94547  20754401.179    20754401.046    20754405.020
        52.000          44.0004
 114905221.474 8  89536539.60646  21865735.083    21865734.691    21865734.512
        50.000          40.0004
 122223547.669 7  95239117.14244  23258365.455    23258365.349    23258367.038
        43.000          24.0004
 129183995.472 6 100662853.61443  24582895.290    24582895.329    24582896.705
        39.000          23.0004
 118937945.320 7  92678932.09345  22633140.662    22633141.189    22633145.238
        42.000          32.0004
 127610599.989 6  99436808.74643  24283482.909    24283482.192    24283484.561
        39.000          19.0004
 109306317.260 8  85173745.38147  20800288.721    20800288.995    20800289.573
        52.000          44.0004
 130496407.983 6 101685517.63043  24832637.432    24832637.461    24832639.598
        38.000          19.0004
 13  1  1  2  7  0.0000000  0  9G29G25G02G14G31G24G04G12G09
 111068688.354 8  86547029.31547  21135665.222    21135665.001    21135665.999
        51.000          42.0004
 108939779.656 8  84888134.56847  20730543.706    20730543.568    20730547.507
        53.000          44.0004
 114831405.011 8  89479020.28946  21851688.283    21851688.351    21851687.565
        51.000          40.0004
 122178403.363 6  95203939.74343  23249774.334    23249775.263    23249775.104
        41.000          23.0004
 128994986.102 6 100515573.62744  24546928.230    24546928.393    24546929.374
        39.000          25.0004
 118947581.207 7  92686440.59145  22634974.348    22634974.815    22634978.292
        44.000          31.0004
 127610286.311 6  99436564.33143  24283422.288    24283423.566    24283424.872
        38.000          19.0004
 109241195.563 8  85123001.19647  20787896.618    20787897.033    20787897.270
        53.000          44.0004
 130527341.440 6 101709621.64643  24838522.825    24838524.845    24838525.618
        39.000          19.0004
 13  1  1  2  7 30.0000000  0  9G29G25G02G14G31G24G04G12G09
 110923868.468 8  86434182.66047  21108106.769    21108106.974    21108107.816
        53.000          43.0004
 108814637.363 8  84790621.10147  20706729.872    20706729.843    20706733.596
        53.000          43.0004
 114758112.085 8  89421908.93146  21837740.567    21837740.516    21837740.100
        50.000          39.0004
 122133683.574 6  95169093.15943  23241264.380    23241264.349    23241266.569
        41.000          23.0004
 128806117.565 6 100368403.32343  24510987.867    24510987.557    24510988.752
        39.000          23.0004
 118957474.471 7  92694149.62245  22636857.432    22636857.394    22636861.287
        43.000          31.0004
 127610320.627 6  99436591.06443  24283429.198    24283429.932    24283431.591
        39.000          20.0004
 109176325.962 8  85072453.45347  20775552.285    20775552.608    20775553.036
        52.000          44.0004
 130558307.856 6 101733751.25543  24844416.778    24844418.224    24844419.083
        41.000          20.0004
 13  1  1  2  8  0.0000000  0  9G29G25G02G14G31G24G04G12G09
 110779414.301 8  86321620.98747  21080617.981    21080618.220    21080619.126
        51.000          42.0004
 108689727.031 8  84693288.37947  20682960.022    20682959.990    20682963.945
        51.000          43.0004
 114685343.936 8  89365206.47646  21823893.252    21823893.485    21823892.618
        51.000          39.0004
 122089387.276 6  95134576.53443  23232835.771    23232834.554    23232836.756
        40.000          22.0004
 128617393.699 6 100221345.75943  24475074.552    24475074.688    24475075.368
        40.000          23.0004
 118967623.717 7  92702058.10945  22638789.014    22638788.663    22638792.885
        44.000          32.0004
 127610701.688 6  99436887.99743  24283501.015    24283503.027    24283503.568
        40.000          19.0004
 109111710.118 8  85022103.44447  20763256.305    20763256.594    20763257.098
        52.000          44.0004
 130589306.078 6 101757905.72043  24850315.188    24850316.501    24850316.661
        40.000          20.0004
 13  1  1  2  8 30.0000000  0  9G29G25G02G14G31G24G04G12G09
 110635325.337 8  86209343.87547  21053198.907    21053198.784    21053200.066
        51.000          42.0004
 108565049.060 8  84596136.71247  20659234.737    20659234.565    20659238.844
        52.000          43.0004
 114613098.897 8  89308911.64746  21810145.688    21810145.865    21810144.723
        52.000          40.0004
 122045511.598 6  95100387.69343  23224485.276    23224484.496    23224487.061
        39.000          21.0004
 128428816.144 6 100074402.20443  24439189.819    24439189.849    24439190.094
        41.000          23.0004
 118978026.345 7  92710164.04045  22640768.557    22640768.509    22640772.431
        44.000          32.0004
 127611426.204 6  99437452.54943  24283639.296    24283641.043    24283641.509
        40.000          19.0004
 109047347.769 8  84971950.95947  20751008.771    20751008.787    20751009.668
        52.000          44.0004
 130620333.473 6 101782082.86643  24856219.487    24856220.911    24856222.619
        40.000          20.0004
 13  1  1  2  9  0.0000000  0  9G29G25G02G14G31G24G04G12G09
 110491602.214 8  86097351.84347  21025849.372    21025849.111    21025850.329
        51.000          42.0004
 108440604.680 8  84499167.07247  20635553.751    20635553.827    20635557.949
        53.000          43.0004
 114541377.233 8  89253024.64546  21796497.543    21796497.688    21796496.431
        51.000          39.0004
 122002054.208 6  95066524.77343  23216216.022    23216215.350    23216218.050
        40.000          21.0004
 128240387.533 6  99927574.76243  24403331.899    24403332.093    24403333.521
        39.000          23.0004
 118988680.425 7  92718465.92145  22642796.493    22642796.000    22642799.660
        45.000          32.0004
 127612491.708 6  99438282.81143  24283840.977    24283844.373    24283844.728
        40.000          19.0004
 108983239.257 8  84921996.26747  20738809.118    20738809.602    20738810.195
        52.000          44.0004
 130651388.046 6 101806281.20843  24862128.990    24862130.390    24862132.697
        39.000          20.0004
 13  1  1  2  9 30.0000000  0  9G29G25G02G14G31G24G04G12G09
 110348244.080 8  85985644.20947  20998569.035    20998568.906    20998570.193
        50.000          42.0004
 108316394.005 8  84402379.53347  20611917.208    20611917.307    20611921.120
        53.000          44.0004
 114470177.468 8  89197544.31246  21782948.602    21782948.315    21782947.784
        52.000          39.0004
 121959011.637 6  95032985.08043  23208025.436    23208024.796    23208027.630
        38.000          23.0004
 128052109.481 6  99780864.57244  24367504.908    24367504.344    24367504.861
        40.000          24.0004
 118999582.887 7  92726961.34645  22644870.493    22644871.156    22644874.197
        45.000          32.0004
 127613894.558 6  99439375.94443  24284109.422    24284111.408    24284109.637
        40.000          19.0004
 108919383.742 8  84872238.71747  20726658.143    20726658.364    20726658.445
        52.000          44.0004
 130682466.463 6 101830498.12843  24868042.534    24868045.117    24868046.141
        40.000          21.0004
 13  1  1  2 10  0.0000000  0  9G29G25G02G14G31G24G04G12G09
 110205251.320 8  85874221.28647  20971358.172    20971358.366    20971359.714
        51.000          42.0004
 108192418.219 8  84305775.02847  20588325.648    20588325.444    20588329.247
        53.000          44.0004
 114399498.757 8  89142469.99046  21769498.883    21769498.029    21769498.081
        51.000          39.0004
 121916381.907 6  94999767.10744  23199913.468    23199912.865    23199915.739
        40.000          24.0004
 127863984.865 7  99634273.94844  24331705.948    24331705.902    24331706.215
        42.000          25.0004
 119010731.323 7  92735648.43745  22646991.648    22646992.240    22646995.717
        44.000          32.0004
 127615632.092 6  99440729.86543  24284440.030    24284442.132    24284442.100
        39.000          19.0004
 108855782.830 8  84822679.56047  20714555.177    20714555.265    20714555.395
        53.000          43.0004
 130713566.866 6 101854732.19243  24873961.058    24873963.294    24873963.819
        39.000          21.0004
 13  1  1  2 10 30.0000000  0  9G29G25G02G14G31G24G04G12G09
 110062624.987 8  85763083.89247  20944217.650    20944217.610    20944218.820
        50.000          43.0004
 108068679.243 8  84209355.04947  20564778.752    20564778.714    20564782.492
        52.000          44.0004
 114329341.963 8  89087802.36946  21756148.626    21756147.938    21756147.949
        50.000          39.0004
 121874163.271 6  94966869.46844  23191880.237    23191879.554    23191881.379
        41.000          26.0004
 127676016.307 7  99487804.93344  24295937.129    24295937.606    24295936.430
        43.000          25.0004
 119022124.647 7  92744526.33645  22649159.108    22649160.711    22649164.525
        44.000          32.0004
 127617702.720 6  99442343.32943  24284833.241    24284835.562    24284836.081
        39.000          19.0004
 108792437.173 8  84773319.30947  20702500.950    20702500.877    20702501.393
        52.000          43.0004
 130744688.075 6 101878982.45044  24879883.233    24879886.052    24879886.103
        40.000          24.0004
 13  1  1  2 11  0.0000000  0  9G29G25G02G14G31G24G04G12G09
 111495789.861 8  86879835.74347  21216939.881    21216939.798    21216940.853
        52.000          43.0004
 109520601.688 8  85340723.18847  20841070.279    20841070.095    20841074.310
        53.000          44.0004
 115835128.354 8  90261142.41346  22042690.320    22042689.935    22042689.523
        50.000          39.0004
 123407774.074 6  96161890.86044  23483715.667    23483715.663    23483718.117
        39.000          25.0004
 129063632.300 7 100569064.14144  24559991.543    24559991.043    24559991.192
        42.000          24.0004
 120609179.709 7  93981192.58645  22951166.106    22951166.955    22951170.990
        44.000          32.0004
 129195523.155 6 100671813.78643  24585082.108    24585084.066    24585084.639
        39.000          19.0004
 110304768.490 8  85951759.28347  20990287.929    20990287.707    20990288.662
        51.000          44.0004
 132351246.003 6 103130845.79642  25185600.126    25185606.520    25185604.185
        36.000          15.0004
 13  1  1  2 11 30.0000000  0  9G29G25G02G14G31G24G04G12G09
 111353896.911 8  86769269.81647  21189938.224    21189938.302    21189939.517
        50.000          42.0004
 109397338.726 8  85244674.12847  20817614.081    20817613.916    20817618.083
        51.000          44.0004
 115766012.722 8  90207286.07446  22029537.857    22029537.437    22029537.510
        51.000          40.0004
 123366369.753 6  96129627.73244  23475836.756    23475835.991    23475838.368
        39.000          24.0004
 128875983.168 6 100422844.02644  24524282.936    24524283.222    24524283.179
        41.000          25.0004
 120621055.200 7  93990446.21845  22953426.258    22953426.571    22953430.653
        43.000          31.0004
 129198250.966 6 100673939.36343  24585601.134    24585603.037    24585603.226
        41.000          20.0004
 110241933.569 8  85902797.00747  20978330.653    20978330.700    20978331.731
        53.000          44.0004
 132382401.205 5 103155122.5214   25191528.570    25191537.261    25191531.758
        30.000           1.0004
 13  1  1  2 12  0.0000000  0  8G29G25G02G14G31G24G04G12
 111212367.948 8  86658987.51447  21163006.338    21163006.162    21163007.446
        51.000          42.0004
 109274312.510 8  85148809.54247  20794203.317    20794203.041    20794206.761
        51.000          44.0004
 115697413.773 8  90153832.34746  22016483.781    22016483.708    22016483.627
        51.000          40.0004
 123325366.094 6  96097676.80844  23468034.600    23468034.511    23468036.023
        41.000          24.0004
 128688494.542 7 100276749.00244  24488604.537    24488605.064    24488605.060
        42.000          25.0004
 120633165.455 7  93999882.78345  22955731.140    22955731.237    22955734.952
        43.000          31.0004
 129201300.434 6 100676315.55643  24586181.644    24586182.917    24586182.585
        40.000          19.0004
 110179351.665 8  85854031.88647  20966421.600    20966422.194    20966422.335
        52.000          44.0004
 13  1  1  2 12 30.0000000  0  8G29G25G02G14G31G24G04G12
 111071206.444 8  86548991.53747  21136143.980    21136143.971    21136145.220
        50.000          43.0004
 109151527.173 8  85053132.65547  20770837.887    20770838.028    20770841.593
        52.000          44.0004
 115629334.077 8  90100783.23946  22003528.665    22003528.794    22003528.313
        51.000          39.0004
 123284763.705 6  96066038.55044  23460308.223    23460308.487    23460310.341
        40.000          25.0004
 128501171.968 7 100130783.34644  24452958.779    24452959.411    24452958.653
        43.000          25.0004
 120645511.376 7  94009502.96945  22958080.037    22958080.386    22958084.826
        45.000          32.0004
 129204672.031 6 100678942.77143  24586823.257    24586824.832    24586823.749
        40.000          18.0004
 110117026.543 8  85805466.85547  20954561.867    20954562.571    20954562.327
        52.000          44.0004
 13  1  1  2 13  0.0000000  0  8G29G25G02G14G31G24G04G12
 110930413.302 8  86439282.59947  21109352.108    21109352.279    21109353.233
        50.000          43.0004
 109028984.624 8  84957644.96247  20747518.903    20747518.867    20747522.601
        52.000          44.0004
 115561773.771 8  90048138.85246  21990672.062    21990672.537    21990671.698
        51.000          39.0004
 123244560.924 6  96034711.67943  23452657.655    23452656.685    23452659.234
        38.000          23.0004
 128314018.921 7  99984949.80544  24417344.623    24417345.214    24417344.630
        42.000          25.0004
 120658091.515 7  94019305.65545  22960474.295    22960474.577    22960478.317
        43.000          32.0004
 129208363.847 6 100681819.54343  24587525.447    24587526.759    24587525.180
        40.000          18.0004
 110054959.344 8  85757102.79447  20942751.134    20942751.690    20942751.304
        51.000          44.0004
 13  1  1  2 13 30.0000000  0  8G29G25G02G14G31G24G04G12
 110789988.260 8  86329860.49147  21082630.140    21082630.198    21082630.832
        53.000          43.0004
 108906685.576 8  84862347.00747  20724246.140    20724245.928    20724249.844
        52.000          44.0004
 115494731.924 8  89995898.45846  21977914.559    21977914.346    21977913.638
        50.000          38.0004
 123204754.760 6  96003693.84543  23445083.151    23445082.178    23445083.877
        40.000          22.0004
 128127037.632 7  99839250.10944  24381763.345    24381763.939    24381763.446
        43.000          26.0004
 120670903.328 7  94029288.86545  22962912.864    22962912.520    22962916.273
        44.000          31.0004
 129212372.869 6 100684943.48043  24588287.981    24588288.345    24588288.703
        38.000          18.0004
 109993149.973 8  85708939.64347  20930988.901    20930988.940    20930989.586
        53.000          43.0004
 13  1  1  2 14  0.0000000  0  8G29G25G02G14G31G24G04G12
 110649930.825 9  86220724.83247  21055978.195    21055978.482    21055978.909
        54.000          43.0004
 108784630.471 8  84767239.12947  20701019.792    20701019.574    20701023.669
        52.000          44.0004
 115428207.124 8  89944060.95646  21965255.443    21965255.285    21965254.313
        51.000          38.0004
 123165342.371 6  95972982.89843  23437583.249    23437583.031    23437584.196
        41.000          23.0004
 127940229.764 7  99693685.53744  24346214.863    24346215.496    24346215.264
        43.000          26.0004
 120683943.815 7  94039450.29345  22965394.597    22965393.988    22965397.855
        43.000          31.0004
 129216695.679 6 100688311.92242  24589110.926    24589109.318    24589111.709
        36.000          17.0004
 109931598.004 8  85660977.06247  20919275.934    20919275.451    20919276.459
        52.000          43.0004
 13  1  1  2 14 30.0000000  0  8G29G25G02G14G31G24G04G12
 110510241.344 8  86111875.88847  21029396.590    21029396.109    21029397.165
        51.000          44.0004
 108662820.399 8  84672322.18747  20677840.059    20677839.916    20677844.000
        53.000          43.0004
 115362198.796 8  89892625.90446  21952694.706    21952694.533    21952693.401
        51.000          39.0004
 123126320.940 6  95942576.58443  23430158.007    23430156.668    23430159.470
        40.000          23.0004
 127753597.630 7  99548257.90844  24310699.594    24310700.997    24310700.042
        43.000          26.0004
 120697210.909 7  94049788.28545  22967918.902    22967918.692    22967922.749
        43.000          31.0004
 129221329.795 5 100691922.90842  24589991.984    24589990.824    24589994.124
        35.000          17.0004
 109870304.172 8  85613215.63047  20907611.864    20907612.045    20907612.599
        53.000          44.0004
 13  1  1  2 15  0.0000000  0  8G29G25G02G14G31G24G04G12
 110370919.924 8  86003313.75447  21002883.881    21002884.229    21002885.390
        51.000          43.0004
 108541256.735 9  84577597.25047  20654707.242    20654707.093    20654710.995
        54.000          44.0004
 115296706.385 8  89841592.85546  21940231.850    21940231.944    21940231.005
        52.000          39.0004
 123087688.285 7  95912473.19144  23422806.653    23422806.660    23422807.906
        42.000          25.0004
 127567144.178 7  99402969.52244  24275218.851    24275218.897    24275219.910
        43.000          26.0004
 120710702.392 7  94060301.12445  22970485.608    22970485.962    22970489.669
        43.000          31.0004
 129226272.520 5 100695774.37543  24590934.013    24590931.116    24590934.557
        35.000          18.0004
 109809268.948 8  85565655.71247  20895997.616    20895998.009    20895997.968
        53.000          44.0004
 13  1  1  2 15 30.0000000  0  8G29G25G02G14G31G24G04G12
 110231966.735 8  85895038.54447  20976442.492    20976442.846    20976443.189
        52.000          44.0004
 108419940.237 8  84483064.92047  20631621.542    20631621.399    20631625.204
        53.000          43.0004
 115231729.055 8  89790961.17446  21927866.991    21927867.494    21927866.706
        51.000          40.0004
 123049441.500 6  95882670.49344  23415528.295    23415528.463    23415528.572
        41.000          26.0004
 127380871.705 7  99257822.16744  24239772.469    24239772.475    24239773.087
        42.000          26.0004
 120724415.472 7  94070986.62845  22973095.670    22973096.130    22973099.144
        44.000          31.0004
 129231520.986 6 100699864.10243  24591933.326    24591929.980    24591934.238
        37.000          18.0004
 109748492.350 8  85518297.32347  20884432.333    20884432.748    20884432.744
        53.000          44.0004
 13  1  1  2 16  0.0000000  0  8G29G25G02G14G31G24G04G12
 110093380.770 8  85787049.48247  20950070.109    20950070.207    20950071.200
        52.000          43.0004
 108298870.585 8  84388724.92547  20608582.715    20608582.669    20608586.499
        50.000          43.0004
 115167264.593 8  89740729.12946  21915599.792    21915599.922    21915599.739
        49.000          40.0004
 123011577.043 6  95853165.73244  23408322.784    23408322.564    23408324.340
        41.000          26.0004
 127194781.248 7  99112816.60044  24204360.949    24204360.801    24204361.223
        43.000          27.0004
 120738347.370 7  94081842.65245  22975745.013    22975747.179    22975750.404
        43.000          30.0004
 129237071.061 6 100704188.81143  24592990.794    24592988.464    24592992.142
        38.000          19.0004
 109687973.601 8  85471139.84447  20872915.674    20872915.959    20872916.338
        50.000          44.0004
 13  1  1  2 16 30.0000000  0  8G29G25G02G14G31G24G04G12
 109955161.226 8  85679345.96047  20923767.697    20923768.017    20923769.128
        51.000          44.0004
 108178048.317 9  84294577.70747  20585591.109    20585590.979    20585594.929
        54.000          45.0004
 115103311.333 8  89690895.42346  21903429.920    21903429.844    21903429.767
        49.000          40.0004
 122974091.618 7  95823956.27944  23401190.270    23401189.861    23401190.691
        43.000          28.0004
 127008874.648 7  98967954.33344  24168984.560    24168984.249    24168985.263
        43.000          27.0004
 120752494.385 7  94092866.28845  22978437.793    22978439.538    22978442.221
        43.000          30.0004
 129242919.407 6 100708745.97943  24594103.604    24594101.472    24594105.326
        39.000          20.0004
 109627712.498 8  85424183.13747  20861448.702    20861448.579    20861448.949
        53.000          44.0004
 13  1  1  2 17  0.0000000  0  8G29G25G02G14G31G24G04G12
 109817309.389 8  85571928.95347  20897535.522    20897535.832    20897536.908
        52.000          43.0004
 108057475.699 8  84200625.01847  20562646.743    20562646.863    20562650.770
        53.000          45.0004
 115039870.190 8  89641460.76946  21891357.449    21891357.108    21891357.196
        48.000          39.0004
 122936983.404 7  95795040.77244  23394128.537    23394128.432    23394130.031
        43.000          28.0004
 126823155.798 7  98823238.36644  24133643.423    24133643.460    24133643.422
        43.000          27.0004
 120766855.790 7  94104056.99445  22981171.308    22981172.170    22981175.314
        44.000          30.0004
 129249064.487 6 100713534.36743  24595273.419    24595272.162    24595276.113
        39.000          20.0004
 109567710.700 8  85377428.49047  20850030.261    20850030.564    20850031.054
        52.000          43.0004
 13  1  1  2 17 30.0000000  0  8G29G25G02G14G31G24G04G12
 109679824.873 8  85464798.15947  20871373.055    20871373.146    20871374.057
        52.000          43.0004
 107937153.234 8  84106867.25647  20539750.372    20539750.149    20539754.076
        52.000          45.0004
 114976939.554 8  89592423.91746  21879381.714    21879381.609    21879381.398
        50.000          39.0004
 122900249.405 7  95766416.82844  23387138.460    23387137.468    23387139.994
        42.000          27.0004
 126637626.377 7  98678669.97844  24098337.845    24098338.792    24098338.389
        44.000          26.0004
 120781428.410 7  94115412.26845  22983944.558    22983945.464    22983947.971
        43.000          30.0004
 129255503.071 6 100718551.45443  24596498.005    24596498.723    24596502.441
        40.000          21.0004
 109507967.635 8  85330875.45047  20838661.627    20838661.937    20838662.606
        51.000          44.0004
 13  1  1  2 18  0.0000000  0  8G29G25G02G14G31G24G04G12
 109542707.343 8  85357953.32747  20845280.429    20845280.553    20845281.563
        52.000          42.0004
 107817081.986 8  84013305.24647  20516901.500    20516901.220    20516905.172
        53.000          44.0004
 114914518.605 8  89543784.21846  21867504.131    21867503.583    21867502.846
        50.000          39.0004
 122863887.034 6  95738082.45344  23380218.172    23380217.752    23380220.357
        41.000          26.0004
 126452288.861 7  98534251.14544  24063069.088    24063069.982    24063069.106
        43.000          26.0004
 120796210.226 6  94126930.55244  22986756.636    22986757.437    22986761.664
        41.000          29.0004
 129262232.408 6 100723795.10743  24597777.789    24597780.357    24597782.958
        39.000          20.0004
 109448483.758 8  85284524.36947  20827342.468    20827342.819    20827343.262
        53.000          45.0004
 13  1  1  2 18 30.0000000  0  8G29G25G02G14G31G24G04G12
 109405955.444 8  85251393.41347  20819257.203    20819257.753    20819258.685
        52.000          42.0004
 107697261.204 8  83919938.40547  20494100.458    20494100.263    20494103.925
        53.000          44.0004
 114852604.524 8  89495539.48146  21855722.124    21855721.824    21855721.034
        50.000          39.0004
 122827891.928 6  95710034.28444  23373368.233    23373367.800    23373370.303
        41.000          26.0004
 126267143.901 6  98389982.33344  24027837.409    24027837.876    24027837.443
        41.000          26.0004
 120811196.762 7  94138608.35044  22989608.524    22989609.646    22989612.664
        43.000          29.0004
 129269247.806 7 100729261.64043  24599112.932    24599116.313    24599118.915
        42.000          21.0004
 109389257.772 8  85238374.24847  20816072.190    20816072.592    20816072.760
        52.000          44.0004
 13  1  1  2 19  0.0000000  0  8G29G25G02G14G31G24G04G12
 109269572.644 8  85145121.11547  20793304.481    20793304.707    20793306.014
        52.000          42.0004
 107577695.593 8  83826770.39647  20471347.716    20471347.542    20471351.386
        52.000          44.0004
 114791200.053 8  89447691.84646  21844037.244    21844037.287    21844036.159
        49.000          39.0004
 122792264.975 7  95682273.01544  23366589.149    23366588.923    23366590.500
        43.000          25.0004
 126082197.525 6  98245868.29944  23992643.182    23992643.122    23992643.795
        41.000          26.0004
 120826389.429 6  94150446.77744  22992500.014    22992500.374    22992503.865
        41.000          29.0004
 129276550.388 6 100734951.99543  24600501.157    24600506.703    24600507.504
        41.000          20.0004
 109330293.113 8  85192427.76447  20804851.348    20804851.843    20804852.071
        51.000          45.0004
 13  1  1  2 19 30.0000000  0  8G29G25G02G14G31G24G04G12
 110708981.565 8  86266738.46947  21067214.751    21067214.933    21067216.052
        51.000          42.0004
 109033808.402 8  84961403.75147  20748436.739    20748436.503    20748440.498
        52.000          44.0004
 116305724.423 8  90627840.71246  22132241.552    22132241.799    22132240.819
        48.000          39.0004
 124332422.945 7  96882396.08444  23659671.544    23659671.841    23659672.742
        44.000          26.0004
 127472877.100 7  99329514.72844  24257280.772    24257280.602    24257280.781
        43.000          26.0004
 122417203.869 6  95390042.45044  23295222.576    23295222.133    23295226.059
        41.000          29.0004
 130859555.091 7 101968462.16843  24901737.625    24901744.385    24901742.582
        42.000          20.0004
 110847010.714 8  86374285.62947  21093473.175    21093473.552    21093474.013
        53.000          44.0004
 13  1  1  2 20  0.0000000  0  8G29G25G02G14G31G24G04G12
 110573332.021 8  86161037.53247  21041401.412    21041401.389    21041402.805
        49.000          42.0004
 108914751.390 8  84868632.05947  20725780.739    20725780.673    20725784.930
        52.000          44.0004
 116245331.401 8  90580781.21346  22120749.010    22120748.970    22120748.589
        49.000          39.0004
 124297519.548 7  96855198.61344  23653029.576    23653029.603    23653031.301
        42.000          25.0004
 127288331.056 6  99185712.63444  24222162.862    24222162.729    24222163.518
        41.000          26.0004
 122432796.975 7  95402192.90944  23298190.402    23298189.594    23298193.131
        42.000          28.0004
 130867418.348 6 101974589.39043  24903233.396    24903241.731    24903239.151
        41.000          20.0004
 110788565.714 8  86328744.06847  21082351.664    21082351.983    21082352.372
        51.000          44.0004
 13  1  1  2 20 30.0000000  0  8G29G25G02G14G31G24G04G12
 110438048.259 8  86055621.61447  21015658.036    21015657.926    21015659.462
        51.000          43.0004
 108795949.417 8  84776059.09547  20703173.761    20703173.382    20703177.811
        52.000          45.0004
 116185442.048 8  90534114.18146  22109352.370    22109352.257    22109352.076
        49.000          38.0004
 124262972.495 7  96828278.81044  23646455.669    23646455.999    23646457.207
        45.000          25.0004
 127103988.023 7  99042068.71044  24187083.842    24187084.184    24187083.652
        42.000          26.0004
 122448585.875 7  95414495.92944  23301193.219    23301194.573    23301198.158
        42.000          29.0004
 130875557.223 6 101980931.36942  24904781.982    24904789.965    24904785.633
        41.000          17.0004
 110730380.147 8  86283404.66047  21071279.448    21071279.446    21071280.209
        53.000          44.0004
 13  1  1  2 21  0.0000000  0  8G29G25G02G14G31G24G04G12
 110303134.363 8  85950493.91747  20989984.782    20989984.528    20989986.145
        51.000          42.0004
 108677407.340 9  84683688.64747  20680615.931    20680615.930    20680619.826
        54.000          45.0004
 116126058.809 8  90487841.53046  22098052.329    22098051.900    22098051.702
        50.000          39.0004
 124228783.235 7  96801637.81344  23639949.677    23639949.760    23639951.167
        44.000          24.0004
 126919854.248 6  98898587.86044  24152044.205    24152045.155    24152044.544
        41.000          26.0004
 122464571.766 6  95426952.45744  23304235.487    23304236.308    23304240.088
        41.000          29.0004
 130883972.356 6 101987488.60142  24906382.545    24906392.663    24906387.667
        39.000          15.0004
 110672457.922 8  86238270.45847  21060256.735    21060256.693    21060257.857
        52.000          43.0004
 13  1  1  2 21 30.0000000  0  8G29G25G02G14G31G24G04G12
 110168588.325 8  85845652.85047  20964381.428    20964381.806    20964382.637
        52.000          43.0004
 108559124.544 9  84591520.23647  20658107.234    20658107.400    20658111.111
        54.000          44.0004
 116067179.245 8  90441961.35646  22086847.847    22086847.435    22086847.567
        50.000          39.0004
 124194947.486 7  96775272.28243  23633511.374    23633511.075    23633511.871
        43.000          23.0004
 126735930.199 7  98755270.43444  24117043.919    24117046.095    24117044.532
        42.000          25.0004
 122480750.977 6  95439559.62144  23307315.310    23307315.102    23307319.194
        40.000          28.0004
 130892659.509 6 101994257.86141  24908034.331    24908042.055    24908038.546
        37.000          11.0004
 110614797.737 8  86193340.43947  21049284.322    21049284.152    21049285.444
        52.000          43.0004
 13  1  1  2 22  0.0000000  0  8G29G25G02G14G31G24G04G12
 110034409.409 8  85741097.85747  20938848.193    20938848.507    20938849.378
        50.000          43.0004
 108441101.456 8  84499554.19647  20635648.380    20635648.143    20635651.940
        53.000          45.0004
 116008801.582 8  90396472.26946  22075738.884    22075738.418    22075738.856
        50.000          40.0004
 124161461.813 7  96749179.56644  23627138.529    23627139.054    23627139.009
        43.000          24.0004
 126552217.961 6  98612118.03644  24082084.422    24082086.655    24082084.529
        41.000          24.0004
 122497120.243 6  95452314.89544  23310430.159    23310430.433    23310434.523
        40.000          29.0004
 130901615.218 5 102001236.30241  24909739.348    24909740.641    24909742.658
        34.000          10.0004
 110557399.716 8  86148614.70847  21038361.807    21038362.092    21038362.892
        53.000          43.0004
 13  1  1  2 22 30.0000000  0  8G29G25G02G14G31G24G04G12
 109900597.567 8  85636828.89247  20913384.460    20913384.649    20913385.790
        52.000          42.0004
 108323339.143 8  84407791.36047  20613239.161    20613238.789    20613242.734
        52.000          45.0004
 115950924.846 8  90351373.51446  22064725.345    22064725.117    22064725.009
        50.000          39.0004
 124128323.289 7  96723357.34644  23620832.676    23620832.196    23620834.658
        43.000          24.0004
 126368720.171 6  98469132.73844  24047166.468    24047167.516    24047166.476
        41.000          24.0004
 122513677.132 6  95465216.34544  23313580.992    23313580.501    23313585.104
        40.000          28.0004
 130910836.665 5 102008421.92741  24911494.001    24911493.059    24911495.868
        34.000          10.0004
 110500263.410 8  86104092.90547  21027489.264    21027489.927    21027490.518
        53.000          44.0004
 13  1  1  2 23  0.0000000  0  8G29G25G02G14G31G24G04G12
 109767155.295 8  85532847.90847  20887991.352    20887991.574    20887992.565
        50.000          43.0004
 108205841.328 9  84316234.61947  20590879.710    20590879.320    20590883.792
        54.000          44.0004
 115893550.486 8  90306666.22046  22053807.268    22053807.348    22053806.519
        48.000          39.0004
 124095531.946 7  96697805.62744  23614592.800    23614592.308    23614594.221
        42.000          24.0004
 126185441.805 7  98326318.43744  24012289.217    24012290.604    24012290.045
        42.000          25.0004
 122530422.102 6  95478264.37344  23316766.621    23316766.778    23316771.727
        41.000          29.0004
 130920323.698 5 102015814.41342  24913301.036    24913298.652    24913301.355
        34.000          12.0004
 110443392.275 8  86059777.72947  21016667.069    21016667.264    21016668.081
        51.000          44.0004
 13  1  1  2 23 30.0000000  0  8G29G25G02G14G31G24G04G12
 109634079.974 8  85429152.85647  20862667.921    20862668.034    20862668.947
        52.000          42.0004
 108088606.292 8  84224882.64847  20568570.729    20568570.452    20568574.576
        53.000          44.0004
 115836674.756 8  90262347.47446  22042983.905    22042984.512    22042983.520
        50.000          39.0004
 124063082.174 6  96672520.07944  23608417.830    23608417.341    23608420.168
        41.000          24.0004
 126002382.623 6  98183674.93444  23977454.109    23977455.072    23977455.163
        41.000          25.0004
 122547349.697 6  95491454.69844  23319988.549    23319987.720    23319992.642
        41.000          28.0004
 130930071.037 5 102023409.78842  24915155.374    24915153.275    24915155.383
        33.000          12.0004
 110386784.011 8  86015667.39147  21005894.862    21005894.825    21005895.770
        51.000          43.0004
