     2.11           OBSERVATION DATA    M (MIXED)           RINEX VERSION / TYPE
teqc  2016Apr1      anonyme             20161013 07:50:48UTCPGM / RUN BY / DATE
Linux 2.4.21-27.ELsmp|Opteron|gcc|Linux x86_64|=+           COMMENT
teqc  2009Mar23                         20161006 01:05:05UTCCOMMENT
Linux 2.4.20-8|Pentium IV|gcc -static|Linux|486/DX+         COMMENT
BIT 2 OF LLI FLAGS DATA COLLECTED UNDER A/S CONDITION       COMMENT
PRDS CACS-GSD 756047 Calgary AB Canada                      MARKER NAME
40124M001                                                   MARKER NUMBER
OPERATOR            NRCan/GEODETIC SURVEY OF CANADA         OBSERVER / AGENCY
00535               JAVAD TRE_G3TH DELTA3.6.3 Jul,01,2015   REC # / TYPE / VERS
KW-9493-01          AOAD/M_T        NONE                    ANT # / TYPE
 -1659602.8300 -3676725.7500  4925493.5900                  APPROX POSITION XYZ
        0.1000        0.0000        0.0000                  ANTENNA: DELTA H/E/N
     1     1                                                WAVELENGTH FACT L1/2
     8    L1    L2    C1    C2    P1    P2    S1    S2      # / TYPES OF OBSERV
    30.0000                                                 INTERVAL
    17                                                      LEAP SECONDS
RINEXED from Javad JPS-binary: ken.macleod@nrcan.gc.ca      COMMENT
Forced Modulo Decimation to 30 seconds                      COMMENT
This data is subject to the Open Government Licence -Canada COMMENT
http://open.canada.ca/en/open-government-licence-canada     COMMENT
 SNR is mapped to RINEX snr flag value [0-9]                COMMENT
  L1 & L2: min(max(int(snr_dBHz/6), 0), 9)                  COMMENT
pseudorange smoothing corrections not applied               COMMENT
teqc edited: all GLONASS satellites excluded                COMMENT
teqc edited: all SBAS satellites excluded                   COMMENT
teqc edited: all Galileo satellites excluded                COMMENT
  2016    10     6     0     0    0.0000000     GPS         TIME OF FIRST OBS
                                                            END OF HEADER
 16 10  6  0  0  0.0000000  0  9G21G14G32G24G18G27G11G10G08
 126768098.18646  98780340.68644  24123166.857                    24123166.390
  24123168.006          40.000          25.250
 120513172.29247  93906371.72645  22932884.034                    22932882.825
  22932885.007          45.500          31.500
 110243800.33349  85904279.51148  20978683.542    20978686.480    20978683.919
  20978686.253          54.250          52.000
 119651877.58347  93235235.86547  22768982.944    22768986.222    22768982.860
  22768986.295          43.750          46.000
 113702954.99048  88599730.42846  21636943.412                    21636942.797
  21636942.815          50.000          40.250
 120697736.19647  94050186.84747  22968013.349    22968017.485    22968013.079
  22968016.962          45.500          46.000
 123774480.88847  96447649.43544  23553501.754                    23553501.452
  23553501.341          42.000          27.750
 106588451.57049  83055951.78549  20283097.008    20283099.100    20283096.810
  20283099.389          56.750          55.000
 118875758.23647  92630459.97447  22621299.279    22621303.506    22621299.070
  22621302.549          47.750          47.000
 16 10  6  0  0 30.0000000  0  9G21G14G32G24G18G27G11G10G08
 126867041.84446  98857439.60844  24141995.856                    24141995.305
  24141996.497          39.000          24.500
 120417014.36947  93831443.54445  22914585.832                    22914585.216
  22914586.532          46.250          31.750
 110183683.23749  85857435.05048  20967243.514    20967246.742    20967243.912
  20967246.360          54.250          53.000
 119666108.51547  93246324.92647  22771690.453    22771695.387    22771690.665
  22771694.580          45.000          47.000
 113760423.61448  88644511.17146  21647879.237                    21647878.526
  21647878.808          50.000          40.000
 120781946.65947  94115805.35547  22984038.202    22984041.526    22984038.373
  22984041.477          45.750          46.000
 123680469.84146  96374394.11644  23535611.373                    23535610.358
  23535612.050          41.250          27.000
 106599241.83649  83064359.79149  20285150.286    20285152.263    20285150.260
  20285152.718          57.500          55.000
 118895325.32247  92645707.07447  22625021.955    22625026.591    22625022.128
  22625025.909          47.250          47.000
 16 10  6  0  1  0.0000000  0  9G21G14G32G24G18G27G11G10G08
 126966158.30546  98934673.12143  24160857.101                    24160855.881
  24160859.428          39.000          22.250
 120321104.27247  93756708.46645  22896335.229                    22896334.904
  22896335.100          46.500          32.000
 110124026.87149  85810949.59148  20955891.418    20955894.237    20955891.651
  20955893.949          54.750          53.000
 119680950.87947  93257890.42247  22774515.478    22774519.098    22774515.185
  22774518.836          47.250          46.000
 113818126.81048  88689474.69446  21658859.891                    21658859.080
  21658859.357          49.750          40.000
 120866498.36947  94181689.77447  23000127.834    23000131.909    23000128.203
  23000131.262          45.000          46.000
 123586818.51346  96301419.08444  23517790.029                    23517789.208
  23517790.442          41.750          26.750
 106610409.95149  83073062.22649  20287275.529    20287277.668    20287275.499
  20287277.942          58.000          55.000
 118915476.77447  92661409.50347  22628856.987    22628861.080    22628857.027
  22628859.962          47.000          46.000
 16 10  6  0  1 30.0000000  0  9G21G14G32G24G18G27G11G10G08
 127065445.80946  99012039.97143  24179749.984                    24179750.188
  24179752.753          39.000          21.500
 120225444.20747  93682168.21745  22878131.197                    22878130.910
  22878131.667          46.500          32.500
 110064832.36549  85764824.03148  20944627.243    20944630.090    20944627.317
  20944629.654          54.750          53.000
 119696403.91447  93269931.75547  22777455.761    22777459.146    22777455.350
  22777459.431          45.000          46.000
 113876063.74048  88734620.35346  21669884.662                    21669884.004
  21669884.004          49.750          40.000
 120951388.34747  94247837.76147  23016281.589    23016285.726    23016281.833
  23016285.427          44.750          46.000
 123493529.46047  96228726.35344  23500037.263                    23500037.498
  23500038.205          42.000          26.750
 106621955.77949  83082058.98049  20289472.470    20289474.783    20289472.541
  20289474.909          57.500          55.000
 118936211.33947  92677566.29847  22632802.692    22632807.179    22632802.336
  22632806.014          47.250          47.000
 16 10  6  0  2  0.0000000  0  9G21G14G32G24G18G27G11G10G08
 127164902.56246  99089538.68543  24198677.009                    24198675.087
  24198676.672          39.500          20.250
 120130035.90447  93607824.17045  22859975.606                    22859974.574
  22859975.848          46.000          32.250
 110006100.82649  85719059.21248  20933450.980    20933453.772    20933450.928
  20933453.524          54.750          53.000
 119712467.06647  93282448.51447  22780512.540    22780516.087    22780512.253
  22780515.863          46.500          46.000
 113934233.79848  88779947.66846  21680954.029                    21680953.450
  21680953.991          50.000          39.750
 121036613.55847  94314246.97747  23032500.246    23032503.613    23032499.759
  23032503.166          45.250          46.000
 123400605.47346  96156318.08944  23482354.836                    23482354.760
  23482355.993          41.250          27.000
 106633879.12449  83091349.90649  20291741.493    20291743.618    20291741.602
  20291743.911          57.750          55.000
 118957528.02547  92694176.72747  22636859.549    22636863.199    22636858.840
  22636862.475          47.000          47.000
 16 10  6  0  2 30.0000000  0  9G21G14G32G24G18G27G11G10G08
 127264527.48546  99167168.46243  24217635.406                    24217634.426
  24217636.160          39.750          20.500
 120034880.83047  93533677.42045  22841867.686                    22841867.471
  22841868.723          45.500          32.500
 109947833.35449  85673656.02148  20922362.799    20922365.572    20922362.886
  20922365.478          54.750          53.000
 119729140.15247  93295440.55347  22783685.457    22783689.374    22783685.381
  22783688.911          46.750          46.000
 113992636.59648  88825456.33946  21692068.056                    21692067.318
  21692067.604          50.000          40.000
 121122171.04747  94380915.12247  23048780.972    23048784.484    23048781.090
  23048784.049          45.250          46.000
 123308049.56046  96084196.62444  23464742.485                    23464741.372
  23464742.473          41.000          26.750
 106646179.87249  83100934.90849  20294082.091    20294084.467    20294082.164
  20294084.620          57.500          55.000
 118979425.70747  92711239.85647  22641026.258    22641030.336    22641025.963
  22641029.279          47.500          47.000
 16 10  6  0  3  0.0000000  0  9G21G14G32G24G18G27G11G10G08
 127364318.09646  99244927.37543  24236623.173                    24236622.974
  24236626.124          38.750          20.500
 119939980.73047  93459729.36945  22823808.704                    22823808.469
  22823809.031          45.750          32.250
 109890031.00649  85628615.25348  20911363.324    20911366.238    20911363.620
  20911366.125          54.750          53.000
 119746422.72547  93308907.49047  22786974.307    22786977.774    22786974.124
  22786977.760          46.250          46.000
 114051271.73948  88871146.05346  21703225.634                    21703225.121
  21703225.517          50.000          40.000
 121208057.83747  94447839.83147  23065124.763    23065128.010    23065124.578
  23065128.436          44.500          46.000
 123215864.49047  96012364.13144  23447200.136                    23447199.057
  23447199.172          42.000          27.250
 106658857.82449  83110813.84049  20296494.859    20296496.807    20296494.761
  20296497.189          57.750          55.000
 119001903.60247  92728755.10447  22645303.489    22645307.668    22645303.556
  22645306.707          47.000          47.000
 16 10  6  0  3 30.0000000  0  9G21G14G32G24G18G27G11G10G08
 127464273.26646  99322814.46143  24255645.321                    24255643.526
  24255646.696          39.500          20.500
 119845337.16447  93385981.20445  22805798.606                    22805798.057
  22805799.457          45.750          32.750
 109832694.86349  85583937.76348  20900452.684    20900455.717    20900452.835
  20900455.387          55.000          53.000
 119764314.06747  93322848.81147  22790379.153    22790382.197    22790378.917
  22790382.266          44.250          46.000
 114110138.51148  88917016.26546  21714427.501                    21714427.285
  21714427.591          50.000          40.000
 121294270.88747  94515018.80247  23081530.913    23081534.062    23081530.398
  23081533.385          45.250          46.000
 123124052.93646  95940822.68444  23429728.347                    23429728.061
  23429728.815          41.750          27.500
 106671912.83249  83120986.57849  20298978.990    20298981.234    20298979.049
  20298981.462          57.500          55.000
 119024960.06147  92746721.18547  22649691.243    22649694.974    22649691.317
  22649694.610          47.250          46.000
 16 10  6  0  4  0.0000000  0  9G21G14G32G24G18G27G11G10G08
 127564391.27846  99400828.45143  24274696.533                    24274695.796
  24274698.611          39.000          22.000
 119750952.19947  93312434.55345  22787837.842                    22787837.670
  22787838.441          45.500          32.750
 109775825.96349  85539624.36048  20889630.929    20889633.782    20889631.189
  20889633.442          54.750          53.000
 119782813.68647  93337264.12547  22793899.208    22793902.436    22793898.910
  22793902.059          46.000          46.000
 114169236.23148  88963066.43646  21725673.649                    21725672.917
  21725673.489          49.750          40.000
 121380807.25247  94582449.69947  23097997.802    23098001.517    23097997.510
  23098001.183          44.000          46.000
 123032617.51147  95869574.34844  23412329.432                    23412329.082
  23412328.790          42.000          26.750
 106685344.73149  83131453.00049  20301535.121    20301537.503    20301535.187
  20301537.564          57.750          55.000
 119048594.44147  92765137.58047  22654189.293    22654192.156    22654188.793
  22654191.430          47.250          47.000
 16 10  6  0  4 30.0000000  0  9G21G14G32G24G18G27G11G10G08
 127664670.35046  99478967.90343  24293778.591                    24293778.772
  24293781.445          39.000          21.750
 119656827.60547  93239090.77145  22769926.286                    22769925.732
  22769926.621          45.250          32.750
 109719425.34549  85495675.85948  20878898.206    20878901.147    20878898.467
  20878900.804          55.250          53.000
 119801921.02147  93352152.97447  22797535.407    22797538.630    22797535.372
  22797538.770          46.500          46.000
 114228564.81548  89009296.49446  21736963.592                    21736962.940
  21736963.364          50.000          40.000
 121467663.89447  94650130.14547  23114526.772    23114529.761    23114526.315
  23114529.691          44.500          45.000
 122941561.29746  95798621.49144  23395001.601                    23395001.587
  23395000.591          41.250          27.250
 106699153.34249  83142212.95549  20304162.585    20304164.863    20304162.656
  20304165.166          57.500          55.000
 119072805.48147  92784003.32447  22658796.088    22658799.456    22658795.696
  22658799.368          47.250          46.000
 16 10  6  0  5  0.0000000  0  9G21G14G32G24G18G27G11G10G08
 127765108.62946  99557231.46243  24312891.382                    24312890.550
  24312893.637          39.500          22.250
 119562964.70747  93165950.92945  22752064.900                    22752064.084
  22752065.050          45.750          32.750
 109663494.04449  85452093.05348  20868254.651    20868257.743    20868255.104
  20868257.381          55.500          53.000
 119821635.49547  93367514.90947  22801286.562    22801290.226    22801286.761
  22801289.853          46.500          46.000
 114288123.73348  89055706.04046  21748297.287                    21748296.552
  21748297.137          50.000          39.750
 121554837.76947  94718057.81347  23131114.966    23131118.434    23131114.469
  23131118.585          44.000          45.000
 122850886.72246  95727966.01044  23377746.341                    23377746.072
  23377747.067          40.750          26.750
 106713338.47049  83153266.30949  20306862.094    20306864.467    20306862.048
  20306864.543          57.500          55.000
 119097591.51747  92803317.13247  22663512.527    22663516.769    22663512.707
  22663516.041          47.000          47.000
 16 10  6  0  5 30.0000000  0  9G21G14G32G24G18G27G11G10G08
 127865705.06446  99635618.22043  24332034.460                    24332034.010
  24332036.552          39.750          22.750
 119469365.27147  93093016.37845  22734253.286                    22734252.669
  22734253.538          45.250          32.750
 109608033.01749  85408876.69948  20857701.213    20857703.710    20857701.173
  20857703.323          55.750          53.000
 119841956.61447  93383349.55647  22805153.368    22805156.767    22805153.915
  22805157.047          46.000          46.000
 114347912.28248  89102294.51246  21759674.328                    21759673.796
  21759674.428          50.250          39.750
 121642325.90447  94786230.33647  23147763.493    23147767.358    23147763.096
  23147766.829          44.000          45.000
 122760596.83246  95657610.31144  23360565.329                    23360564.728
  23360564.913          41.250          27.250
 106727899.96149  83164612.92749  20309633.200    20309635.253    20309633.044
  20309635.518          57.750          55.000
 119122951.91647  92823078.48247  22668338.484    22668342.551    22668338.356
  22668341.756          46.500          47.000
 16 10  6  0  6  0.0000000  0  9G21G14G32G24G18G27G11G10G08
 127966457.26546  99714126.36943  24351207.181                    24351205.442
  24351210.008          40.250          23.250
 119376031.03547  93020288.47145  22716492.303                    22716491.799
  22716492.837          45.500          33.000
 109553043.29149  85366027.58148  20847236.588    20847239.501    20847236.899
  20847239.133          55.500          53.000
 119862884.01047  93399656.62247  22809136.311    22809139.817    22809135.753
  22809139.710          45.750          46.000
 114407930.32548  89149061.81846  21771095.441                    21771094.610
  21771095.736          50.000          39.500
 121730125.25647  94854645.37047  23164471.344    23164475.185    23164471.305
  23164474.647          44.250          45.000
 122670694.27146  95587556.41744  23343458.111                    23343457.054
  23343457.882          41.250          27.250
 106742837.62749  83176252.67149  20312475.632    20312477.692    20312475.606
  20312477.935          57.500          55.000
 119148885.25847  92843286.27447  22673273.622    22673277.348    22673272.940
  22673277.278          46.250          47.000
 16 10  6  0  6 30.0000000  0  9G21G14G32G24G18G27G11G10G08
 128067363.68646  99792754.69743  24370409.167                    24370407.997
  24370411.693          40.500          23.500
 119282963.48047  92947768.37845  22698781.977                    22698781.416
  22698782.280          45.500          33.500
 109498525.82749  85323546.46748  20836862.428    20836865.303    20836862.633
  20836864.978          56.000          53.000
 119884416.93647  93416435.52447  22813233.854    22813236.509    22813233.323
  22813236.755          46.000          45.000
 114468176.89048  89196007.19146  21782560.301                    21782559.884
  21782560.057          50.250          39.750
 121818232.78347  94923300.55947  23181237.788    23181241.408    23181236.523
  23181240.850          43.750          45.000
 122581181.67346  95517806.37244  23326423.240                    23326422.846
  23326424.254          41.250          27.250
 106758151.27249  83188185.38849  20315389.714    20315391.904    20315389.585
  20315392.029          57.750          55.000
 119175390.12247  92863939.42047  22678317.282    22678321.155    22678316.523
  22678320.738          46.500          47.000
 16 10  6  0  7  0.0000000  0  9G21G14G32G24G18G27G11G10G08
 128168422.70546  99871501.93043  24389640.154                    24389639.631
  24389642.607          41.000          23.750
 119190164.62047  92875457.63845  22681123.106                    22681122.359
  22681123.111          46.000          33.500
 109444481.59149  85281434.10648  20826578.060    20826580.838    20826578.357
  20826580.409          55.750          53.000
 119906554.80447  93433685.82147  22817445.670    22817449.771    22817445.966
  22817449.418          45.500          46.000
 114528651.88148  89243130.55146  21794067.815                    21794067.958
  21794067.738          50.000          39.500
 121906645.47047  94992193.51747  23198061.416    23198064.636    23198060.986
  23198065.161          43.000          45.000
 122492062.00747  95448362.52844  23309465.533                    23309464.284
  23309464.374          42.500          28.750
 106773840.70949  83200410.92849  20318375.494    20318377.375    20318375.300
  20318377.714          57.750          55.000
 119202465.29147  92885036.95547  22683470.364    22683473.263    22683469.460
  22683473.172          46.750          47.000
 16 10  6  0  7 30.0000000  0  9G21G14G32G24G18G27G11G10G08
 128269632.75446  99950366.83943  24408898.436                    24408900.212
  24408902.117          40.250          22.000
 119097636.02647  92803357.50445  22663515.443                    22663515.064
  22663515.814          45.500          33.000
 109390911.55149  85239691.24048  20816383.906    20816386.672    20816384.225
  20816386.463          56.000          53.000
 119929296.76647  93451406.83647  22821773.792    22821777.320    22821773.850
  22821777.610          46.000          46.000
 114589354.61748  89290431.37346  21805619.757                    21805619.245
  21805618.999          50.500          39.250
 121995360.32247  95061321.91347  23214944.310    23214947.873    23214943.994
  23214946.848          43.500          45.000
 122403337.79647  95379226.82244  23292581.197                    23292581.361
  23292580.922          43.250          28.250
 106789905.71949  83212929.12149  20321432.231    20321434.464    20321432.350
  20321434.862          57.500          55.000
 119230109.66647  92906578.02247  22688729.921    22688734.066    22688729.721
  22688733.321          46.500          47.000
 16 10  6  0  8  0.0000000  0  9G21G14G32G24G18G27G11G10G08
 128370991.83846 100029347.88943  24428188.185                    24428186.559
  24428189.172          40.750          21.500
 119005379.26047  92731469.19445  22645959.594                    22645959.325
  22645960.225          45.750          33.500
 109337816.62449  85198318.59748  20806280.345    20806283.204    20806280.454
  20806282.908          56.000          53.000
 119952642.02947  93469597.95647  22826215.891    22826219.828    22826215.578
  22826219.353          45.000          46.000
 114650284.39548  89337909.11146  21817214.310                    21817213.668
  21817213.845          49.750          39.250
 122084374.20347  95130683.35847  23231882.471    23231886.167    23231882.680
  23231885.540          43.250          45.000
 122315011.84747  95310401.44644  23275773.102                    23275773.097
  23275772.534          43.500          28.250
 106806346.13349  83225739.83749  20324560.872    20324562.859    20324560.886
  20324563.373          57.750          55.000
 119258321.61847  92928561.36347  22694098.572    22694102.504    22694099.063
  22694101.746          46.250          47.000
 16 10  6  0  8 30.0000000  0  9G21G14G32G24G18G27G11G10G08
 128472498.46746 100108443.91143  24447504.656                    24447503.350
  24447505.079          40.750          19.750
 118913395.69247  92659793.78045  22628455.445                    22628454.734
  22628456.255          45.750          33.500
 109285197.72049  85157316.88348  20796267.417    20796269.982    20796267.580
  20796269.751          56.500          53.000
 119976590.21147  93488258.87147  22830773.211    22830776.854    22830773.443
  22830776.956          45.750          46.000
 114711440.80548  89385563.46846  21828851.958                    21828851.360
  21828851.671          50.000          39.000
 122173684.11247  95200275.44047  23248877.616    23248881.908    23248876.911
  23248881.230          42.500          45.000
 122227086.96247  95241888.57344  23259041.791                    23259040.211
  23259041.703          43.750          28.500
 106823161.73949  83238842.90649  20327760.822    20327762.860    20327760.773
  20327763.186          57.500          55.000
 119287099.83347  92950985.95047  22699574.724    22699578.616    22699574.986
  22699578.101          45.750          47.000
 16 10  6  0  9  0.0000000  0  9G21G14G32G24G18G27G11G10G08
 128574150.71546 100187653.40643  24466847.382                    24466847.333
  24466849.904          39.500          19.000
 118821687.11647  92588332.61045  22611003.836                    22611003.123
  22611004.123          45.750          34.000
 109233055.72949  85116686.78248  20786344.808    20786347.659    20786345.222
  20786347.475          56.000          53.000
 120001140.43847  93507388.93447  22835444.838    22835448.504    22835445.165
  22835448.604          45.500          46.000
 114772823.70248  89433394.28446  21840532.776                    21840531.780
  21840532.161          49.750          39.000
 122263287.00047  95270095.83847  23265928.646    23265932.285    23265928.312
  23265931.935          43.500          45.000
 122139565.87747  95173690.35644  23242386.802                    23242386.947
  23242386.741          43.500          28.000
 106840352.33049  83252238.17249  20331032.072    20331034.293    20331032.004
  20331034.347          57.500          55.000
 119316443.34547  92973851.01347  22705159.005    22705161.852    22705158.223
  22705162.302          45.750          47.000
 16 10  6  0  9 30.0000000  0  9G21G14G32G24G18G27G11G10G08
 128675946.88646 100266975.02442  24486218.442                    24486218.742
  24486220.500          38.000          17.000
 118730255.42547  92517087.21645  22593604.807                    22593604.368
  22593605.128          45.750          33.750
 109181391.59349  85076429.03548  20776513.603    20776516.584    20776513.884
  20776516.282          56.250          53.000
 120026292.17847  93526987.71047  22840231.337    22840234.899    22840231.485
  22840235.285          45.750          46.000
 114834432.70048  89481401.29046  21852256.457                    21852255.725
  21852255.972          49.750          38.750
 122353179.84747  95340142.17547  23283035.422    23283038.183    23283034.278
  23283038.595          43.500          45.000
 122052451.23447  95105808.84944  23225809.764                    23225809.096
  23225809.550          43.250          29.250
 106857917.68749  83265925.46849  20334374.461    20334376.593    20334374.564
  20334376.931          57.250          55.000
 119346350.31647  92997155.15647  22710850.036    22710853.464    22710849.486
  22710852.800          45.250          47.000
 16 10  6  0 10  0.0000000  0  9G21G14G32G24G18G27G11G10G08
 128777885.25346 100346407.52342  24505616.765                    24505616.694
  24505618.314          36.750          16.500
 118639102.24947  92446058.83345  22576259.242                    22576258.073
  22576260.151          46.000          34.250
 109130206.13749  85036544.28648  20766773.397    20766776.340    20766773.529
  20766775.890          56.250          53.000
 120052044.21047  93547054.22147  22845132.165    22845135.774    22845132.434
  22845135.880          46.000          47.000
 114896266.64548  89529583.57946  21864022.869                    21864022.132
  21864022.936          49.750          39.000
 122443359.51747  95410412.00047  23300195.277    23300199.185    23300194.899
  23300198.869          43.000          45.000
 121965745.51547  95038245.99144  23209309.605                    23209309.838
  23209309.855          43.500          29.750
 106875857.60649  83279904.62649  20337788.588    20337790.618    20337788.314
  20337790.903          57.500          55.000
 119376819.44347  93020897.33447  22716648.205    22716651.406    22716647.896
  22716650.831          45.500          47.000
 16 10  6  0 10 30.0000000  0  9G21G14G32G24G18G27G11G10G08
 128879964.30046 100425949.60842  24525042.283                    24525041.118
  24525044.030          36.500          15.750
 118548229.03847  92375248.60245  22558966.518                    22558966.055
  22558966.683          46.250          34.250
 109079500.25149  84997033.22849  20757124.253    20757127.188    20757124.489
  20757126.766          56.250          54.000
 120078395.80547  93567587.94147  22850146.024    22850149.966    22850146.549
  22850149.437          45.500          46.000
 114958325.22548  89577940.90946  21875832.149                    21875831.753
  21875831.808          49.250          38.750
 122533823.03047  95480903.00647  23317410.310    23317414.120    23317410.197
  23317413.624          43.250          45.000
 121879451.63847  94971004.05044  23192888.474                    23192888.471
  23192888.174          43.750          29.250
 106894171.86749  83294175.48149  20341273.333    20341275.734    20341273.403
  20341275.996          57.500          55.000
 119407849.29347  93045076.41947  22722552.461    22722556.525    22722552.463
  22722556.176          44.500          47.000
 16 10  6  0 11  0.0000000  0  9G21G14G32G24G18G27G11G10G08
 128982182.62046 100505600.19842  24544494.037                    24544493.724
  24544495.098          37.250          16.500
 118457637.21047  92304657.64745  22541727.354                    22541726.643
  22541727.936          46.250          34.500
 109029274.75749  84957896.50048  20747566.445    20747569.207    20747566.848
  20747569.138          56.000          53.000
 120105346.04447  93588588.14347  22855274.269    22855278.240    22855274.906
  22855278.231          45.000          46.000
 115020608.16948  89626473.07146  21887684.660                    21887683.596
  21887684.060          49.750          38.500
 122624567.26447  95551612.75747  23334677.917    23334681.497    23334678.550
  23334681.729          42.750          45.000
 121793572.61547  94904085.36644  23176546.270                    23176545.452
  23176546.253          42.750          28.750
 106912860.25949  83308737.86749  20344829.802    20344831.921    20344829.721
  20344832.265          57.500          55.000
 119439438.49147  93069691.38147  22728563.761    22728568.115    22728563.643
  22728567.382          45.250          46.000
 16 10  6  0 11 30.0000000  0  9G21G14G32G24G18G27G11G10G08
 129084537.54446 100585357.22743  24563970.333                    24563970.884
  24563973.264          36.750          18.000
 118367328.33547  92234287.17345  22524541.984                    22524541.417
  22524543.032          46.250          34.750
 108979530.51749  84919134.77148  20738100.542    20738103.444    20738100.802
  20738103.104          56.250          53.000
 120132894.38947  93610054.38147  22860517.509    22860520.705    22860517.199
  22860520.812          45.250          46.000
 115083114.42348  89675179.24546  21899578.973                    21899578.198
  21899578.755          49.500          38.750
 122715589.18347  95622538.88247  23351999.310    23352002.360    23351998.581
  23352002.551          42.500          45.000
 121708110.73247  94837491.72844  23160283.268                    23160283.283
  23160282.805          43.250          29.000
 106931922.54449  83323591.59749  20348457.231    20348459.398    20348457.166
  20348459.684          57.250          55.000
 119471585.37347  93094740.90547  22734680.946    22734685.258    22734681.148
  22734684.262          45.000          46.000
 16 10  6  0 12  0.0000000  0  9G21G14G32G24G18G27G11G10G08
 129187027.75246 100665219.64443  24583473.875                    24583473.009
  24583476.098          36.000          19.500
 118277304.55247  92164138.82545  22507410.711                    22507411.078
  22507411.906          46.500          34.750
 108930268.33949  84880748.67748  20728726.277    20728729.015    20728726.489
  20728728.714          56.250          53.000
 120161039.78547  93631985.88147  22865873.049    22865876.230    22865872.933
  22865876.425          45.250          46.000
 115145844.32148  89724059.67246  21911515.743                    21911515.329
  21911515.533          49.500          38.500
 122806885.69447  95693678.99447  23369372.615    23369376.080    23369371.824
  23369375.752          43.000          45.000
 121623068.66447  94771225.22344  23144100.111                    23144099.853
  23144100.323          43.250          29.000
 106951358.52549  83338736.52149  20352155.774    20352157.848    20352155.810
  20352158.095          57.500          55.000
 119504288.12847  93120223.56347  22740904.562    22740907.835    22740903.887
  22740907.590          45.500          46.000
 16 10  6  0 12 30.0000000  0 10G21G14G32G24G01G18G27G11G10G08
 129289651.86646 100745186.46143  24603002.866                    24603002.513
  24603005.393          37.250          20.500
 118187566.92047  92094213.46045  22490334.351                    22490333.869
  22490335.453          46.250          35.000
 108881488.99549  84842738.82048  20719443.806    20719446.623    20719444.057
  20719446.182          56.000          53.000
 120189781.02047  93654381.64247  22871342.140    22871345.752    22871342.311
  22871346.051          45.000          46.000
 128640024.66145                  24479382.558    24479385.478
                        33.750          31.000
 115208796.77548  89773113.52146  21923495.577                    21923495.008
  21923495.769          49.250          38.500
 122898453.70447  95765030.66147  23386797.099    23386801.321    23386796.322
  23386801.086          43.500          46.000
 121538449.33647  94705288.10944  23127997.435                    23127997.163
  23127997.269          43.250          29.000
 106971167.91949  83354172.41449  20355925.311    20355927.350    20355925.384
  20355927.635          57.250          55.000
 119537545.87947  93146138.68647  22747233.112    22747236.796    22747233.054
  22747236.167          45.000          46.000
 16 10  6  0 13  0.0000000  0 10G21G14G32G24G01G18G27G11G10G08
 129392407.55346 100825255.72143  24622557.486                    24622557.503
  24622560.022          39.000          21.250
 118098117.14247  92024512.38945  22473313.200                    22473312.062
  22473313.250          46.500          35.000
 108833193.30049  84805105.83048  20710253.545    20710256.394    20710253.762
  20710256.059          56.500          53.000
 120219117.46347  93677241.22947  22876925.204    22876928.644    22876924.889
  22876927.946          44.750          46.000
 128533337.16745                  24459080.809    24459084.108
                        33.750          35.000
 115271971.72948  89822340.76146  21935517.188                    21935516.664
  21935516.880          49.500          38.750
 122990290.16846  95836591.51147  23404272.690    23404277.023    23404271.882
  23404277.279          41.750          45.000
 121454255.49347  94639682.53344  23111975.677                    23111975.944
  23111976.063          43.250          28.500
 106991350.53149  83369899.13049  20359765.991    20359768.167    20359765.960
  20359768.391          57.250          55.000
 119571357.12947  93172485.10247  22753666.969    22753671.347    22753666.650
  22753670.136          46.500          46.000
 16 10  6  0 13 30.0000000  0 10G21G14G32G24G01G18G27G11G10G08
 129495293.40146 100905426.47643  24642136.176                    24642135.082
  24642137.621          37.750          21.250
 118008956.86647  91955036.89345  22456346.076                    22456345.224
  22456346.814          46.500          35.000
 108785382.02749  84767850.30748  20701155.557    20701158.301    20701155.735
  20701157.930          56.250          53.000
 120249048.26747  93700563.93547  22882620.291    22882623.530    22882620.782
  22882624.399          45.000          46.000
 128426782.07045                  24438803.283    24438807.281
                        34.250          36.000
 115335368.31148  89871740.68846  21947581.202                    21947580.335
  21947580.682          49.250          38.500
 123082392.00247  95908359.14047  23421798.881    23421802.400    23421798.619
  23421803.360          42.500          45.000
 121370489.45147  94574410.31844  23096035.818                    23096035.418
  23096036.103          42.750          27.500
 107011906.11449  83385916.46949  20363677.583    20363679.801    20363677.628
  20363680.015          57.250          55.000
 119605719.68547  93199261.11447  22760206.574    22760209.852    22760205.836
  22760209.747          45.750          46.000
 16 10  6  0 14  0.0000000  0 10G21G14G32G24G01G18G27G11G10G08
 129598307.56546 100985697.17743  24661738.875                    24661738.340
  24661741.509          38.250          22.750
 117920087.74547  91885788.28145  22439434.869                    22439434.272
  22439435.624          47.000          35.500
 108738055.92249  84730972.84449  20692149.598    20692152.385    20692149.753
  20692151.938          56.250          54.000
 120279572.22747  93724348.84447  22888428.761    22888432.266    22888429.052
  22888433.067          44.250          46.000
 128320361.65145                  24418551.865    24418555.523
                        34.750          35.000
 115398986.00248  89921312.91646  21959687.287                    21959686.498
  21959686.832          49.500          38.500
 123174756.10647  95980331.13347  23439375.343    23439379.288    23439375.007
  23439378.996          42.000          44.000
 121287154.05947  94509473.69044  23080177.577                    23080176.639
  23080177.119          43.250          27.500
 107032834.40749  83402224.22949  20367660.059    20367662.349    20367660.125
  20367662.587          57.500          55.000
 119640632.45447  93226465.85447  22766849.177    22766853.531    22766849.529
  22766852.504          46.000          46.000
 16 10  6  0 14 30.0000000  0 10G21G14G32G24G01G18G27G11G10G08
 129701447.89146 101066066.21843  24681366.066                    24681365.274
  24681366.886          38.500          21.250
 117831511.31047  91816767.76245  22422578.572                    22422578.559
  22422579.834          46.250          35.250
 108691215.72049  84694474.00748  20683235.891    20683238.660    20683236.351
  20683238.502          56.250          53.000
 120310688.29247  93748595.12847  22894350.622    22894353.751    22894350.597
  22894353.905          44.250          46.000
 128214077.97145                  24398326.766    24398330.205
                        34.750          35.000
 115462824.54048  89971057.22146  21971835.432                    21971834.596
  21971835.104          49.500          38.250
 123267379.42146  96052505.09847  23457001.590    23457005.084    23457000.998
  23457005.146          41.250          44.000
 121204252.00447  94444874.69044  23064402.502                    23064400.899
  23064401.346          43.500          28.000
 107054135.18249  83418822.24149  20371713.535    20371715.593    20371713.524
  20371715.869          57.250          55.000
 119676093.17247  93254097.58347  22773597.717    22773601.362    22773597.259
  22773601.650          45.500          46.000
 16 10  6  0 15  0.0000000  0 10G21G14G32G24G01G18G27G11G10G08
 129804712.93846 101146532.41943  24701017.500                    24701016.227
  24701017.662          38.250          21.250
 117743228.70047  91747976.18745  22405779.494                    22405778.682
  22405779.693          47.000          35.250
 108644862.18249  84658354.38249  20674415.357    20674418.049    20674415.403
  20674417.819          56.500          54.000
 120342395.54547  93773302.07847  22900384.330    22900387.183    22900383.766
  22900387.322          44.500          46.000
 128107933.51345                  24378127.178    24378131.840
                        32.000          35.000
 115526882.88448  90020972.82346  21984025.283                    21984024.449
  21984025.136          49.750          38.250
 123360258.81847  96124878.62047  23474675.618    23474679.557    23474675.968
  23474679.197          42.000          45.000
 121121785.77947  94380615.31744  23048709.031                    23048708.693
  23048708.502          44.500          28.750
 107075808.20449  83435710.31249  20375837.516    20375839.847    20375837.731
  20375840.060          57.250          55.000
 119712100.76347  93282155.44147  22780449.446    22780453.873    22780449.176
  22780453.005          45.750          46.000
 16 10  6  0 15 30.0000000  0 10G21G14G32G24G01G18G27G11G10G08
 129908101.06646 101227094.51343  24720691.745                    24720690.647
  24720693.517          37.250          19.250
 117655241.81647  91679415.04045  22389035.851                    22389035.530
  22389036.330          47.000          35.500
 108598995.98049  84622614.49849  20665687.472    20665690.033    20665687.437
  20665689.762          56.500          54.000
 120374692.73747  93798468.72847  22906529.773    22906533.881    22906530.233
  22906533.500          43.500          46.000
 128001930.42145  99741759.57746  24357956.113    24357961.004    24357955.872
  24357957.497          32.500          36.000
 115591160.97848  90071059.63446  21996256.877                    21996256.432
  21996257.074          49.250          38.000
 123453391.21546  96197449.27847  23492398.529    23492402.410    23492398.388
  23492401.622          41.750          44.000
 121039758.38847  94316697.89045  23033099.718                    23033099.671
  23033100.520          45.500          31.000
 107097853.17749  83452888.21949  20380032.899    20380035.033    20380032.783
  20380035.161          57.250          55.000
 119748653.50347  93310638.07947  22787405.469    22787409.382    22787405.223
  22787408.650          45.750          46.000
 16 10  6  0 16  0.0000000  0 10G21G14G32G24G01G18G27G11G10G08
 130011610.49746 101307751.17442  24740388.258                    24740388.511
  24740388.104          36.250          16.750
 117567552.17847  91611085.52645  22372349.404                    22372348.249
  22372349.469          47.000          35.750
 108553617.83849  84587254.92649  20657052.048    20657054.743    20657052.187
  20657054.589          56.500          54.000
 120407579.01847  93824094.40347  22912788.030    22912791.214    22912787.766
  22912791.373          43.500          46.000
 127896070.90845  99659271.67846  24337812.693    24337817.380    24337811.229
  24337816.565          33.000          37.000
 115655658.32548  90121317.30246  22008530.115                    22008529.756
  22008530.661          49.500          38.000
 123546773.55546  96270214.68947  23510168.055    23510172.101    23510167.425
  23510171.892          41.500          44.000
 120958172.32447  94253124.38145  23017574.259                    23017574.455
  23017575.116          45.750          30.750
 107120269.87749  83470355.78149  20384298.676    20384300.692    20384298.510
  20384300.894          57.250          55.000
 119785749.61247  93339544.12847  22794464.975    22794468.757    22794464.572
  22794468.143          45.750          46.000
 16 10  6  0 16 30.0000000  0 10G21G14G32G24G01G18G27G11G10G08
 130115239.37046 101388500.90342  24760109.320                    24760107.285
  24760110.537          36.750          17.500
 117480161.61447  91542989.01945  22355719.404                    22355718.749
  22355719.888          47.000          35.500
 108508728.43349  84552276.18449  20648509.639    20648512.405    20648509.975
  20648512.277          56.500          54.000
 120441053.24747  93850178.22147  22919158.613    22919160.827    22919157.670
  22919160.707          44.000          46.000
 127790357.46645  99576897.60846  24317695.084    24317698.829    24317694.340
  24317699.987          34.250          37.000
 115720375.02848  90171745.89246  22020845.629                    22020845.125
  22020845.243          49.500          37.750
 123640402.71447  96343172.45447  23527985.443    23527989.213    23527985.143
  23527988.756          42.500          44.000
 120877030.28147  94189896.83245  23002133.439                    23002133.069
  23002133.380          45.500          30.000
 107143058.06649  83488112.81249  20388634.940    20388637.264    20388634.976
  20388637.391          57.000          55.000
 119823387.45947  93368872.32247  22801626.730    22801630.334    22801626.809
  22801629.800          45.750          46.000
 16 10  6  0 17  0.0000000  0 10G21G14G32G24G01G18G27G11G10G08
 130218986.22646 101469342.57242  24779852.514                    24779850.273
  24779852.350          36.000          15.250
 117393071.44447  91475126.62345  22339146.526                    22339146.400
  22339147.121          47.250          35.750
 108464328.42649  84517678.79349  20640060.670    20640063.619    20640060.802
  20640063.251          56.750          54.000
 120475114.06547  93876719.11447  22925639.389    22925642.661    22925639.775
  22925643.212          43.000          46.000
 127684792.26145  99494639.04446  24297607.389    24297611.792    24297607.793
  24297611.346          34.750          38.000
 115785309.53448  90222344.21146  22033202.140                    22033201.451
  22033201.807          49.250          37.750
 123734275.58247  96416320.10447  23545848.890    23545853.364    23545849.065
  23545852.460          42.250          44.000
 120796334.76447  94127017.21444  22986778.046                    22986777.952
  22986777.075          45.500          29.750
 107166217.41649  83506159.06349  20393041.881    20393044.231    20393041.903
  20393044.499          57.000          55.000
 119861565.06647  93398621.07247  22808892.340    22808895.621    22808891.157
  22808894.549          46.250          45.000
 16 10  6  0 17 30.0000000  0 10G21G14G32G24G01G18G27G11G10G08
 130322848.81246 101550274.37342  24799616.311                    24799614.670
  24799616.001          36.750          15.250
 117306283.03947  91407499.33945  22322630.997                    22322630.833
  22322631.495          47.500          35.500
 108420418.45649  84483463.24349  20631704.938    20631707.527    20631705.095
  20631707.544          56.750          54.000
 120509760.73547  93903716.52547  22932232.275    22932235.893    22932232.843
  22932235.895          43.750          46.000
 127579377.60145  99412497.80246  24277546.378    24277551.443    24277546.704
  24277552.051          33.500          38.000
 115850461.45048  90273111.93346  22045600.548                    22045599.916
  22045600.034          49.750          37.750
 123828389.07747  96489655.27547  23563758.321    23563761.061    23563757.106
  23563760.958          42.250          42.000
 120716088.35447  94064487.56145  22971507.533                    22971507.970
  22971506.812          45.500          30.250
 107189747.69349  83524494.34549  20397519.617    20397521.895    20397519.711
  20397522.075          57.250          55.000
 119900281.16147  93428789.45147  22816259.377    22816263.549    22816259.188
  22816263.103          46.750          46.000
 16 10  6  0 18  0.0000000  0 10G21G14G32G24G01G18G27G11G10G08
 130426825.50746 101631295.09342  24819401.435                    24819399.560
  24819402.655          36.250          14.000
 117219798.00847  91340108.45746  22306174.098                    22306172.717
  22306174.070          47.500          36.250
 108376999.16849  84449630.04649  20623442.398    20623445.279    20623442.796
  20623444.997          57.000          54.000
 120544991.79247  93931169.29547  22938936.904    22938940.432    22938936.335
  22938940.816          44.250          46.000
 127474115.78345  99330475.66446  24257516.484    24257521.146    24257515.398
  24257521.479          34.500          38.000
 115915830.86248  90324049.13246  22058039.914                    22058039.194
  22058038.831          49.500          37.500
 123922740.15447  96563175.55147  23581713.583    23581716.752    23581712.433
  23581715.423          42.000          43.000
 120636293.96747  94002310.14845  22956323.663                    22956322.513
  22956322.906          45.500          30.500
 107213648.63749  83543118.45849  20402067.630    20402070.149    20402067.798
  20402070.177          57.000          55.000
 119939533.48347  93459375.68147  22823728.795    22823732.619    22823728.661
  22823732.049          46.500          45.000
 16 10  6  0 18 30.0000000  0 10G21G14G32G24G01G18G27G11G10G08
 130530914.71945 101712403.55042  24839209.089                    24839209.214
  24839210.452          35.750          15.500
 117133617.83647  91272955.12946  22289774.556                    22289773.919
  22289774.174          47.500          36.250
 108334071.18949  84416179.68549  20615273.365    20615276.203    20615273.799
  20615275.950          57.000          54.000
 120580806.08447  93959076.54447  22945751.768    22945755.209    22945752.504
  22945755.372          44.250          46.000
 127369009.04245  99248574.35046  24237513.438    24237519.256    24237515.287
  24237521.627          34.250          38.000
 115981416.84648  90375155.09446  22070520.097                    22070519.603
  22070520.097          49.250          37.250
 124017325.59546  96636878.48147  23599711.562    23599715.223    23599711.281
  23599715.333          41.750          44.000
 120556953.78347  93940486.66445  22941225.403                    22941225.311
  22941225.121          45.250          30.500
 107237919.93949  83562031.16449  20406686.738    20406688.853    20406686.518
  20406688.807          57.000          55.000
 119979320.51547  93490378.54847  22831300.126    22831303.680    22831299.579
  22831303.151          46.250          45.000
 16 10  6  0 19  0.0000000  0 10G21G14G32G24G01G18G27G11G10G08
 130635114.23145 101793597.90142  24859038.103                    24859037.602
  24859038.749          35.500          15.750
 117047743.93947  91206040.44846  22273432.538                    22273432.212
  22273433.141          47.750          36.250
 108291635.15149  84383112.65449  20607198.229    20607201.139    20607198.395
  20607200.718          57.000          54.000
 120617202.64247  93987437.50047  22952677.627    22952681.663    22952677.679
  22952681.459          44.000          46.000
 127264059.77346  99166795.75446  24217544.475    24217547.697    24217544.725
  24217547.915          36.500          38.000
 116047218.90048  90426429.39846  22083041.764                    22083041.310
  22083041.444          49.000          37.000
 124112142.36647  96710761.64947  23617754.850    23617758.189    23617754.519
  23617758.821          42.500          43.000
 120478070.52947  93879019.22945  22926214.504                    22926214.294
  22926214.331          45.500          30.500
 107262561.36849  83581232.27649  20411375.540    20411377.805    20411375.602
  20411378.087          57.250          54.000
 120019640.35747  93521796.59347  22838972.025    22838976.789    22838972.583
  22838975.940          45.500          45.000
 16 10  6  0 19 30.0000000  0 10G21G14G32G24G01G18G27G11G10G08
 130739422.44146 101874876.97442  24878886.987                    24878887.783
  24878888.224          37.250          15.000
 116962177.76647  91139365.58046  22257149.803                    22257149.866
  22257149.812          47.500          36.000
 108249691.59349  84350429.38049  20599216.503    20599219.324    20599216.911
  20599219.032          57.250          54.000
 120654179.73647  94016250.81447  22959714.244    22959718.243    22959714.323
  22959718.160          44.000          46.000
 127159270.39146  99085141.71646  24197603.134    24197607.118    24197603.736
  24197606.945          37.500          38.000
 116113236.62248  90477871.77246  22095604.014                    22095603.897
  22095604.938          48.750          37.500
 124207187.38247  96784822.67047  23635841.608    23635844.829    23635841.093
  23635844.683          43.250          43.000
 120399646.73747  93817909.81144  22911290.656                    22911289.938
  22911290.167          44.500          29.750
 107287572.60249  83600721.55149  20416135.029    20416137.254    20416135.105
  20416137.534          57.000          55.000
 120060491.33647  93553628.51847  22846745.989    22846750.235    22846746.455
  22846750.125          46.000          45.000
 16 10  6  0 20  0.0000000  0 10G21G14G32G24G01G18G27G11G10G08
 130843837.31846 101956239.20442  24898757.689                    24898755.853
  24898756.587          37.750          16.000
 116876920.76347  91072931.59546  22240926.124                    22240925.946
  22240926.114          47.500          36.000
 108208241.13549  84318130.33249  20591329.023    20591331.719    20591329.143
  20591331.362          57.250          54.000
 120691736.64947  94045515.94547  22966861.382    22966864.819    22966861.298
  22966864.317          43.750          46.000
 127054643.05846  99003613.97946  24177693.454    24177697.177    24177693.376
  24177697.173          37.000          38.000
 116179469.37248  90529481.70146  22108208.385                    22108207.710
  22108208.484          49.250          37.500
 124302457.46447  96859059.06847  23653970.650    23653975.540    23653970.129
  23653974.027          42.750          44.000
 120321684.80747  93757160.29445  22896454.505                    22896455.063
  22896455.103          45.500          31.250
 107312953.36949  83620498.77649  20420965.107    20420967.205    20420964.919
  20420967.251          57.250          54.000
 120101871.40947  93585872.69747  22854620.635    22854624.106    22854620.287
  22854623.891          46.250          45.000
 16 10  6  0 20 30.0000000  0 10G21G14G32G24G01G18G27G11G10G08
 130948357.44846 102037683.37943  24918647.413                    24918645.137
  24918646.815          39.750          18.750
 116791974.54147  91006739.78646  22224761.587                    22224761.080
  22224761.837          47.750          36.750
 108167284.29349  84286215.92549  20583535.161    20583537.826    20583535.308
  20583537.478          57.250          54.000
 120729871.78147  94075231.62847  22974118.505    22974122.006    22974117.854
  22974121.616          44.750          46.000
 126950180.10446  98922214.31046  24157815.034    24157818.743    24157814.862
  24157819.831          36.750          38.000
 116245916.83248  90581258.93546  22120852.786                    22120852.650
  22120852.689          49.250          37.500
 124397949.59147  96933468.47147  23672142.497    23672146.262    23672141.501
  23672145.842          42.000          44.000
 120244187.70647  93696772.97345  22881707.870                    22881706.899
  22881708.196          46.000          32.000
 107338703.37549  83640563.71749  20425864.843    20425867.000    20425864.923
  20425867.375          57.000          54.000
 120143778.88247  93618527.86747  22862595.994    22862599.361    22862595.716
  22862598.999          47.000          45.000
 16 10  6  0 21  0.0000000  0 10G21G14G32G24G01G18G27G11G10G08
 131052980.95846 102119208.12343  24938555.375                    24938554.828
  24938556.966          40.500          19.250
 116707340.48748  90940791.22046  22208656.210                    22208655.689
  22208655.853          48.250          36.750
 108126821.66549  84254686.61549  20575835.446    20575837.944    20575835.486
  20575837.761          57.250          54.000
 120768584.02547  94105397.01747  22981484.818    22981488.457    22981484.733
  22981487.817          44.500          46.000
 126845883.95346  98840944.64546  24137968.748    24137971.148    24137967.149
  24137973.035          37.500          38.000
 116312578.31948  90633202.93346  22133538.315                    22133537.512
  22133537.884          49.500          37.250
 124493660.64847  97008048.47647  23690356.139    23690359.149    23690355.315
  23690358.880          43.000          44.000
 120167158.04247  93636749.88245  22867049.760                    22867048.768
  22867049.745          46.000          32.000
 107364822.34649  83660916.16449  20430835.446    20430837.489    20430835.249
  20430837.656          57.250          54.000
 120186211.81547  93651592.45747  22870670.427    22870674.243    22870669.536
  22870673.155          46.500          45.000
 16 10  6  0 21 30.0000000  0 10G21G14G32G24G01G18G27G11G10G08
 131157706.02246 102200812.04242  24958482.917                    24958483.028
  24958485.191          39.750          17.250
 116623020.18748  90875087.12746  22192610.388                    22192610.000
  22192610.671          48.250          37.000
 108086853.74349  84223542.78849  20568229.648    20568232.184    20568229.740
  20568232.034          57.250          54.000
 120807871.81447  94136010.88647  22988961.012    22988964.115    22988961.201
  22988964.452          44.000          45.000
 126741756.95046  98759806.71746  24118153.287    24118156.972    24118152.555
  24118156.644          38.000          39.000
 116379453.36948  90685313.35146  22146263.908                    22146264.203
  22146263.629          49.000          37.000
 124589587.43447  97082796.59347  23708609.282    23708613.005    23708608.791
  23708613.194          42.000          45.000
 120090598.11547  93577092.83445  22852480.321                    22852480.107
  22852480.612          46.000          31.500
 107391309.99049  83681555.88249  20435875.624    20435877.626    20435875.666
  20435878.120          57.250          54.000
 120229168.51547  93685065.20647  22878844.952    22878848.758    22878844.692
  22878847.784          46.750          45.000
 16 10  6  0 22  0.0000000  0 10G21G14G32G24G01G18G27G11G10G08
 131262530.74146 102282493.62743  24978430.729                    24978430.355
  24978433.381          40.500          19.250
 116539015.05948  90809628.64746  22176624.728                    22176624.213
  22176625.200          48.250          37.250
 108047381.06349  84192784.86649  20560718.038    20560721.120    20560718.362
  20560720.684          57.000          54.000
 120847733.80847  94167072.18247  22996546.528    22996549.853    22996546.024
  22996550.198          44.000          46.000
 126637801.38546  98678802.42546  24098370.776    24098375.875    24098370.095
  24098374.769          38.750          40.000
 116446541.35748  90737589.69646  22159030.413                    22159029.654
  22159030.247          48.750          36.500
 124685726.96746  97157710.45047  23726903.734    23726907.601    23726903.441
  23726908.728          40.500          44.000
 120014510.29847  93517803.63045  22838001.876                    22838001.305
  22838001.864          46.500          31.750
 107418165.96149  83702482.61449  20440986.305    20440988.399    20440986.302
  20440988.653          57.250          54.000
 120272646.49547  93718944.12947  22887118.972    22887122.278    22887118.911
  22887121.727          46.500          46.000
 16 10  6  0 22 30.0000000  0 10G21G14G32G24G01G18G27G11G10G08
 131367453.30246 102364251.45943  24998397.229                    24998395.701
  24998400.512          41.000          21.000
 116455326.59648  90744416.89446  22160699.380                    22160698.705
  22160699.223          48.250          37.250
 108008404.12049  84162413.23249  20553301.291    20553303.789    20553301.282
  20553303.496          57.500          54.000
 120888168.55247  94198579.76847  23004240.838    23004245.041    23004240.605
  23004244.644          44.500          46.000
 126534019.69946  98597933.64546  24078622.838    24078625.903    24078621.248
  24078625.293          39.500          40.000
 116513841.93348  90790031.68646  22171837.302                    22171836.571
  22171837.534          49.250          36.500
 124782076.06146  97232787.60947  23745238.411    23745243.187    23745238.665
  23745243.026          41.000          44.000
 119938897.44147  93458884.53945  22823613.784                    22823612.426
  22823612.579          46.250          31.250
 107445390.00849  83723696.15649  20446166.830    20446169.006    20446166.783
  20446169.221          56.500          54.000
 120316644.09847  93753227.95147  22895491.249    22895494.099    22895490.586
  22895494.125          47.000          45.000
 16 10  6  0 23  0.0000000  0 10G21G14G32G24G01G18G27G11G10G08
 131472471.65846 102446083.86243  25018380.963                    25018380.161
  25018383.344          40.250          20.000
 116371956.09148  90679452.90646  22144834.585                    22144834.178
  22144834.510          48.750          37.250
 107969923.37949  84132428.24949  20545978.690    20545981.155    20545978.705
  20545980.989          57.250          54.000
 120929175.04547  94230532.89347  23012044.640    23012047.726    23012044.598
  23012047.143          45.000          45.000
 126430414.16046  98517202.05846  24058906.846    24058911.208    24058906.381
  24058909.503          40.000          41.000
 116581354.54148  90842638.90846  22184684.628                    22184683.776
  22184684.592          48.750          36.500
 124878631.59946  97308025.62847  23763612.066    23763616.446    23763612.794
  23763616.492          40.250          44.000
 119863761.92447  93400337.40645  22809314.927                    22809315.594
  22809315.013          46.500          32.000
 107472981.78349  83745196.23849  20451417.273    20451419.771    20451417.255
  20451419.782          56.250          54.000
 120361159.26647  93787915.05847  22903961.031    22903965.698    22903961.609
  22903965.131          45.750          45.000
 16 10  6  0 23 30.0000000  0 10G21G14G32G24G01G18G27G11G10G08
 131577584.61646 102527990.01943  25038382.990                    25038383.007
  25038385.127          39.750          19.750
 116288904.98448  90614737.79846  22129030.572                    22129030.126
  22129029.959          48.500          37.750
 107931939.31849  84102830.29149  20538750.309    20538753.074    20538750.532
  20538752.728          57.250          54.000
 120970751.84147  94262930.38447  23019956.369    23019959.112    23019956.419
  23019959.315          45.250          45.000
 126326987.16546  98436609.62746  24039225.137    24039229.013    24039225.824
  24039229.136          40.500          40.000
 116649078.60448  90895410.89246  22197572.109                    22197572.106
  22197572.110          48.500          36.500
 124975390.53846  97383422.12247  23782025.779    23782030.394    23782025.164
  23782029.646          40.750          44.000
 119789106.13147  93342164.06245  22795108.998                    22795108.627
  22795108.340          46.750          32.000
 107500940.99649  83766982.64049  20456737.748    20456739.973    20456737.715
  20456740.128          56.750          54.000
 120406190.09047  93823004.01347  22912531.143    22912534.700    22912530.348
  22912534.660          46.000          45.000
 16 10  6  0 24  0.0000000  0 10G21G14G32G24G01G18G27G11G10G08
 131682789.94446 102609968.17043  25058403.472                    25058401.583
  25058405.237          39.250          19.000
 116206174.51648  90550272.53846  22113287.331                    22113286.641
  22113287.228          49.000          37.750
 107894452.40449  84073619.72049  20531616.971    20531619.725    20531617.010
  20531619.306          57.500          54.000
 121012897.32247  94295771.01547  23027976.212    23027980.480    23027976.296
  23027979.499          45.250          46.000
 126223741.14646  98356158.19746  24019578.551    24019582.172    24019578.196
  24019581.518          41.250          41.000
 116717013.68948  90948347.30646  22210499.852                    22210498.980
  22210499.284          48.500          36.000
 125072349.70946  97458974.69247  23800475.536    23800480.569    23800475.652
  23800480.689          41.000          44.000
 119714932.79247  93284366.68045  22780993.810                    22780993.092
  22780994.176          46.000          31.500
 107529267.33849  83789055.11549  20462128.000    20462130.376    20462128.055
  20462130.530          56.500          54.000
 120451734.65147  93858493.26047  22921197.818    22921201.454    22921197.679
  22921200.988          46.500          45.000
 16 10  6  0 24 30.0000000  0  9G14G32G24G01G18G27G11G10G08
 116123766.49248  90486058.54446  22097605.615                    22097604.696
  22097605.931          48.750          37.750
 107857463.05849  84044796.86749  20524577.889    20524580.613    20524578.222
  20524580.279          57.250          54.000
 121055610.01247  94329053.65147  23036103.960    23036107.099    23036103.898
  23036107.398          44.500          45.000
 126120678.42846  98275849.59947  23999966.178    23999969.603    23999965.704
  23999969.905          41.000          42.000
 116785159.34748  91001447.80746  22223467.153                    22223466.449
  22223467.375          48.250          36.250
 125169506.06447  97534680.87647  23818964.092    23818968.723    23818964.144
  23818968.668          42.000          43.000
 119641244.42747  93226947.17745  22766971.640                    22766971.159
  22766969.890          46.750          31.250
 107557960.47749  83811413.40649  20467588.153    20467590.600    20467588.125
  20467590.655          56.500          54.000
 120497791.12847  93894381.40647  22929962.163    22929965.472    22929962.499
  22929965.012          45.750          45.000
 16 10  6  0 25  0.0000000  0  9G14G32G24G01G18G27G11G10G08
 116041681.98148  90422096.64046  22081985.208                    22081984.746
  22081985.662          48.750          37.750
 107820971.70749  84016362.05749  20517633.766    20517636.672    20517634.025
  20517636.326          57.250          54.000
 121098888.37147  94362777.04647  23044339.877    23044343.020    23044340.010
  23044343.158          45.000          45.000
 126017801.40146  98195685.73947  23980388.474    23980393.192    23980388.899
  23980393.741          40.500          42.000
 116853514.94448  91054711.90146  22236475.289                    22236474.257
  22236474.427          48.750          36.250
 125266856.42646  97610538.25347  23837489.105    23837492.802    23837489.184
  23837492.522          41.000          42.000
 119568043.29647  93169907.37445  22753041.277                    22753041.215
  22753041.480          45.750          31.500
 107587020.11249  83834057.27649  20473117.948    20473120.093    20473117.883
  20473120.470          56.500          54.000
 120544357.12447  93930666.55847  22938823.325    22938827.068    22938823.007
  22938826.430          45.750          45.000
 16 10  6  0 25 30.0000000  0  9G14G32G24G01G18G27G11G10G08
 115959922.32648  90358387.85646  22066426.694                    22066425.886
  22066427.177          48.750          38.000
 107784978.78449  83988315.63649  20510784.327    20510787.399    20510784.714
  20510787.055          57.000          54.000
 121142730.92847  94396940.09147  23052682.234    23052686.347    23052682.794
  23052686.023          45.250          45.000
 125915112.47146  98115668.43347  23960847.962    23960852.657    23960848.231
  23960852.231          41.500          42.000
 116922079.99848  91108139.20246  22249522.498                    22249521.911
  22249522.043          48.750          36.250
 125364397.71947  97686544.41747  23856051.605    23856055.184    23856050.215
  23856054.898          42.250          42.000
 119495331.93847  93113249.17445  22739204.789                    22739203.782
  22739204.879          45.500          31.750
 107616445.88849  83856986.45549  20478717.409    20478719.908    20478717.531
  20478720.146          56.250          54.000
 120591430.72447  93967347.26747  22947780.740    22947784.325    22947780.643
  22947783.624          46.250          45.000
 16 10  6  0 26  0.0000000  0  9G14G32G24G01G18G27G11G10G08
 115878489.37448  90294933.64646  22050930.748                    22050930.370
  22050931.104          49.250          37.750
 107749484.64449  83960657.87349  20504030.190    20504033.109    20504030.468
  20504032.808          57.000          54.000
 121187136.54747  94431541.86547  23061132.846    23061136.413    23061132.139
  23061135.853          45.250          45.000
 125812614.06746  98035799.56647  23941343.275    23941347.403    23941342.906
  23941347.135          41.500          42.000
 116990854.03748  91161729.35246  22262610.312                    22262608.946
  22262610.303          48.500          36.000
 125462126.81947  97762696.93447  23874647.982    23874652.602    23874648.081
  23874651.903          42.250          42.000
 119423112.91247  93056974.64745  22725462.360                    22725461.380
  22725461.894          46.000          31.000
 107646237.51249  83880200.70949  20484386.717    20484388.947    20484386.659
  20484389.302          56.250          54.000
 120639009.73747  94004421.79847  22956834.925    22956839.094    22956834.795
  22956838.354          46.000          45.000
 16 10  6  0 26 30.0000000  0  9G14G32G24G01G18G27G11G10G08
 115797384.29248  90231734.91246  22035496.832                    22035496.564
  22035496.750          49.250          37.750
 107714489.68049  83933389.07849  20497370.867    20497373.713    20497371.111
  20497373.483          57.000          54.000
 121232103.41247  94466580.97947  23069688.831    23069693.058    23069689.512
  23069693.115          45.000          45.000
 125710308.51046  97956080.97147  23921875.368    23921878.834    23921874.672
  23921879.030          41.500          42.000
 117059836.42648  91215481.85946  22275737.240                    22275735.986
  22275736.954          49.000          36.000
 125560040.65246  97838993.37246  23893281.735    23893285.521    23893279.435
  23893284.383          41.750          41.000
 119351388.53047  93001085.54645  22711813.190                    22711812.621
  22711813.503          46.500          31.750
 107676394.61249  83903699.74249  20490125.282    20490127.653    20490125.387
  20490128.008          55.750          54.000
 120687092.32947  94041888.72747  22965985.274    22965988.772    22965984.746
  22965988.016          46.250          46.000
 16 10  6  0 27  0.0000000  0  9G14G32G24G01G18G27G11G10G08
 115716608.22248  90168792.57046  22020125.443                    22020125.276
  22020125.859          49.000          38.000
 107679994.25949  83906509.53849  20490806.787    20490809.619    20490806.788
  20490809.193          56.750          54.000
 121277629.62847  94502055.95147  23078353.383    23078356.249    23078353.151
  23078356.412          45.000          45.000
 125608198.23646  97876514.54547  23902444.502    23902447.913    23902443.827
  23902448.656          41.250          43.000
 117129026.74448  91269396.37745  22288903.247                    22288902.496
  22288903.404          48.500          35.750
 125658136.07746  97915431.34546  23911947.599    23911950.425    23911947.188
  23911951.293          41.000          39.000
 119280161.29647  92945583.81445  22698259.484                    22698259.056
  22698258.920          46.500          31.500
 107706916.87749  83927483.33049  20495933.678    20495935.964    20495933.477
  20495935.963          56.250          54.000
 120735676.09947  94079746.19547  22975230.208    22975234.546    22975229.465
  22975233.558          46.500          46.000
 16 10  6  0 27 30.0000000  0  9G14G32G24G01G18G27G11G10G08
 115636162.64248  90106107.73646  22004817.317                    22004816.599
  22004817.089          49.000          38.000
 107645998.72949  83880019.52349  20484337.497    20484340.253    20484337.787
  20484340.020          56.500          54.000
 121323713.99747  94537965.84647  23087122.796    23087126.167    23087122.812
  23087126.356          44.750          45.000
 125506285.70446  97797102.21247  23883050.850    23883054.665    23883050.526
  23883054.409          41.750          43.000
 117198424.65848  91323472.67445  22302109.253                    22302108.436
  22302108.965          48.750          35.750
 125756410.03847  97992008.43346  23930649.125    23930652.398    23930648.002
  23930652.921          42.250          41.000
 119209433.57547  92890471.30845  22684799.829                    22684799.444
  22684800.541          46.500          31.500
 107737803.97449  83951551.19549  20501811.206    20501813.478    20501811.065
  20501813.707          56.000          54.000
 120784759.03847  94117992.62647  22984570.424    22984574.326    22984570.670
  22984573.115          46.250          46.000
 16 10  6  0 28  0.0000000  0  9G14G32G24G01G18G27G11G10G08
 115556048.67848  90043681.31646  21989572.009                    21989571.556
  21989571.635          49.000          38.000
 107612503.41949  83853919.28949  20477963.573    20477966.641    20477963.840
  20477966.107          56.500          55.000
 121370355.10947  94574309.57147  23095998.081    23096001.839    23095998.179
  23096001.920          45.000          45.000
 125404573.28547  97717845.83047  23863695.757    23863699.071    23863695.865
  23863699.481          42.250          43.000
 117268029.19248  91377709.97045  22315354.524                    22315353.725
  22315353.986          48.000          35.750
 125854859.39146  98068722.19546  23949382.504    23949387.633    23949382.193
  23949386.080          41.250          41.000
 119139207.89047  92835750.02845  22671436.424                    22671435.897
  22671436.362          46.000          31.750
 107769055.53149  83975903.06349  20507758.256    20507760.573    20507758.133
  20507760.716          55.750          54.000
 120834338.87247  94156626.23447  22994004.685    22994008.577    22994004.682
  22994008.312          46.250          45.000
 16 10  6  0 28 30.0000000  0  9G14G32G24G01G18G27G11G10G08
 115476268.01948  89981514.60646  21974390.023                    21974389.572
  21974390.216          49.000          38.250
 107579508.62849  83828209.07249  20471684.930    20471687.619    20471685.271
  20471687.414          56.500          54.000
 121417550.75547  94611085.39547  23104979.500    23104982.257    23104979.071
  23104982.255          45.500          45.000
 125303063.42547  97638747.26547  23844378.305    23844383.512    23844378.925
  23844382.974          42.500          43.000
 117337840.09448  91432108.05746  22328639.214                    22328638.486
  22328638.544          48.500          36.000
 125953481.01146  98145570.15447  23968150.889    23968154.401    23968149.355
  23968153.492          40.750          42.000
 119069486.54947  92781421.71345  22658169.074                    22658168.462
  22658168.466          46.750          31.000
 107800671.24249  84000538.67849  20513774.440    20513776.782    20513774.365
  20513776.986          56.000          54.000
 120884413.69347  94195645.56047  23003533.757    23003537.668    23003534.385
  23003536.824          46.000          45.000
 16 10  6  0 29  0.0000000  0  9G14G32G24G01G18G27G11G10G08
 115396822.08948  89919608.72946  21959272.326                    21959271.530
  21959272.329          49.250          38.500
 107547014.65449  83802889.10049  20465501.515    20465504.335    20465501.869
  20465503.901          56.500          54.000
 121465299.98747  94648292.58147  23114065.507    23114069.101    23114065.241
  23114068.964          44.500          45.000
 125201758.53447  97559808.42047  23825100.582    23825104.729    23825100.814
  23825104.578          42.250          43.000
 117407856.75248  91486666.48246  22341962.758                    22341962.298
  22341962.836          48.250          36.000
 126052271.87846  98222549.99447  23986950.736    23986954.556    23986949.438
  23986953.028          40.750          42.000
 119000271.93947  92727488.27245  22644998.195                    22644997.297
  22644997.746          46.000          31.750
 107832650.71249  84025457.74949  20519859.890    20519862.225    20519859.927
  20519862.509          56.500          54.000
 120934981.40147  94235048.94547  23013157.370    23013160.605    23013157.149
  23013159.766          46.500          45.000
 16 10  6  0 29 30.0000000  0  9G14G32G24G01G18G27G11G10G08
 115317711.97248  89857964.51946  21944218.152                    21944217.437
  21944217.986          50.000          38.500
 107515021.80149  83777959.60949  20459413.397    20459416.032    20459413.618
  20459415.856          55.750          54.000
 121513600.70747  94685929.50847  23123256.624    23123260.531    23123257.071
  23123259.809          44.250          45.000
 125100661.04946  97481031.18647  23805862.435    23805865.992    23805862.637
  23805867.100          41.750          43.000
 117478078.63347  91541384.81045  22355325.302                    22355324.617
  22355325.347          47.750          35.750
 126151228.81146  98299659.24347  24005780.555    24005785.560    24005780.237
  24005785.391          40.500          43.000
 118931566.30547  92673951.41345  22631923.890                    22631923.284
  22631923.261          47.000          32.750
 107864993.61649  84050660.01749  20526014.380    20526016.885    20526014.376
  20526017.095          55.500          54.000
 120986039.38147  94274834.35847  23022872.592    23022876.568    23022872.162
  23022875.834          46.000          45.000
 16 10  6  0 30  0.0000000  0  9G14G32G24G01G18G27G11G10G08
 115238939.03248  89796583.04246  21929227.817                    21929227.571
  21929228.387          49.750          38.500
 107483530.32749  83753420.80649  20453420.975    20453423.672    20453421.136
  20453423.212          56.500          55.000
 121562451.55147  94723995.09147  23132551.891    23132556.355    23132552.356
  23132555.776          43.500          45.000
 124999773.40246  97402417.48347  23786664.722    23786668.032    23786664.470
  23786668.625          41.750          43.000
 117548505.25248  91596262.67845  22368727.781                    22368726.908
  22368726.960          48.500          35.500
 126250348.74646  98376895.49747  24024642.952    24024647.373    24024642.395
  24024647.367          40.250          44.000
 118863372.28347  92620813.23045  22618947.389                    22618946.620
  22618946.185          47.000          33.250
 107897699.59949  84076145.19449  20532238.403    20532240.740    20532238.238
  20532240.866          55.500          54.000
 121037585.43147  94315000.10247  23032681.909    23032685.620    23032681.524
  23032684.816          46.250          45.000
 16 10  6  0 30 30.0000000  0  9G14G32G24G01G18G27G11G10G08
 115160504.51648  89735465.26946  21914302.180                    21914301.870
  21914302.614          49.750          38.750
 107452540.49149  83729272.88649  20447523.677    20447526.393    20447524.014
  20447526.157          56.000          54.000
 121611850.63147  94762487.87947  23141953.630    23141956.661    23141952.977
  23141956.505          44.000          45.000
 124899098.02947  97323969.18647  23767506.906    23767510.099    23767506.947
  23767511.150          42.500          43.000
 117619135.96848  91651299.58145  22382168.340                    22382167.209
  22382167.425          48.500          35.500
 126349628.56546  98454256.32047  24043534.585    24043538.813    24043533.704
  24043539.014          40.000          44.000
 118795691.89847  92568075.29645  22606067.816                    22606067.766
  22606067.559          46.750          32.500
 107930768.28449  84101913.00649  20538531.101    20538533.318    20538531.174
  20538533.688          55.500          54.000
 121089617.34647  94355544.43347  23042583.196    23042586.839    23042582.788
  23042586.097          46.000          45.000
 16 10  6  0 31  0.0000000  0  9G14G32G24G01G18G27G11G10G08
 115082409.90448  89674612.35946  21899441.499                    21899440.792
  21899441.593          50.000          38.750
 107422052.53149  83705516.03449  20441722.015    20441724.845    20441722.334
  20441724.492          56.250          54.000
 121661796.19647  94801406.48247  23151457.258    23151460.946    23151456.921
  23151460.976          43.750          45.000
 124798637.38547  97245688.19247  23748389.484    23748393.379    23748389.889
  23748393.541          42.500          43.000
 117689970.18748  91706495.05145  22395647.201                    22395646.661
  22395647.030          48.250          35.000
 126449065.19746  98531739.35347  24062456.918    24062461.542    24062456.599
  24062461.717          40.000          44.000
 118728527.53547  92515739.44345  22593286.992                    22593286.773
  22593286.531          47.500          33.500
 107964199.31249  84127963.15849  20544892.981    20544895.102    20544892.924
  20544895.394          56.000          54.000
 121142133.49647  94396466.08047  23052576.553    23052580.066    23052576.164
  23052579.371          45.750          45.000
 16 10  6  0 31 30.0000000  0  9G14G32G24G01G18G27G11G10G08
 115004656.15548  89614025.05246  21884645.034                    21884644.869
  21884645.284          50.250          38.500
 107392066.67749  83682150.44049  20436015.717    20436018.650    20436016.014
  20436018.314          55.500          55.000
 121712286.25147  94840749.39547  23161065.982    23161069.056    23161065.420
  23161068.986          44.500          45.000
 124698393.88847  97167576.40647  23729313.545    23729317.635    23729313.513
  23729317.532          42.500          43.000
 117761007.66748  91761848.92945  22409164.903                    22409164.240
  22409165.169          48.250          35.000
 126548655.51946  98609342.11947  24081408.038    24081413.268    24081407.888
  24081413.277          40.500          45.000
 118661881.70547  92463807.62545  22580604.694                    22580603.747
  22580603.802          47.750          33.250
 107997992.30749  84154295.36349  20551323.499    20551325.684    20551323.378
  20551325.937          55.500          54.000
 121195130.82647  94437762.67247  23062661.929    23062665.118    23062661.674
  23062664.220          46.250          45.000
 16 10  6  0 32  0.0000000  0  9G14G32G24G01G18G27G11G10G08
 114927244.74948  89553704.50346  21869914.205                    21869913.559
  21869914.698          50.000          39.250
 107362583.12549  83659176.25249  20430405.339    20430408.045    20430405.508
  20430407.873          55.500          54.000
 121763319.97647  94880515.92747  23170776.608    23170779.934    23170776.354
  23170780.698          43.250          44.000
 124598370.05047  97089635.78247  23710279.595    23710283.723    23710279.111
  23710284.186          42.750          44.000
 117832247.86048  91817360.74645  22422721.785                    22422721.252
  22422721.729          48.000          35.000
 126648396.39546  98687062.24847  24100388.778    24100393.809    24100388.652
  24100393.266          41.750          44.000
 118595756.65447  92412281.61845  22568021.756                    22568021.004
  22568021.379          47.250          33.250
 108032146.90949  84180909.34149  20557822.670    20557824.968    20557822.719
  20557825.387          55.250          54.000
 121248607.64747  94479432.89047  23072837.576    23072842.346    23072837.461
  23072841.305          45.250          46.000
 16 10  6  0 32 30.0000000  0  9G14G32G24G01G18G27G11G10G08
 114850176.97148  89493651.71446  21855248.903                    21855248.200
  21855248.930          50.500          39.000
 107333602.10149  83636593.64749  20424890.420    20424893.317    20424890.590
  20424892.745          55.500          55.000
 121814894.46447  94920703.84847  23180591.253    23180594.664    23180591.043
  23180594.203          44.250          45.000
 124498568.27447  97011868.20647  23691287.448    23691292.100    23691288.164
  23691292.695          43.000          44.000
 117903690.30148  91873030.17945  22436316.764                    22436315.968
  22436316.864          48.000          35.000
 126748284.86747  98764897.34847  24119397.365    24119401.695    24119397.378
  24119401.108          42.000          44.000
 118530154.68747  92361163.22645  22555537.413                    22555537.041
  22555537.704          47.000          33.500
 108066662.74549  84207804.79849  20564391.065    20564393.379    20564390.912
  20564393.407          55.500          54.000
 121302561.40347  94521474.76447  23083104.509    23083109.080    23083104.913
  23083108.720          45.500          46.000
 16 10  6  0 33  0.0000000  0  9G14G32G24G01G18G27G11G10G08
 114773454.06148  89433867.65346  21840648.980                    21840648.399
  21840649.313          50.500          39.250
 107305123.75549  83614402.73549  20419471.020    20419474.151    20419471.392
  20419473.596          56.000          55.000
 121867008.89647  94961312.50347  23190507.037    23190512.269    23190507.688
  23190511.970          43.250          46.000
 124398991.05747  96934275.62247  23672339.462    23672343.376    23672339.024
  23672343.029          43.000          44.000
 117975334.02147  91928856.43445  22449950.104                    22449949.410
  22449950.232          47.750          35.000
 126848317.71847  98842844.96447  24138432.608    24138438.025    24138432.769
  24138436.490          42.250          44.000
 118465077.87247  92310454.04645  22543153.911                    22543153.742
  22543153.959          47.000          33.750
 108101539.42949  84234981.43849  20571027.594    20571030.102    20571027.750
  20571030.348          55.750          54.000
 121356989.86047  94563886.52747  23093461.786    23093466.932    23093461.477
  23093465.921          45.250          46.000
 16 10  6  0 33 30.0000000  0  9G14G32G24G01G18G27G11G10G08
 114697077.46748  89374353.44846  21826115.238                    21826114.417
  21826115.362          50.500          39.500
 107277148.24249  83592603.64549  20414147.643    20414150.204    20414147.819
  20414150.072          55.500          54.000
 121919660.79747  95002339.95047  23200527.793    23200530.841    23200527.137
  23200531.516          44.250          45.000
 124299640.82146  96856859.88447  23653432.863    23653437.224    23653433.483
  23653437.910          41.750          44.000
 118047178.80048  91984839.36645  22463621.945                    22463621.106
  22463621.723          48.250          34.750
 126948491.94747  98920902.74147  24157495.836    24157499.215    24157495.253
  24157499.489          42.500          42.000
 118400528.60447  92260155.93045  22530870.728                    22530870.122
  22530870.349          47.000          33.500
 108136776.56549  84262438.94849  20577733.467    20577735.433    20577733.196
  20577735.733          55.250          54.000
 121411890.22547  94606666.00247  23103910.174    23103913.427    23103909.258
  23103913.243          45.500          45.000
 16 10  6  0 34  0.0000000  0  9G14G32G24G01G18G27G11G10G08
 114621048.30748  89315109.97746  21811647.267                    21811646.580
  21811647.337          50.750          39.750
 107249675.73149  83571196.50249  20408919.764    20408922.493    20408920.046
  20408922.155          55.500          55.000
 121972848.72347  95043785.07347  23210647.835    23210652.782    23210648.842
  23210652.458          43.500          46.000
 124200520.08947  96779622.99847  23634570.796    23634574.921    23634571.646
  23634575.452          42.500          43.000
 118119223.87948  92040978.37545  22477331.588                    22477331.389
  22477331.389          48.250          34.750
 127048804.42347  98999068.24747  24176584.381    24176588.690    24176584.827
  24176588.134          42.500          42.000
 118336509.23947  92210270.72245  22518688.117                    22518687.812
  22518688.404          47.000          34.250
 108172373.78249  84290177.04049  20584507.159    20584509.367    20584507.148
  20584509.652          54.750          54.000
 121467260.73247  94649811.83747  23114445.588    23114450.380    23114445.613
  23114449.877          44.500          45.000
 16 10  6  0 34 30.0000000  0  9G14G32G24G01G18G27G11G10G08
 114545367.60648  89256138.02246  21797245.319                    21797244.947
  21797246.020          50.750          39.500
 107222706.32349  83550181.39149  20403787.683    20403790.483    20403787.938
  20403790.125          55.250          55.000
 122026570.71347  95085646.35047  23220871.090    23220875.000    23220871.083
  23220875.784          43.500          45.000
 124101631.30447  96702566.80847  23615753.572    23615757.271    23615753.224
  23615757.685          44.000          43.000
 118191468.93948  92097273.20445  22491080.061                    22491078.813
  22491079.035          48.250          34.750
 127149252.05347  99077339.08746  24195698.527    24195702.353    24195699.547
  24195701.886          42.250          41.000
 118273021.77647  92160799.99545  22506606.425                    22506606.565
  22506606.913          47.000          34.000
 108208330.68049  84318195.40449  20591349.626    20591351.783    20591349.520
  20591352.092          54.500          54.000
 121523098.77447  94693321.98247  23125072.033    23125075.443    23125071.930
  23125075.315          45.500          44.000
 16 10  6  0 35  0.0000000  0 10G14G32G24G01G18G22G27G11G10G08
 114470036.73548  89197438.66246  21782910.477                    21782910.106
  21782910.689          50.750          39.500
 107196240.15649  83529558.41049  20398751.134    20398753.968    20398751.502
  20398753.756          55.750          55.000
 122080824.87747  95127922.31647  23231196.118    23231198.924    23231196.123
  23231199.222          43.750          45.000
 124002976.99047  96625693.34747  23596980.242    23596983.719    23596979.854
  23596983.717          43.750          43.000
 118263913.45647  92153723.46545  22504865.555                    22504864.528
  22504864.694          47.750          34.500
 132914867.64346 103570026.67743  25292857.400                    25292856.519
  25292856.503          39.000          18.500
 127249831.78846  99155712.86146  24214837.828    24214841.831    24214839.398
  24214841.835          41.750          40.000
 118210068.65747  92111745.63145  22494627.384                    22494627.183
  22494627.064          47.500          34.000
 108244646.90149  84346493.75449  20598260.178    20598262.451    20598260.232
  20598262.759          54.750          54.000
 121579401.97747  94737194.58247  23135786.077    23135789.737    23135786.781
  23135789.762          45.500          45.000
 16 10  6  0 35 30.0000000  0 10G14G32G24G01G18G22G27G11G10G08
 114395056.83548  89139012.78646  21768642.751                    21768641.742
  21768642.384          51.000          39.500
 107170277.33749  83509327.64649  20393810.670    20393813.451    20393810.925
  20393813.208          54.750          55.000
 122135609.45847  95170611.61147  23241621.107    23241624.265    23241621.080
  23241624.563          44.000          45.000
 123904559.56547  96549004.48347  23578252.353    23578255.873    23578251.500
  23578255.648          44.250          44.000
 118336556.83847  92210328.67545  22518688.350                    22518687.845
  22518688.522          47.500          33.750
 132819367.40646 103495610.93042  25274683.438                    25274680.974
  25274682.221          39.500          17.250
 127350540.54546  99234187.19846  24234002.617    24234006.724    24234002.443
  24234007.281          40.500          40.000
 118147652.06447  92063109.34445  22482749.749                    22482749.098
  22482749.566          46.750          33.750
 108281321.99849  84375071.75449  20605239.230    20605241.615    20605239.310
  20605241.744          54.500          54.000
 121636168.15547  94781427.94747  23146587.993    23146591.997    23146588.233
  23146591.128          44.000          44.000
 16 10  6  0 36  0.0000000  0 10G14G32G24G01G18G22G27G11G10G08
 114320429.28248  89080861.46646  21754441.096                    21754440.543
  21754440.992          50.750          39.500
 107144817.94249  83489489.16749  20388965.970    20388968.716    20388966.165
  20388968.367          55.000          55.000
 122190922.49247  95213712.66947  23252146.821    23252150.900    23252147.516
  23252150.511          43.250          45.000
 123806381.56347  96472502.17047  23559569.141    23559572.110    23559569.018
  23559572.777          44.000          43.000
 118409398.65548  92267088.50445  22532550.613                    22532549.098
  22532550.107          48.250          34.250
 132723874.74846 103421201.10342  25256511.667                    25256510.414
  25256509.593          39.500          16.250
 127451375.24246  99312759.63846  24253191.025    24253194.846    24253190.278
  24253194.851          39.500          39.000
 118085774.03947  92014892.71245  22470974.680                    22470974.136
  22470974.576          47.250          34.000
 108318355.58749  84403929.09449  20612286.700    20612288.666    20612286.465
  20612289.164          54.500          54.000
 121693394.69847  94826020.04047  23157478.212    23157482.087    23157477.002
  23157481.176          44.250          44.000
 16 10  6  0 36 30.0000000  0 10G14G32G24G01G18G22G27G11G10G08
 114246155.10548  89022985.49746  21740307.240                    21740306.705
  21740307.460          50.500          39.750
 107119862.05549  83470043.02849  20384216.895    20384219.914    20384217.163
  20384219.551          55.250          55.000
 122246762.18647  95257224.10547  23262772.714    23262776.522    23262772.476
  23262775.917          44.000          44.000
 123708445.40447  96396188.30347  23540931.574    23540936.396    23540932.173
  23540936.543          42.500          43.000
 118482438.14947  92324002.39145  22546448.874                    22546448.285
  22546449.470          47.750          34.000
 132628390.21946 103346797.66143  25238341.874                    25238341.716
  25238342.073          41.000          18.500
 127552332.79046  99391427.83446  24272401.975    24272406.036    24272402.532
  24272404.641          39.000          39.000
 118024436.68947  91967097.38545  22459302.791                    22459302.563
  22459302.291          47.250          34.250
 108355747.27249  84433065.46849  20619402.044    20619404.319    20619402.034
  20619404.403          54.500          54.000
 121751079.02847  94870968.86847  23168454.994    23168458.814    23168454.571
  23168458.524          44.750          44.000
 16 10  6  0 37  0.0000000  0 10G14G32G24G01G18G22G27G11G10G08
 114172235.61948  88965385.90846  21726240.611                    21726240.033
  21726240.493          51.000          39.750
 107095409.71749  83450989.26249  20379563.840    20379566.482    20379564.044
  20379566.378          55.000          55.000
 122303126.50947  95301144.36147  23273498.928    23273501.725    23273498.520
  23273501.423          44.000          45.000
 123610753.64147  96320064.88647  23522342.449    23522344.721    23522342.247
  23522346.066          44.000          42.000
 118555674.96348  92381070.01245  22560385.908                    22560385.348
  22560385.387          48.500          34.000
 132532914.55346 103272401.10843  25220175.482                    25220172.694
  25220171.883          40.750          19.000
 127653410.15846  99470189.36146  24291637.313    24291640.600    24291635.504
  24291640.927          38.000          40.000
 117963642.33247  91919725.17845  22447734.060                    22447733.887
  22447733.895          47.250          33.500
 108393496.62148  84462480.54749  20626585.388    20626587.662    20626585.273
  20626587.919          53.750          54.000
 121809219.08447  94916272.78847  23179519.377    23179522.874    23179517.961
  23179521.888          45.000          44.000
 16 10  6  0 37 30.0000000  0 10G14G32G24G01G18G22G27G11G10G08
 114098671.99848  88908063.63046  21712242.261                    21712241.700
  21712241.930          51.000          40.000
 107071460.95649  83432327.89549  20375006.498    20375009.173    20375006.743
  20375008.979          54.750          55.000
 122360013.52347  95345471.90147  23284323.639    23284327.341    23284323.810
  23284327.052          42.500          45.000
 123513308.78647  96244133.86947  23503799.326    23503802.913    23503799.092
  23503801.984          44.000          43.000
 118629108.51347  92438290.95245  22574359.215                    22574358.928
  22574359.226          47.500          34.000
 132437448.49246 103198012.04042  25202005.843                    25202004.711
  25202005.755          37.750          17.500
 127754604.27846  99549041.84646  24310892.150    24310896.015    24310892.968
  24310896.329          37.250          39.000
 117903393.32947  91872777.89945  22436269.415                    22436268.494
  22436268.603          47.500          33.250
 108431603.24648  84492174.01849  20633836.818    20633839.099    20633836.750
  20633839.320          53.500          54.000
 121867812.20647  94961929.75247  23190668.476    23190673.010    23190667.797
  23190672.231          43.750          45.000
 16 10  6  0 38  0.0000000  0 10G14G32G24G01G18G22G27G11G10G08
 114025465.25648  88851019.43746  21698311.088                    21698310.821
  21698311.527          51.000          40.000
 107048015.81649  83414058.96149  20370545.053    20370547.898    20370545.324
  20370547.503          55.250          55.000
 122417421.52547  95390205.39947  23295247.573    23295251.797    23295247.964
  23295251.429          42.750          45.000
 123416113.33647  96168397.16047  23485303.175    23485306.247    23485302.919
  23485307.493          44.500          42.000
 118702738.17147  92495664.69545  22588371.072                    22588370.574
  22588371.286          47.750          33.750
 132341992.74045 103123631.01842  25183840.372                    25183839.306
  25183841.096          35.750          17.750
 127855912.00346  99627982.89246  24330172.018    24330175.433    24330171.777
  24330175.921          38.500          40.000
 117843691.34647  91826256.87845  22424908.073                    22424907.728
  22424907.872          47.500          33.500
 108470066.72948  84522145.56549  20641156.131    20641158.436    20641156.207
  20641158.642          53.750          54.000
 121926855.87047  95007937.78447  23201904.834    23201908.324    23201903.879
  23201907.334          45.000          44.000
 16 10  6  0 38 30.0000000  0 10G14G32G24G01G18G22G27G11G10G08
 113952616.61148  88794254.28346  21684448.584                    21684448.168
  21684448.367          51.250          40.000
 107025074.29649  83396182.45949  20366179.597    20366182.274    20366179.763
  20366181.821          54.750          55.000
 122475348.09147  95435342.98347  23306271.204    23306274.396    23306271.027
  23306274.235          42.000          44.000
 123319169.70647  96092856.66947  23466855.077    23466859.246    23466855.747
  23466859.313          44.250          43.000
 118776563.25147  92553190.72845  22602419.180                    22602418.461
  22602419.170          47.500          33.750
 132246547.78646 103049258.37643  25165679.607                    25165678.724
  25165677.355          39.000          19.250
 127957330.32646  99707010.12347  24349470.741    24349476.179    24349470.013
  24349475.706          37.500          43.000
 117784538.70747  91780163.92245  22413651.353                    22413650.807
  22413651.961          47.250          33.250
 108508886.65048  84552394.85549  20648543.384    20648545.812    20648543.334
  20648546.037          53.250          54.000
 121986347.67147  95054294.99247  23213224.839    23213228.635    23213224.880
  23213227.611          44.000          44.000
 16 10  6  0 39  0.0000000  0 10G14G32G24G01G18G22G27G11G10G08
 113880127.25548  88737769.08446  21670654.498                    21670653.861
  21670654.203          51.500          40.000
 107002636.43349  83378698.41749  20361909.871    20361912.463    20361910.011
  20361912.145          55.000          55.000
 122533791.58147  95480883.36247  23317392.335    23317395.576    23317392.635
  23317395.997          42.250          44.000
 123222480.50147  96017514.47947  23448455.888    23448460.522    23448455.967
  23448459.946          44.500          43.000
 118850583.32447  92610868.67245  22616504.406                    22616504.115
  22616504.575          47.250          33.500
 132151114.47646 102974894.85843  25147520.047                    25147518.510
  25147518.457          39.500          19.750
 128058856.26646  99786121.15247  24368789.700    24368796.678    24368790.475
  24368795.030          37.000          43.000
 117725937.56247  91734500.71845  22402500.196                    22402499.593
  22402499.610          47.500          33.250
 108548062.59348  84582921.56849  20655998.522    20656000.520    20655998.336
  20656000.861          53.500          54.000
 122046285.10047  95100999.46747  23224631.121    23224635.132    23224631.136
  23224634.443          44.250          44.000
 16 10  6  0 39 30.0000000  0 10G14G32G24G01G18G22G27G11G10G08
 113807998.31248  88681564.73646  21656928.658                    21656928.085
  21656928.443          51.500          40.500
 106980702.14849  83361606.77549  20357735.753    20357738.569    20357735.995
  20357738.118          55.250          55.000
 122592749.89647  95526824.90647  23328611.799    23328615.720    23328611.819
  23328615.578          43.000          44.000
 123126048.19547  95942372.44047  23430106.062    23430109.115    23430105.661
  23430109.332          44.500          43.000
 118924797.97747  92668698.25945  22630627.532                    22630626.927
  22630628.169          47.750          33.750
 132055693.73146 102900541.11743  25129361.809                    25129359.773
  25129361.885          40.500          18.500
 128160486.61646  99865313.58447  24388130.947    24388134.361    24388130.501
  24388134.967          38.250          42.000
 117667889.86548  91689268.73945  22391454.175                    22391454.228
  22391453.863          48.250          34.250
 108587594.10448  84613725.34149  20663521.162    20663523.292    20663520.896
  20663523.520          53.750          54.000
 122106665.79147  95148049.34247  23236120.882    23236125.426    23236120.778
  23236125.054          43.750          44.000
 16 10  6  0 40  0.0000000  0 10G14G32G24G01G18G22G27G11G10G08
 113736231.17948  88625642.31246  21643271.699                    21643271.184
  21643271.850          51.250          40.250
 106959271.44649  83344907.53349  20353657.713    20353660.368    20353657.853
  20353659.999          54.750          55.000
 122652220.69746  95573165.76647  23339928.619    23339932.746    23339928.927
  23339932.389          41.250          44.000
 123029875.28047  95867432.52147  23411804.965    23411807.844    23411805.109
  23411809.122          44.750          42.000
 118999206.14747  92726678.63145  22644787.049                    22644786.796
  22644786.775          47.750          34.000
 131960286.47246 102826197.84743  25111204.176                    25111203.762
  25111204.254          39.250          19.000
 128262218.42246  99944585.08247  24407489.855    24407494.121    24407489.085
  24407493.602          38.500          43.000
 117610397.80147  91644469.73245  22380513.185                    22380513.003
  22380513.268          47.750          34.000
 108627480.77148  84644805.86349  20671111.045    20671113.601    20671111.055
  20671113.678          53.250          54.000
 122167486.87847  95195442.38447  23247694.942    23247699.449    23247694.348
  23247698.110          43.000          44.000
 16 10  6  0 40 30.0000000  0 10G14G32G24G01G18G22G27G11G10G08
 113664826.64748  88570002.43146  21629683.981                    21629683.443
  21629683.964          51.500          40.250
 106938344.27949  83328600.65249  20349675.199    20349677.926    20349675.453
  20349677.736          54.750          55.000
 122712202.40247  95619904.76147  23351343.529    23351346.680    23351343.385
  23351346.358          43.000          44.000
 122933964.29147  95792696.72147  23393552.435    23393557.710    23393552.405
  23393557.345          43.250          44.000
 119073807.67547  92784809.66945  22658983.500                    22658982.768
  22658983.181          47.500          33.500
 131864892.87646 102751865.24243  25093052.078                    25093050.788
  25093050.912          40.250          20.250
 128364048.62546 100023933.23646  24426867.555    24426870.056    24426866.987
  24426870.731          38.500          41.000
 117553463.10948  91600105.05845  22369679.862                    22369678.894
  22369678.949          48.000          34.000
 108667721.98748  84676162.65649  20678768.610    20678771.003    20678768.693
  20678771.391          53.250          54.000
 122228746.15247  95243176.85147  23259352.306    23259356.506    23259352.022
  23259355.386          45.000          44.000
 16 10  6  0 41  0.0000000  0 10G14G32G24G01G18G22G27G11G10G08
 113593786.06948  88514646.16046  21616165.342                    21616164.940
  21616165.271          51.500          40.500
 106917920.56649  83312686.07549  20345788.659    20345791.581    20345788.911
  20345791.211          54.250          55.000
 122772692.87747  95667040.20047  23362854.072    23362857.660    23362853.751
  23362858.369          42.750          44.000
 122838317.73147  95718166.95447  23375352.490    23375355.825    23375352.758
  23375356.867          44.250          43.000
 119148602.05447  92843090.99845  22673215.797                    22673215.807
  22673215.656          46.500          33.250
 131769513.91747 102677544.02243  25074903.283                    25074902.899
  25074901.114          42.500          22.250
 128465974.20546 100103355.71847  24446263.230    24446267.463    24446263.306
  24446266.821          38.500          43.000
 117497088.15747  91556176.53345  22358951.062                    22358951.120
  22358951.416          47.750          34.500
 108708317.66248  84707795.65049  20686493.763    20686496.193    20686493.695
  20686496.479          52.500          54.000
 122290440.98347  95291250.73147  23271092.926    23271096.687    23271091.727
  23271095.600          45.000          44.000
 16 10  6  0 41 30.0000000  0 10G14G32G24G01G18G22G27G11G10G08
 113523110.47148  88459574.28146  21602716.343                    21602715.645
  21602716.177          51.500          40.750
 106898000.23249  83297163.74049  20341997.907    20342000.797    20341998.168
  20342000.573          54.750          55.000
 122833689.99947  95714570.40047  23374461.150    23374464.812    23374461.455
  23374464.767          42.250          44.000
 122742938.13347  95643845.21147  23357202.860    23357206.816    23357202.662
  23357205.809          44.750          44.000
 119223589.07947  92901522.43445  22687485.887                    22687485.137
  22687485.175          47.250          32.750
 131674150.29747 102603234.76343  25056757.167                    25056755.446
  25056753.810          43.750          23.500
 128567992.01346 100182850.07547  24465676.569    24465681.481    24465675.541
  24465681.091          37.000          43.000
 117441274.86648  91512685.67245  22348331.075                    22348330.634
  22348330.597          48.750          35.250
 108749267.18148  84739704.36749  20694286.449    20694288.541    20694286.230
  20694288.852          53.750          54.000
 122352568.98847  95339662.13747  23282914.969    23282919.345    23282914.981
  23282918.418          45.000          44.000
 16 10  6  0 42  0.0000000  0 10G14G32G24G01G18G22G27G11G10G08
 113452800.69048  88404787.45346  21589336.596                    21589336.206
  21589336.602          51.750          40.750
 106878583.20649  83282033.59949  20338302.931    20338305.597    20338303.205
  20338305.553          55.000          55.000
 122895192.02147  95762494.05347  23386164.345    23386169.086    23386165.369
  23386168.701          42.750          44.000
 122647828.04547  95569733.46547  23339103.879    23339107.308    23339103.661
  23339107.330          45.000          44.000
 119298767.61447  92960103.08245  22701791.574                    22701791.064
  22701791.777          46.500          33.250
 131578802.93747 102528938.12943  25038611.465                    25038611.007
  25038610.488          42.500          23.750
 128670099.07146 100262413.94846  24485106.824    24485110.401    24485106.471
  24485110.169          36.750          41.000
 117386025.13248  91469633.94345  22337817.043                    22337816.546
  22337816.094          48.500          35.250
 108790570.11248  84771888.47249  20702146.027    20702148.296    20702146.035
  20702148.588          53.000          54.000
 122415127.18247  95388408.77847  23294819.457    23294823.461    23294819.343
  23294822.505          45.000          45.000
 16 10  6  0 42 30.0000000  0 10G14G32G24G01G18G22G27G11G10G08
 113382858.08548  88350286.74246  21576026.896                    21576026.661
  21576026.971          51.750          40.750
 106859669.34049  83267295.52749  20334703.932    20334706.725    20334704.017
  20334706.335          54.750          55.000
 122957196.12147  95810808.93047  23397964.200    23397968.137    23397963.583
  23397967.687          43.500          44.000
 122552989.96547  95495833.69147  23321056.381    23321060.492    23321056.312
  23321061.029          45.000          44.000
 119374137.31247  93018832.70545  22716133.591                    22716132.652
  22716134.617          46.000          33.000
 131483472.68746 102454654.83743  25020469.803                    25020470.882
  25020469.747          41.250          22.000
 128772292.42446 100342045.08647  24504553.856    24504558.475    24504553.389
  24504557.361          36.750          42.000
 117331340.93248  91427022.88345  22327411.084                    22327410.568
  22327410.523          48.500          35.000
 108832225.96948  84804347.58149  20710072.963    20710074.770    20710072.858
  20710075.255          53.000          54.000
 122478113.19147  95437488.75347  23306806.094    23306809.217    23306805.400
  23306808.587          45.250          45.000
 16 10  6  0 43  0.0000000  0 10G14G32G24G01G18G22G27G11G10G08
 113313283.68148  88296072.94546  21562787.630                    21562787.122
  21562787.322          51.500          40.750
 106841258.53849  83252949.45549  20331200.448    20331203.130    20331200.597
  20331202.876          54.500          55.000
 123019700.58647  95859513.70447  23409857.860    23409861.384    23409857.755
  23409861.372          42.750          43.000
 122458426.40547  95422147.84347  23303061.902    23303065.520    23303061.683
  23303065.683          44.750          45.000
 119449697.50347  93077710.75845  22730512.379                    22730511.629
  22730512.176          45.000          32.500
 131388160.15346 102380385.31343  25002333.332                    25002331.733
  25002333.052          41.250          23.250
 128874568.98446 100421741.03346  24524016.727    24524020.611    24524015.170
  24524020.860          37.000          41.000
 117277224.34848  91384854.12545  22317113.251                    22317113.178
  22317112.571          48.750          34.500
 108874234.34048  84837081.37849  20718066.411    20718069.160    20718066.731
  20718069.331          53.250          54.000
 122541524.35947  95486900.03447  23318871.510    23318876.441    23318871.614
  23318875.695          44.500          45.000
 16 10  6  0 43 30.0000000  0 10G14G32G24G01G18G22G27G11G10G08
 113244078.41748  88242146.79546  21549617.708                    21549617.503
  21549618.144          51.250          41.000
 106823350.67649  83238995.27949  20327792.643    20327795.568    20327792.776
  20327795.074          54.500          55.000
 123082703.52147  95908606.90647  23421847.673    23421851.324    23421847.144
  23421851.496          43.250          44.000
 122364139.89047  95348677.84847  23285119.090    23285122.948    23285118.925
  23285122.274          44.000          45.000
 119525447.85947  93136736.97145  22744927.469                    22744926.342
  22744927.816          45.250          32.250
 131292866.21646 102306130.30843  24984199.801                    24984197.997
  24984198.780          41.000          23.000
 128976925.69145 100501499.43146  24543495.964    24543497.940    24543493.896
  24543497.681          35.250          40.000
 117223677.03748  91343128.94545  22306923.196                    22306922.685
  22306922.845          49.000          35.250
 108916594.72448  84870089.47349  20726127.573    20726129.904    20726127.482
  20726130.161          52.750          54.000
 122605358.17047  95536640.66147  23331019.241    23331023.498    23331018.902
  23331022.363          44.750          45.000
 16 10  6  0 44  0.0000000  0 11G14G32G24G01G18G22G27G11G10G08G31
 113175243.54148  88188509.24946  21536519.285                    21536518.439
  21536519.575          51.250          41.250
 106805945.55449  83225432.85549  20324480.399    20324483.328    20324480.852
  20324482.923          55.250          55.000
 123146202.21547  95958086.38647  23433930.214    23433933.888    23433930.676
  23433934.011          43.000          43.000
 122270132.97447  95275425.74847  23267231.376    23267234.714    23267230.871
  23267235.223          44.750          46.000
 119601387.43547  93195910.65045  22759377.858                    22759377.577
  22759378.357          44.500          32.250
 131197591.50246 102231890.26643  24966068.947                    24966068.018
  24966068.116          39.500          22.250
 129079359.59645 100581318.00446  24562987.042    24562991.086    24562986.434
  24562991.476          35.750          40.000
 117170701.21548  91301849.09245  22296841.778                    22296841.717
  22296841.464          48.750          35.250
 108959306.70548  84903371.53949  20734255.506    20734257.893    20734255.256
  20734258.036          52.750          54.000
 122669612.07547  95586708.59547  23343246.843    23343250.607    23343246.412
  23343249.674          44.750          44.000
 130951959.51946 102040489.16345  24919332.393    24919334.051    24919330.928
  24919333.619          36.750          34.000
 16 10  6  0 44 30.0000000  0 11G14G32G24G01G18G22G27G11G10G08G31
 113106779.74648  88135160.86746  21523490.948                    21523490.538
  21523490.800          51.250          41.000
 106789043.03649  83212262.06949  20321264.286    20321266.905    20321264.453
  20321266.500          54.250          55.000
 123210194.94347  96007950.82947  23446108.512    23446111.970    23446107.434
  23446111.484          43.000          44.000
 122176408.09647  95202393.41647  23249395.442    23249399.539    23249395.621
  23249400.367          44.750          45.000
 119677515.99847  93255231.58445  22773865.376                    22773864.618
  22773864.523          44.500          32.000
 131102337.40846 102157666.32443  24947942.943                    24947941.938
  24947941.107          39.000          21.750
 129181867.55545 100661194.28846  24582491.290    24582498.509    24582491.362
  24582497.022          33.250          40.000
 117118298.62248  91261015.91945  22286870.329                    22286869.876
  22286869.675          48.750          35.250
 109002369.81148  84936927.19748  20742450.023    20742452.309    20742449.880
  20742452.545          52.000          53.000
 122734283.24147  95637101.69047  23355553.321    23355556.961    23355552.516
  23355556.587          44.500          44.000
 130835136.09346 101949458.07045  24897100.901    24897102.763    24897101.934
  24897102.698          38.250          34.000
 16 10  6  0 45  0.0000000  0 11G14G32G24G01G18G22G27G11G10G08G31
 113038688.46948  88082102.75146  21510533.663                    21510533.148
  21510533.762          51.500          41.000
 106772642.94349  83199482.78249  20318143.342    20318146.275    20318143.693
  20318145.721          55.000          55.000
 123274679.96047  96058198.90047  23458378.536    23458383.060    23458379.172
  23458382.611          42.750          44.000
 122082967.97047  95129582.95847  23231613.924    23231617.741    23231613.511
  23231617.928          44.500          44.000
 119753832.81747  93314699.22945  22788387.636                    22788386.769
  22788387.738          44.750          32.250
 131007103.74446 102083458.30643  24929821.806                    24929819.215
  24929818.952          39.500          21.250
 129284446.68545 100741125.98646  24602014.647    24602018.558    24602012.558
  24602018.159          34.500          40.000
 117066471.17448  91220630.91645  22277007.566                    22277007.600
  22277008.025          48.500          35.250
 109045783.54748  84970756.09049  20750711.409    20750713.790    20750711.421
  20750714.038          53.000          54.000
 122799369.04647  95687817.89547  23367938.333    23367942.014    23367937.434
  23367941.987          45.000          44.000
 130718287.72746 101858407.62745  24874866.013    24874867.287    24874864.425
  24874865.184          38.250          34.000
 16 10  6  0 45 30.0000000  0 11G14G32G24G01G18G22G27G11G10G08G31
 112970970.67248  88029335.66646  21497647.251                    21497646.733
  21497646.987          51.250          41.000
 106756745.07249  83187094.83749  20315118.071    20315120.704    20315118.382
  20315120.521          54.750          55.000
 123339654.53647  96108828.42047  23470743.232    23470747.295    23470743.402
  23470747.415          42.750          44.000
 121989815.01947  95056996.26547  23213887.760    23213890.913    23213887.566
  23213891.950          45.000          44.000
 119830337.22947  93374313.03445  22802946.389                    22802945.558
  22802946.427          43.250          32.500
 130911891.68346 102009267.14843  24911702.583                    24911701.255
  24911701.806          40.000          22.500
 129387093.91145 100821110.80646  24621546.446    24621553.092    24621545.471
  24621552.075          35.000          41.000
 117015220.89248  91180695.65945  22267255.202                    22267255.224
  22267255.175          48.750          35.750
 109089547.48548  85004857.85949  20759039.565    20759041.947    20759039.458
  20759042.043          52.750          54.000
 122864866.93347  95738855.19447  23380401.724    23380406.162    23380401.830
  23380406.465          44.250          44.000
 130601416.75846 101767339.53945  24852625.834    24852626.481    24852625.036
  24852627.200          39.500          35.000
 16 10  6  0 46  0.0000000  0 11G14G32G24G01G18G22G27G11G10G08G31
 112903627.27048  87976860.31346  21484832.295                    21484831.857
  21484832.323          51.250          41.250
 106741349.20249  83175098.06049  20312188.245    20312191.162    20312188.432
  20312190.741          55.000          55.000
 123405116.35247  96159837.63347  23483199.987    23483204.216    23483199.852
  23483203.955          42.750          44.000
 121896951.83447  94984635.38247  23196216.583    23196220.232    23196216.469
  23196220.407          45.250          45.000
 119907028.94547  93434072.78945  22817540.437                    22817539.056
  22817540.466          43.500          32.750
 130816702.12246 101935093.48843  24893587.861                    24893587.811
  24893587.588          40.000          22.500
 129489806.19445 100901146.30946  24641091.552    24641097.625    24641091.636
  24641097.178          34.750          39.000
 116964549.41048  91141211.39445  22257612.795                    22257611.986
  22257612.208          49.000          35.500
 109133661.10848  85039232.10748  20767433.799    20767436.379    20767433.990
  20767436.551          53.000          53.000
 122930774.20347  95790211.48247  23392943.967    23392947.851    23392943.843
  23392946.972          45.000          44.000
 130484526.04846 101676256.03746  24830380.296    24830382.423    24830381.776
  24830383.842          39.750          36.000
 16 10  6  0 46 30.0000000  0 11G14G32G24G01G18G22G27G11G10G08G31
 112836659.43048  87924677.60746  21472088.810                    21472088.145
  21472088.984          51.500          41.250
 106726455.12249  83163492.28849  20309353.851    20309356.767    20309354.162
  20309356.509          54.250          55.000
 123471063.61247  96211225.09347  23495749.369    23495752.921    23495749.841
  23495753.704          43.250          44.000
 121804380.90247  94912502.21847  23178600.730    23178604.687    23178600.506
  23178605.129          45.500          45.000
 119983907.48647  93493978.12245  22832169.105                    22832168.944
  22832169.962          43.000          32.000
 130721535.72946 101860937.89143  24875478.625                    24875477.583
  24875478.837          39.500          22.750
 129592580.63346 100981230.22446  24660649.484    24660652.245    24660649.723
  24660653.573          37.000          37.000
 116914458.56348  91102179.58445  22248080.734                    22248080.780
  22248080.390          49.250          35.750
 109178123.98348  85073878.50148  20775895.008    20775897.321    20775895.073
  20775897.564          52.250          53.000
 122997088.24847  95841884.73647  23405562.644    23405567.764    23405563.079
  23405566.663          44.500          45.000
 130367618.37546 101585159.33746  24808133.951    24808134.376    24808134.370
  24808135.212          39.500          36.000
 16 10  6  0 47  0.0000000  0 11G14G32G24G01G18G22G27G11G10G08G31
 112770068.15248  87872788.32446  21459416.772                    21459416.314
  21459416.720          51.750          41.250
 106712062.58449  83152277.32549  20306615.173    20306617.899    20306615.263
  20306617.629          54.500          55.000
 123537493.89047  96262988.93647  23508390.961    23508394.194    23508391.171
  23508394.439          43.250          44.000
 121712104.77547  94840598.77047  23161041.698    23161044.245    23161041.435
  23161045.016          45.250          44.000
 120060972.07147  93554028.43045  22846835.130                    22846833.960
  22846834.275          44.000          32.000
 130626393.38846 101786801.01944  24857374.169                    24857373.250
  24857372.427          41.000          24.750
 129695414.13946 101061360.18146  24680218.214    24680224.817    24680217.946
  24680223.135          38.000          41.000
 116864950.19948  91063601.65946  22238659.783                    22238659.605
  22238659.553          49.000          36.250
 109222935.59248  85108796.64248  20784422.229    20784424.718    20784422.398
  20784424.750          53.000          53.000
 123063806.31747  95893872.81747  23418259.309    23418262.998    23418258.454
  23418262.886          44.500          45.000
 130250696.65946 101494051.66646  24785884.862    24785887.304    24785883.959
  24785886.102          40.250          37.000
 16 10  6  0 47 30.0000000  0 11G14G32G24G01G18G22G27G11G10G08G31
 112703853.95848  87821192.88046  21446816.574                    21446816.322
  21446816.632          51.500          41.250
 106698171.34849  83141452.99449  20303971.738    20303974.659    20303971.932
  20303974.127          54.250          55.000
 123604404.92347  96315127.39747  23521123.660    23521127.222    23521123.237
  23521127.035          43.250          44.000
 121620125.99147  94768927.01547  23143538.271    23143541.602    23143538.223
  23143541.883          45.000          45.000
 120138222.25147  93614223.36945  22861534.650                    22861533.908
  22861533.691          42.750          31.500
 130531276.32246 101712683.87544  24839274.667                    24839274.155
  24839272.684          41.500          25.500
 129798303.80046 101141533.89946  24699797.006    24699801.951    24699796.488
  24699802.061          36.500          39.000
 116816025.97548  91025478.89545  22229349.985                    22229349.240
  22229349.374          48.750          35.750
 109268095.45748  85143986.14348  20793015.797    20793018.333    20793015.992
  20793018.478          52.000          53.000
 123130925.42147  95946173.39247  23431031.323    23431035.920    23431031.171
  23431036.127          43.750          45.000
 130133763.60246 101402935.12846  24763632.726    24763636.673    24763632.404
  24763635.196          40.250          38.000
 16 10  6  0 48  0.0000000  0 11G14G32G24G01G18G22G27G11G10G08G31
 112638018.02148  87769892.17346  21434288.312                    21434287.994
  21434288.125          51.250          41.750
 106684781.12749  83131019.06249  20301423.743    20301426.516    20301423.987
  20301426.081          55.000          55.000
 123671794.40747  96367638.68947  23533947.063    23533951.361    23533947.763
  23533951.177          43.000          44.000
 121528447.11647  94697488.97547  23126091.752    23126096.301    23126092.098
  23126096.436          44.250          46.000
 120215656.93847  93674562.06745  22876269.450                    22876268.749
  22876270.258          42.500          31.500
 130436184.47146 101638586.40144  24821178.044                    24821177.542
  24821177.689          40.750          24.750
 129901246.56746 101221748.97946  24719386.886    24719393.004    24719385.370
  24719390.921          37.500          40.000
 116767687.90048  90987812.86745  22220151.313                    22220150.728
  22220150.926          48.500          35.500
 109313603.08448  85179446.63348  20801675.710    20801677.981    20801675.767
  20801678.488          53.000          53.000
 123198443.37147  95998784.75547  23443879.062    23443884.674    23443879.042
  23443883.442          43.750          44.000
 130016822.06746 101311811.98146  24741379.546    24741382.360    24741377.968
  24741381.172          40.500          38.000
 16 10  6  0 48 30.0000000  0 11G14G32G24G01G18G22G27G11G10G08G31
 112572561.61748  87718887.20746  21421832.709                    21421831.889
  21421832.483          51.750          41.500
 106671891.64149  83120975.31649  20298970.913    20298973.636    20298971.123
  20298973.326          54.500          55.000
 123739660.31847  96420521.19247  23546861.719    23546865.394    23546861.480
  23546865.657          43.000          44.000
 121437070.64347  94626286.57847  23108703.602    23108708.141    23108703.473
  23108707.256          44.500          46.000
 120293276.02747  93735044.45545  22891040.180                    22891039.430
  22891040.039          42.500          31.000
 130341119.21346 101564509.63343  24803086.951                    24803086.088
  24803087.053          40.250          23.750
 130004239.46146 101302003.11446  24738987.076    24738990.480    24738985.891
  24738989.794          38.750          40.000
 116719937.47347  90950604.75945  22211064.073                    22211064.060
  22211063.812          47.500          35.250
 109359457.99048  85215177.72748  20810401.706    20810403.971    20810401.728
  20810404.227          52.250          53.000
 123266356.95447  96051704.40047  23456803.527    23456807.060    23456802.210
  23456806.864          44.500          44.000
 129899874.73946 101220684.32246  24719125.391    24719127.496    24719123.656
  24719127.286          41.500          38.000
 16 10  6  0 49  0.0000000  0 11G14G32G24G01G18G22G27G11G10G08G31
 112507485.60748  87668178.64646  21409449.100                    21409448.649
  21409448.780          52.000          41.750
 106659502.60449  83111321.52649  20296613.193    20296616.019    20296613.520
  20296615.770          54.750          55.000
 123808000.09647  96473772.96747  23559865.830    23559869.961    23559866.467
  23559869.607          43.000          43.000
 121345999.16047  94555321.81847  23091373.298    23091376.850    23091373.441
  23091376.900          45.750          45.000
 120371078.82347  93795670.00445  22905845.760                    22905844.901
  22905845.969          43.500          30.750
 130246081.55846 101490454.39543  24785002.813                    24785001.955
  24785001.555          40.750          23.750
 130107279.59446 101382294.05646  24758592.557    24758597.959    24758593.607
  24758598.121          37.750          40.000
 116672776.52647  90913855.99045  22202090.218                    22202089.340
  22202089.977          47.750          35.500
 109405659.68148  85251179.04248  20819193.718    20819195.735    20819193.496
  20819196.107          52.250          53.000
 123334663.49547  96104930.23547  23469801.433    23469805.913    23469801.215
  23469805.793          44.500          44.000
 129782924.18546 101129554.15646  24696870.546    24696871.794    24696870.138
  24696871.085          41.750          38.000
 16 10  6  0 49 30.0000000  0 11G14G32G24G01G18G22G27G11G10G08G31
 112442790.74848  87617767.08446  21397137.852                    21397137.429
  21397137.720          52.250          41.750
 106647613.69549  83102057.44749  20294351.026    20294353.764    20294351.221
  20294353.381          55.750          55.000
 123876811.48347  96527392.22047  23572960.489    23572964.906    23572960.823
  23572964.639          42.750          44.000
 121255235.21847  94484596.70247  23074101.253    23074105.038    23074101.484
  23074105.521          45.500          45.000
 120449064.82347  93856438.30845  22920686.381                    22920685.509
  22920686.067          42.500          30.750
 130151072.03346 101416421.06743  24766922.883                    24766921.983
  24766921.576          40.750          23.500
 130210363.86246 101462619.41046  24778210.204    24778215.426    24778209.425
  24778215.640          38.000          41.000
 116626206.79547  90877567.91445  22193228.143                    22193227.802
  22193227.998          47.000          35.250
 109452207.66648  85287450.19948  20828051.310    20828053.858    20828051.244
  20828054.008          53.000          53.000
 123403360.41647  96158460.28647  23482874.484    23482878.385    23482874.744
  23482877.164          45.000          43.000
 129665973.30846 101038423.70646  24674614.850    24674616.140    24674614.931
  24674616.213          41.250          38.000
 16 10  6  0 50  0.0000000  0 11G14G32G24G01G18G22G27G11G10G08G31
 112378478.04848  87567653.30747  21384899.667                    21384899.213
  21384899.539          52.000          42.000
 106636224.60549  83093182.84049  20292183.793    20292186.381    20292184.024
  20292186.016          55.250          55.000
 123946092.55047  96581377.45947  23586144.212    23586149.008    23586144.557
  23586147.504          42.500          43.000
 121164781.32647  94414113.18947  23056888.667    23056892.454    23056888.962
  23056892.579          45.000          45.000
 120527233.18947  93917348.71645  22935561.451                    22935560.663
  22935560.890          42.250          30.500
 130056091.20746 101342410.07143  24748848.418                    24748847.519
  24748847.054          40.500          23.000
 130313489.37846 101542976.86746  24797833.561    24797839.374    24797832.753
  24797838.929          38.000          41.000
 116580230.00847  90841741.87445  22184479.586                    22184478.906
  22184479.134          47.500          35.250
 109499101.40548  85323990.77448  20836974.966    20836977.368    20836974.920
  20836977.437          52.500          53.000
 123472444.96147  96212292.35047  23496020.911    23496024.998    23496020.069
  23496024.497          44.750          44.000
 129549025.02646 100947295.28446  24652359.373    24652362.959    24652360.127
  24652360.625          41.250          39.000
 16 10  6  0 50 30.0000000  0 11G14G32G24G01G18G22G27G11G10G08G31
 112314548.67848  87517838.23146  21372734.120                    21372733.822
  21372734.259          51.750          41.750
 106625334.98449  83084697.42849  20290111.693    20290114.163    20290111.820
  20290113.743          54.750          55.000
 124015840.77647  96635726.71947  23599416.619    23599420.661    23599417.027
  23599420.003          42.500          43.000
 121074640.06147  94343873.25747  23039735.415    23039738.869    23039735.569
  23039738.994          44.750          44.000
 120605583.48346  93978400.86545  22950470.230                    22950470.268
  22950471.214          41.750          30.500
 129961140.28746 101268422.43443  24730779.524                    24730778.919
  24730778.263          40.750          22.000
 130416653.08646 101623364.08646  24817465.930    24817469.663    24817465.859
  24817469.258          38.750          40.000
 116534847.50247  90806378.89345  22175843.347                    22175842.477
  22175842.034          47.500          35.250
 109546340.44148  85360800.41248  20845964.381    20845966.448    20845964.231
  20845966.829          52.000          53.000
 123541914.43647  96266424.39847  23509239.113    23509244.650    23509239.328
  23509244.095          44.250          43.000
 129432082.03746 100856170.97146  24630105.580    24630109.399    24630105.591
  24630108.695          40.750          39.000
 16 10  6  0 51  0.0000000  0 11G14G32G24G01G18G22G27G11G10G08G31
 112251003.36848  87468322.42047  21360642.333                    21360641.606
  21360641.758          52.000          42.000
 106614944.47549  83076600.93449  20288134.307    20288137.128    20288134.566
  20288136.634          55.750          55.000
 124086053.49747  96690437.90947  23612778.665    23612781.903    23612778.558
  23612781.893          42.750          43.000
 120984813.92147  94273878.88747  23022642.374    23022644.741    23022641.510
  23022645.980          44.750          44.000
 120684115.05447  94039594.27145  22965414.250                    22965413.913
  22965414.162          42.000          30.250
 129866220.08546 101194458.72543  24712716.710                    24712716.427
  24712715.999          40.750          22.250
 130519852.19046 101703778.89846  24837105.372    24837108.084    24837103.040
  24837108.344          39.000          40.000
 116490061.29347  90771480.56645  22167320.613                    22167320.397
  22167319.902          47.250          35.500
 109593924.19948  85397878.66848  20855019.172    20855021.665    20855019.052
  20855021.849          53.250          53.000
 123611765.89147  96320854.06247  23522532.629    23522536.767    23522532.576
  23522536.736          45.250          43.000
 129315147.09847 100765052.96846  24607854.491    24607858.149    24607853.460
  24607856.613          42.000          40.000
 16 10  6  0 51 30.0000000  0 11G14G32G24G01G18G22G27G11G10G08G31
 112187842.87648  87419106.47247  21348623.106                    21348622.182
  21348622.675          52.000          42.250
 106605052.70749  83068893.06849  20286251.967    20286254.493    20286252.191
  20286254.320          56.000          55.000
 124156728.95547  96745509.69947  23626227.584    23626231.236    23626227.770
  23626231.386          42.500          44.000
 120895305.50647  94204132.11247  23005609.249    23005612.525    23005609.119
  23005612.609          45.000          45.000
 120762827.50146  94100928.63645  22980393.578                    22980392.526
  22980393.384          41.250          30.500
 129771331.20646 101120519.38643  24694660.054                    24694659.252
  24694658.401          40.250          23.250
 130623083.61046 101784218.88446  24856746.867    24856752.942    24856747.070
  24856753.600          38.250          41.000
 116445872.96347  90737048.12045  22158911.794                    22158911.482
  22158911.826          47.250          35.500
 109641852.21948  85435225.17548  20864139.553    20864141.980    20864139.598
  20864142.207          53.250          53.000
 123681996.51747  96375579.21647  23535897.338    23535901.487    23535896.817
  23535900.949          45.000          43.000
 129198223.05446 100673943.44446  24585604.200    24585607.270    24585603.770
  24585607.406          41.500          39.000
 16 10  6  0 52  0.0000000  0 11G14G32G24G01G18G22G27G11G10G08G31
 112125068.28248  87370191.21447  21336677.254                    21336676.811
  21336677.307          51.750          42.250
 106595659.32649  83061573.55449  20284464.429    20284467.126    20284464.712
  20284466.794          55.500          55.000
 124227864.42147  96800939.91847  23639764.076    23639768.527    23639763.928
  23639767.616          42.750          43.000
 120806117.38047  94134634.90347  22988636.945    22988641.199    22988637.684
  22988640.485          46.000          46.000
 120841720.28446  94162403.50645  22995406.284                    22995405.325
  22995406.535          41.500          31.000
 129676474.68446 101046605.30643  24676609.300                    24676608.737
  24676609.268          39.750          23.250
 130726344.46746 101864681.82846  24876397.061    24876403.320    24876398.985
  24876402.644          38.000          41.000
 116402283.70347  90703082.48746  22150616.741                    22150616.195
  22150616.527          46.500          36.250
 109690123.97148  85472839.53048  20873325.356    20873327.607    20873325.505
  20873327.767          53.000          53.000
 123752603.67847  96430597.74247  23549333.734    23549337.383    23549332.445
  23549335.968          44.750          42.000
 129081312.71246 100582844.58646  24563358.342    24563359.574    24563357.050
  24563359.374          41.250          39.000
 16 10  6  0 52 30.0000000  0 11G14G32G24G01G18G22G27G11G10G08G31
 112062680.41448  87321577.30747  21324805.318                    21324804.559
  21324805.125          51.750          42.500
 106586763.90649  83054642.06349  20282771.639    20282774.311    20282771.878
  20282774.048          56.000          55.000
 124299457.83747  96856726.98947  23653387.155    23653391.112    23653388.527
  23653391.081          42.750          43.000
 120717252.01447  94065389.17647  22971726.672    22971729.743    22971726.657
  22971730.107          45.500          45.000
 120920792.42646  94224018.14345  23010452.287                    23010451.736
  23010453.309          41.500          30.500
 129581651.31246 100972717.06043  24658564.572                    24658564.710
  24658564.018          38.500          22.750
 130829631.77246 101945165.33946  24896053.454    24896059.077    24896053.331
  24896058.181          39.000          41.000
 116359295.40047  90669585.13446  22142436.574                    22142436.111
  22142436.420          47.000          36.000
 109738738.91148  85510721.30848  20882576.329    20882578.936    20882576.459
  20882579.036          53.750          53.000
 123823584.54047  96485907.45647  23562840.998    23562844.139    23562840.198
  23562843.658          45.500          43.000
 128964418.79546 100491758.56146  24541113.164    24541115.522    24541112.644
  24541115.959          40.750          39.000
 16 10  6  0 53  0.0000000  0 11G14G32G24G01G18G22G27G11G10G08G31
 112000679.99348  87273265.30247  21313007.457                    21313006.294
  21313006.789          52.000          42.250
 106578366.07349  83048098.30249  20281173.651    20281176.215    20281173.845
  20281176.105          55.750          55.000
 124371506.58947  96912868.86847  23667099.025    23667102.224    23667097.962
  23667101.567          43.000          43.000
 120628712.00547  93996396.99347  22954878.317    22954881.648    22954878.186
  22954882.127          45.500          46.000
 121000043.48746  94285772.18645  23025534.329                    23025533.536
  23025534.044          41.750          30.750
 129486861.87746 100898855.24243  24640526.909                    24640525.712
  24640526.059          39.000          23.250
 130932942.60646 102025667.18746  24915713.769    24915718.670    24915712.754
  24915716.907          39.500          40.000
 116316909.59247  90636557.25445  22134370.812                    22134369.948
  22134370.436          46.000          35.500
 109787696.52048  85548870.08748  20891893.063    20891895.130    20891892.762
  20891895.346          53.000          53.000
 123894936.03347  96541505.98947  23576418.506    23576422.166    23576417.929
  23576421.426          45.250          43.000
 128847544.31046 100400687.62646  24518872.980    24518875.220    24518872.446
  24518874.951          40.000          38.000
 16 10  6  0 53 30.0000000  0 11G14G32G24G01G18G22G27G11G10G08G31
 111939068.08948  87225256.04147  21301282.748                    21301281.937
  21301282.266          51.500          42.250
 106570465.37049  83041941.91649  20279670.175    20279672.723    20279670.407
  20279672.618          55.750          55.000
 124444008.42647  96969363.79347  23680894.370    23680897.984    23680895.226
  23680897.980          43.250          42.000
 120540499.87347  93927660.30847  22938091.175    22938096.189    22938091.812
  22938095.900          45.250          46.000
 121079472.94247  94347665.24945  23040648.866                    23040647.941
  23040648.479          42.250          31.250
 129392107.45746 100825020.70543  24622496.812                    24622495.041
  24622495.504          39.250          22.250
 131036274.10046 102106185.12046  24935375.480    24935381.914    24935375.335
  24935381.536          37.250          40.000
 116275127.75347  90604000.01146  22126419.964                    22126419.479
  22126419.290          46.250          36.250
 109836996.28248  85587285.48948  20901274.339    20901276.475    20901274.360
  20901276.703          52.500          53.000
 123966655.52047  96597391.28147  23590066.099    23590069.727    23590065.779
  23590069.417          45.250          43.000
 128730691.87546 100309633.89446  24496636.469    24496638.208    24496635.277
  24496638.832          40.000          39.000
 16 10  6  0 54  0.0000000  0 11G14G32G24G01G18G22G27G11G10G08G31
 111877845.56748  87177550.19547  21289632.461                    21289631.903
  21289632.200          51.500          42.500
 106563061.37649  83036172.57449  20278261.063    20278263.885    20278261.413
  20278263.477          56.000          55.000
 124516960.94147  97026209.90247  23694777.392    23694781.358    23694777.051
  23694780.704          43.000          43.000
 120452618.16647  93859181.08147  22921368.286    22921371.405    22921368.233
  22921372.668          44.750          45.000
 121159080.19247  94409696.85645  23055796.877                    23055797.279
  23055797.723          43.250          30.750
 129297388.72246 100751213.95543  24604470.779                    24604471.110
  24604469.787          38.000          21.750
 131139623.26346 102186716.84146  24955043.603    24955049.743    24955043.113
  24955047.608          39.750          40.000
 116233951.63247  90571914.73346  22118584.594                    22118584.095
  22118584.635          46.750          36.250
 109886637.65448  85625967.07548  20910720.622    20910723.151    20910720.659
  20910723.236          52.750          53.000
 124038740.40647  96653561.28447  23603783.245    23603787.492    23603783.524
  23603787.368          45.000          44.000
 128613864.51046 100218599.67746  24474403.813    24474406.226    24474404.355
  24474407.216          40.000          38.000
 16 10  6  0 54 30.0000000  0 11G14G32G24G01G18G22G27G11G10G08G31
 111817013.15548  87130148.32647  21278056.567                    21278056.025
  21278056.205          51.500          42.250
 106556153.64649  83030789.93049  20276946.615    20276949.231    20276946.960
  20276948.929          55.750          55.000
 124590362.02147  97083405.54647  23708745.154    23708748.904    23708745.246
  23708748.290          43.250          42.000
 120365069.45147  93790961.34447  22904708.200    22904711.861    22904708.012
  22904712.866          45.000          46.000
 121238864.84547  94471866.69345  23070979.998                    23070979.550
  23070980.505          43.000          30.750
 129202706.45746 100677435.64743  24586453.814                    24586453.066
  24586452.703          38.000          23.250
 131242987.10246 102267260.02646  24974710.926    24974717.351    24974712.519
  24974716.716          37.750          39.000
 116193382.43847  90540302.39846  22110864.050                    22110863.705
  22110863.701          45.500          36.250
 109936620.10748  85664914.44548  20920231.968    20920234.469    20920232.089
  20920234.531          53.500          53.000
 124111187.47147  96710013.51947  23617569.600    23617574.286    23617570.178
  23617573.386          45.500          44.000
 128497065.13946 100127587.26846  24452177.722    24452181.378    24452177.042
  24452180.462          39.750          38.000
 16 10  6  0 55  0.0000000  0 11G14G32G24G01G18G22G27G11G10G08G31
 111756571.63548  87083051.05047  21266554.790                    21266554.035
  21266554.395          51.500          42.500
 106549741.68849  83025793.60549  20275726.512    20275729.067    20275726.861
  20275728.866          56.250          55.000
 124664208.64147  97140948.39247  23722797.562    23722800.103    23722797.656
  23722800.388          43.000          42.000
 120277856.25247  93723003.02247  22888112.077    22888115.847    22888112.302
  22888115.772          45.500          46.000
 121318825.85247  94534173.95145  23086196.336                    23086195.618
  23086196.778          42.500          30.500
 129108061.54446 100603686.41944  24568445.118                    24568443.211
  24568442.488          39.000          25.250
 131346362.84946 102347812.43846  24994382.679    24994388.853    24994382.380
  24994387.620          38.000          38.000
 116153421.47847  90509164.00546  22103259.823                    22103259.424
  22103259.786          45.750          36.250
 109986943.07348  85704127.15048  20929808.162    20929810.506    20929808.250
  20929810.710          53.750          53.000
 124183994.05047  96766745.88347  23631424.778    23631428.720    23631423.699
  23631427.945          45.000          44.000
 128380296.21646 100036598.59246  24429957.155    24429960.189    24429957.615
  24429960.299          40.500          37.000
 16 10  6  0 55 30.0000000  0 11G14G32G24G01G18G22G27G11G10G08G31
 111696521.82948  87036259.01647  21255127.661                    21255127.156
  21255127.623          52.000          42.500
 106543825.06549  83021183.25449  20274600.703    20274603.264    20274600.930
  20274603.022          56.250          55.000
 124738499.09647  97198837.02947  23736934.484    23736937.468    23736935.048
  23736938.322          43.250          42.000
 120190981.11147  93655308.14747  22871580.881    22871584.339    22871580.492
  22871584.317          45.250          46.000
 121398962.72047  94596618.24145  23101445.647                    23101444.926
  23101446.366          42.250          30.750
 129013454.90446 100529967.04344  24550442.045                    24550440.500
  24550439.570          39.250          25.500
 131449747.55046 102428371.84246  25014058.367    25014062.702    25014058.530
  25014062.412          39.500          37.000
 116114070.34147  90478500.80046  22095771.918                    22095771.288
  22095771.646          46.250          36.250
 110037606.04748  85743604.79548  20939449.240    20939451.195    20939449.072
  20939451.319          53.500          53.000
 124257157.15447  96823756.06747  23645346.219    23645350.983    23645346.607
  23645350.493          44.000          44.000
 128263560.94746  99945636.11746  24407743.646    24407746.455    24407743.236
  24407745.620          40.500          37.000
 16 10  6  0 56  0.0000000  0 11G14G32G24G01G18G22G27G11G10G08G31
 111636864.94848  86989773.14347  21243775.070                    21243774.323
  21243775.358          51.500          42.500
 106538403.26349  83016958.48049  20273568.852    20273571.588    20273569.141
  20273571.354          56.250          55.000
 124813230.31947  97257069.15147  23751155.980    23751159.894    23751154.962
  23751159.341          42.750          43.000
 120104446.55847  93587878.65747  22855112.911    22855116.763    22855113.664
  22855116.627          45.250          45.000
 121479274.99747  94659199.21245  23116729.317                    23116728.213
  23116729.190          43.000          30.500
 128918887.87546 100456278.54144  24532445.498                    24532444.184
  24532443.128          39.500          25.500
 131553138.25646 102508935.95346  25033731.784    25033736.121    25033733.180
  25033735.830          39.500          37.000
 116075330.80047  90448314.15546  22088399.543                    22088399.261
  22088399.482          45.750          36.250
 110088608.44448  85783346.92048  20949154.642    20949156.560    20949154.426
  20949156.901          53.000          53.000
 124330673.85747  96881041.76647  23659336.160    23659340.350    23659335.231
  23659340.411          44.000          44.000
 128146862.09146  99854701.99746  24385536.668    24385539.344    24385535.951
  24385539.437          40.750          37.000
 16 10  6  0 56 30.0000000  0 11G14G32G24G01G18G22G27G11G10G08G31
 111577601.58048  86943593.91047  21232497.917                    21232497.133
  21232497.625          51.250          42.500
 106533475.79649  83013118.89849  20272631.103    20272633.904    20272631.348
  20272633.611          56.000          55.000
 124888400.46147  97315643.28647  23765460.112    23765463.750    23765459.201
  23765464.578          42.000          43.000
 120018255.19247  93520716.56947  22838711.631    22838714.587    22838711.726
  22838715.376          45.500          45.000
 121559762.21447  94721916.50445  23132045.303                    23132044.341
  23132045.296          43.000          30.000
 128824360.78546 100382621.12344  24514457.863                    24514456.647
  24514455.958          40.000          26.250
 131656532.07246 102589502.52046  25053408.750    25053413.116    25053406.279
  25053413.303          38.250          38.000
 116037203.99747  90418604.97846  22081144.255                    22081143.891
  22081144.037          45.500          36.500
 110139949.73148  85823353.12548  20958924.360    20958926.851    20958924.331
  20958926.811          53.000          53.000
 124404541.59447  96938601.00947  23673393.082    23673397.274    23673392.529
  23673396.900          43.750          44.000
 128030202.28146  99763798.30746  24363336.122    24363339.567    24363336.593
  24363338.641          40.000          37.000
 16 10  6  0 57  0.0000000  0 11G14G32G24G01G18G22G27G11G10G08G31
 111518732.48448  86897721.89847  21221295.476                    21221294.975
  21221295.217          51.750          42.750
 106529042.13849  83009664.10249  20271787.510    20271790.215    20271787.732
  20271789.888          55.750          55.000
 124964006.49146  97374557.06247  23779848.129    23779850.960    23779847.149
  23779851.554          41.750          42.000
 119932409.48647  93453823.84047  22822376.062    22822379.721    22822375.735
  22822379.251          46.000          46.000
 121640423.56947  94784769.47744  23147393.318                    23147394.040
  23147394.373          42.250          28.750
 128729874.61946 100308995.60144  24496478.003                    24496476.523
  24496475.835          39.500          27.000
 131759926.29246 102670069.30746  25073082.952    25073088.468    25073083.246
  25073087.106          39.000          39.000
 115999691.43747  90389374.43646  22074006.032                    22074005.265
  22074005.702          46.000          37.000
 110191629.36848  85863622.97448  20968758.661    20968760.995    20968758.712
  20968761.215          53.750          53.000
 124478757.32547  96996431.41147  23687515.759    23687520.533    23687515.572
  23687519.546          43.500          44.000
 127913584.53946  99672927.37046  24341144.105    24341149.032    24341143.998
  24341147.462          40.250          38.000
 16 10  6  0 57 30.0000000  0 11G14G32G24G01G18G22G27G11G10G08G31
 111460258.27448  86852157.59947  21210168.050                    21210167.410
  21210167.897          51.500          42.750
 106525101.78349  83006593.69549  20271037.603    20271040.353    20271037.756
  20271040.061          56.500          55.000
 125040046.58947  97433809.09247  23794317.432    23794321.112    23794316.640
  23794320.682          42.000          43.000
 119846912.03347  93387202.46547  22806105.924    22806109.258    22806106.702
  22806109.676          46.000          46.000
 121721258.46047  94847757.68144  23162776.583                    23162775.170
  23162776.583          44.000          29.000
 128635430.31946 100235402.69844  24478505.222                    24478504.976
  24478504.110          39.250          26.750
 131863317.77046 102750634.03346  25092758.169    25092761.401    25092758.469
  25092761.427          40.250          37.000
 115962794.22847  90360623.37846  22066984.828                    22066984.142
  22066984.697          46.750          37.250
 110243646.76548  85904156.01648  20978657.165    20978659.326    20978657.258
  20978659.753          53.750          53.000
 124553318.17547  97054530.72747  23701704.880    23701708.860    23701703.581
  23701708.125          44.250          44.000
 127797011.62746  99582091.38946  24318961.955    24318964.868    24318962.149
  24318964.047          39.750          38.000
 16 10  6  0 58  0.0000000  0 11G14G32G24G01G18G22G27G11G10G08G31
 111402179.98148  86806901.80047  21199115.872                    21199115.326
  21199115.859          51.250          42.750
 106521654.15649  83003907.23549  20270381.612    20270384.269    20270381.866
  20270383.916          56.000          55.000
 125116517.88647  97493397.09547  23808869.175    23808872.433    23808869.345
  23808872.956          42.250          42.000
 119761765.36847  93320854.42647  22789903.688    22789906.484    22789903.464
  22789907.648          46.250          46.000
 121802266.31447  94910880.66844  23178192.448                    23178190.480
  23178191.170          44.000          28.250
 128541028.90046 100161843.22244  24460541.169                    24460540.471
  24460539.615          38.500          26.500
 131966703.78046 102831194.44546  25112430.464    25112437.227    25112431.590
  25112436.759          38.500          39.000
 115926513.89847  90332352.99546  22060080.661                    22060080.059
  22060080.330          45.750          36.250
 110296001.37548  85944951.81848  20988619.993    20988622.141    20988619.887
  20988622.461          53.500          53.000
 124628221.09247  97112896.61747  23715957.635    23715962.415    23715957.683
  23715961.493          44.250          44.000
 127680486.49746  99491292.66246  24296787.587    24296789.818    24296787.690
  24296789.685          38.500          39.000
 16 10  6  0 58 30.0000000  0 11G14G32G24G01G18G22G27G11G10G08G31
 111344498.19748  86761954.96347  21188139.810                    21188139.088
  21188139.469          51.750          42.750
 106518698.72449  83001604.30449  20269819.128    20269821.768    20269819.449
  20269821.535          56.750          55.000
 125193418.00546  97553319.27247  23823503.962    23823505.851    23823502.655
  23823505.752          41.250          42.000
 119676971.95647  93254781.68447  22773767.670    22773771.692    22773767.477
  22773771.132          46.250          46.000
 121883446.48147  94974137.92744  23193639.517                    23193638.986
  23193639.514          42.500          27.500
 128446671.14046 100088317.73244  24442584.419                    24442583.568
  24442583.787          38.500          26.750
 132070081.38046 102911748.33146  25132104.044    25132109.831    25132104.273
  25132108.865          40.250          41.000
 115890851.50747  90304564.12746  22053294.097                    22053293.752
  22053293.838          46.250          36.250
 110348692.59049  85986009.91148  20998646.666    20998649.327    20998646.729
  20998649.425          54.000          53.000
 124703463.30647  97171526.86547  23730276.143    23730280.603    23730276.101
  23730279.080          43.750          43.000
 127564012.19446  99400533.53846  24274622.967    24274626.173    24274622.613
  24274624.622          38.500          40.000
 16 10  6  0 59  0.0000000  0 11G14G32G24G01G18G22G27G11G10G08G31
 111287213.52948  86717317.58347  21177238.665                    21177238.165
  21177238.419          51.250          42.750
 106516234.89949  82999684.44549  20269350.420    20269353.028    20269350.657
  20269352.711          55.250          55.000
 125270744.27646  97613573.52247  23838217.068    23838221.647    23838217.656
  23838220.693          41.750          42.000
 119592534.37547  93188986.19547  22757699.487    22757703.119    22757699.097
  22757703.359          45.250          46.000
 121964798.41747  95037529.02544  23209121.019                    23209119.436
  23209120.919          43.500          27.750
 128352357.97546 100014826.99644  24424637.550                    24424636.721
  24424636.282          37.750          27.000
 132173447.79846 102992293.48446  25151773.088    25151780.160    25151773.190
  25151779.723          38.000          40.000
 115855808.26347  90277257.72446  22046626.004                    22046625.393
  22046625.593          45.250          36.750
 110401719.89149  86027329.88748  21008737.599    21008739.882    21008737.610
  21008740.105          54.000          53.000
 124779041.78147  97230419.14347  23744658.676    23744662.986    23744658.160
  23744661.519          44.000          43.000
 127447591.25846  99309815.99946  24252467.941    24252471.514    24252468.267
  24252471.135          37.750          40.000
 16 10  6  0 59 30.0000000  0 11G14G32G24G01G18G22G27G11G10G08G31
 111230326.70648  86672990.20747  21166413.186                    21166412.870
  21166413.222          51.500          42.750
 106514262.11849  82998147.21849  20268974.840    20268977.597    20268975.185
  20268977.419          55.500          55.000
 125348494.31447  97674157.96447  23853013.392    23853015.486    23853012.925
  23853015.337          42.000          42.000
 119508455.15547  93123469.96247  22741699.875    22741703.330    22741699.960
  22741703.881          45.500          46.000
 122046321.27347  95101053.31944  23224634.237                    23224633.315
  23224634.323          43.250          27.500
 128258090.11446  99941371.55244  24406700.408                    24406698.572
  24406697.446          39.000          27.250
 132276800.08946 103072827.66846  25171441.310    25171446.095    25171440.817
  25171444.940          37.750          39.000
 115821385.71747  90250434.96446  22040075.463                    22040075.626
  22040075.459          47.000          37.250
 110455082.67849  86068911.27848  21018892.381    21018894.239    21018892.229
  21018894.502          54.250          53.000
 124854953.71447  97289571.26847  23759103.724    23759108.804    23759103.291
  23759108.127          43.750          44.000
 127331226.83346  99219142.51346  24230325.275    24230327.586    24230325.190
  24230327.222          37.500          40.000
 16 10  6  1  0  0.0000000  0 11G14G32G24G01G18G22G27G11G10G08G31
 111173838.85048  86628973.71547  21155664.003                    21155663.425
  21155664.020          51.500          42.750
 106512779.78449  82996992.15749  20268692.759    20268695.617    20268692.925
  20268695.282          55.500          55.000
 125426665.75347  97735070.79147  23867889.007    23867891.883    23867888.798
  23867892.247          43.000          42.000
 119424736.82747  93058234.92647  22725768.823    22725772.268    22725768.906
  22725772.531          46.250          46.000
 122128014.62447  95164710.45544  23240179.845                    23240179.006
  23240180.159          43.500          28.000
 128163868.90046  99867952.47744  24388770.239                    24388768.845
  24388768.138          39.250          27.000
 132380135.42646 103153348.60546  25191106.018    25191109.870    25191105.525
  25191109.528          38.750          39.000
 115787585.01047  90224096.75746  22033643.450                    22033642.867
  22033643.049          47.500          37.000
 110508780.36649  86110753.63348  21029110.502    21029112.507    21029110.439
  21029112.895          54.000          52.000
 124931196.04347  97348980.84647  23773611.155    23773616.551    23773611.341
  23773615.269          44.000          43.000
 127214921.61045  99128515.16346  24208190.887    24208195.093    24208192.926
  24208194.965          35.750          41.000
 16 10  6  1  0 30.0000000  0 11G14G32G24G01G18G22G27G11G10G08G31
 111117750.49048  86585268.51847  21144990.904                    21144990.208
  21144990.651          51.500          43.000
 106511787.28149  82996218.78249  20268503.936    20268506.805    20268504.100
  20268506.511          56.750          55.000
 125505256.20247  97796310.11747  23882842.740    23882848.044    23882843.661
  23882847.328          42.250          42.000
 119341381.91747  92993283.06647  22709906.330    22709910.554    22709907.166
  22709910.687          46.250          47.000
 122209877.51647  95228499.73344  23255757.873                    23255757.574
  23255757.665          43.000          28.250
 128069694.94046  99794570.19944  24370848.521                    24370847.745
  24370847.042          38.750          26.000
 132483451.00846 103233854.15746  25210765.740    25210769.979    25210764.064
  25210770.218          37.500          37.000
 115754407.38047  90198244.06546  22027330.337                    22027329.344
  22027329.299          47.250          36.750
 110562812.39448  86152856.51148  21039392.210    21039394.734    21039392.306
  21039394.767          53.750          53.000
 125007766.09247  97408645.76547  23788183.755    23788187.332    23788183.201
  23788186.445          45.000          42.000
 127098678.70146  99037936.33746  24186072.218    24186075.193    24186072.037
  24186075.581          37.000          41.000
 16 10  6  1  1  0.0000000  0 11G14G32G24G01G18G22G27G11G10G08G31
 111062062.25948  86541875.11047  21134393.562                    21134393.159
  21134393.916          51.250          42.750
 106511284.00149  82995826.62249  20268408.181    20268410.970    20268408.370
  20268410.552          56.000          55.000
 125584262.93146  97857873.79647  23897877.392    23897881.867    23897878.798
  23897881.517          41.500          42.000
 119258392.93847  92928616.35947  22694114.719    22694117.828    22694114.536
  22694117.738          47.000          46.000
 122291909.57147  95292420.78044  23271368.261                    23271367.526
  23271368.083          43.250          28.000
 127975569.22346  99721225.53644  24352937.359                    24352936.443
  24352935.687          38.500          24.250
 132586743.94946 103314342.04146  25230422.278    25230426.193    25230420.931
  25230425.846          38.750          38.000
 115721854.42647  90172878.13546  22021134.904                    22021134.903
  22021135.189          46.500          36.500
 110617178.16749  86195219.45248  21049737.650    21049740.063    21049737.672
  21049740.464          54.250          53.000
 125084660.72647  97468563.61147  23802816.034    23802819.889    23802815.113
  23802819.481          44.000          43.000
 126982501.04746  98947408.42546  24163964.755    24163967.446    24163964.952
  24163967.075          39.000          41.000
 16 10  6  1  1 30.0000000  0 11G14G32G24G01G18G22G27G11G10G08G31
 111006774.99048  86498794.13647  21123872.516                    21123872.200
  21123872.883          51.500          43.000
 106511269.29149  82995815.16648  20268405.332    20268408.008    20268405.585
  20268407.864          55.750          53.000
 125663683.66147  97919760.09047  23912991.236    23912995.417    23912991.524
  23912995.401          42.250          42.000
 119175772.41647  92864236.77147  22678392.646    22678395.716    22678392.640
  22678396.130          46.750          46.000
 122374110.27947  95356473.24744  23287010.221                    23287009.386
  23287010.277          43.000          28.500
 127881492.71646  99647919.21444  24335034.925                    24335034.011
  24335033.612          39.250          24.500
 132690011.44646 103394810.10546  25250072.765    25250079.057    25250073.565
  25250077.367          39.250          39.000
 115689926.35047  90147999.12546  22015059.587                    22015059.497
  22015059.560          47.000          37.000
 110671877.09449  86237841.98148  21060146.668    21060149.106    21060146.555
  21060149.374          54.000          53.000
 125161877.07647  97528732.18547  23817510.231    23817513.601    23817508.609
  23817514.353          44.500          43.000
 126866391.31346  98856933.43046  24141870.085    24141872.041    24141869.844
  24141871.821          39.750          41.000
 16 10  6  1  2  0.0000000  0 11G14G32G24G01G18G22G27G11G10G08G31
 110951889.18148  86456025.99847  21113428.551                    21113428.020
  21113428.310          51.500          43.250
 106511742.52549  82996183.92649  20268495.494    20268498.096    20268495.668
  20268497.785          55.750          55.000
 125743515.48047  97981966.72447  23928182.814    23928186.012    23928183.430
  23928186.146          42.250          42.000
 119093522.85847  92800146.23247  22662741.010    22662744.159    22662740.953
  22662744.114          47.250          46.000
 122456478.80147  95420656.51544  23302684.606                    23302683.902
  23302684.813          44.250          28.250
 127787466.33046  99574651.94044  24317143.310                    24317141.411
  24317140.541          40.000          24.250
 132793250.62046 103475256.12446  25269719.368    25269724.729    25269718.541
  25269724.692          39.500          39.000
 115658624.83847  90123608.33946  22009103.572                    22009102.778
  22009102.966          46.500          37.000
 110726908.57149  86280723.65648  21070618.832    21070621.247    21070618.599
  21070621.462          54.000          53.000
 125239412.12547  97589149.10447  23832264.141    23832267.918    23832263.715
  23832266.925          45.000          42.000
 126750352.39946  98766513.61546  24119788.875    24119790.493    24119787.963
  24119791.006          40.500          41.000
 16 10  6  1  2 30.0000000  0 11G14G32G24G01G18G22G27G11G10G08G31
 110897405.47348  86413571.17247  21103060.687                    21103059.960
  21103060.588          51.500          43.250
 106512703.04349  82996932.38649  20268678.312    20268680.876    20268678.417
  20268680.679          56.500          55.000
 125823756.17047  98044491.94547  23943452.331    23943455.877    23943451.547
  23943455.530          42.500          43.000
 119011646.78547  92736346.70447  22647160.227    22647163.885    22647160.213
  22647163.490          47.000          46.000
 122539014.75247  95484970.22944  23318391.052                    23318390.043
  23318390.903          44.750          29.000
 127693491.00446  99501424.45144  24299259.691                    24299259.078
  24299257.348          39.750          24.000
 132896458.72846 103555677.87046  25289360.035    25289363.308    25289359.700
  25289362.733          40.000          38.000
 115627951.10447  90099706.73546  22003266.219                    22003265.362
  22003266.116          46.000          37.000
 110782271.99649  86323863.97748  21081154.028    21081156.471    21081154.288
  21081156.791          54.000          52.000
 125317262.80547  97649811.93247  23847078.072    23847082.765    23847077.572
  23847082.453          44.500          42.000
 126634387.25346  98676151.29346  24097721.105    24097722.749    24097720.521
  24097722.708          41.500          40.000
 16 10  6  1  3  0.0000000  0 10G14G32G24G01G18G22G11G10G08G31
 110843324.94448  86371430.51647  21092769.295                    21092768.761
  21092769.087          51.750          43.000
 106514150.17949  82998060.03349  20268953.624    20268956.213    20268954.024
  20268956.010          54.750          55.000
 125904403.17746  98107333.78547  23958797.952    23958802.060    23958798.736
  23958802.169          41.000          43.000
 118930146.73547  92672840.17947  22631651.363    22631654.976    22631651.183
  22631654.929          46.750          46.000
 122621717.48047  95549413.90144  23334128.349                    23334128.178
  23334129.248          44.250          29.000
 127599567.67246  99428237.50944  24281385.779                    24281386.495
  24281384.153          40.500          24.500
 115597906.18647  90076295.12446  21997548.180                    21997547.854
  21997548.096          46.500          37.250
 110837966.79849  86367262.52848  21091752.456    21091754.788    21091752.558
  21091755.115          54.250          52.000
 125395426.34647  97710718.53346  23861952.996    23861956.781    23861952.708
  23861955.999          44.500          41.000
 126518498.85246  98585848.78346  24075668.125    24075671.162    24075668.375
  24075670.464          39.750          39.000
 16 10  6  1  3 30.0000000  0 10G14G32G24G01G18G22G11G10G08G31
 110789647.96148  86329604.32047  21082554.921                    21082554.474
  21082554.765          51.500          43.500
 106516083.23949  82999566.32249  20269321.498    20269323.992    20269321.818
  20269323.741          55.750          55.000
 125985453.65247  98170490.00747  23974222.867    23974226.921    23974222.883
  23974226.200          43.000          43.000
 118849025.17747  92609628.61347  22616214.170    22616217.402    22616214.153
  22616217.957          46.000          46.000
 122704586.38647  95613987.03544  23349897.544                    23349897.067
  23349897.404          43.750          28.500
 127505697.38546  99355091.86144  24263523.119                    24263522.255
  24263522.228          40.500          25.750
 115568491.05047  90053374.22846  21991951.427                    21991951.389
  21991951.079          47.250          37.500
 110893992.35349  86410918.79848  21102414.147    21102415.923    21102413.971
  21102416.436          54.250          52.000
 125473899.55047  97771866.48947  23876885.290    23876890.412    23876885.126
  23876889.381          44.750          42.000
 126402690.21146  98495608.42346  24053630.553    24053631.615    24053630.555
  24053632.082          40.000          40.000
 16 10  6  1  4  0.0000000  0 10G14G32G24G01G18G22G11G10G08G31
 110736374.93848  86288092.89347  21072417.521                    21072417.009
  21072417.016          51.750          43.500
 106518501.54449  83001450.72349  20269781.665    20269784.186    20269781.948
  20269783.915          56.500          55.000
 126066905.21947  98233958.77947  23989721.777    23989724.623    23989721.989
  23989724.883          42.500          43.000
 118768284.61747  92546713.92447  22600849.570    22600853.278    22600849.665
  22600853.468          46.000          46.000
 122787620.29447  95678688.75044  23365699.122                    23365697.816
  23365698.504          42.750          28.000
 127411880.97446  99281988.21744  24245670.523                    24245669.375
  24245669.482          40.250          26.000
 115539706.82147  90030944.97046  21986473.805                    21986473.180
  21986473.638          46.250          37.250
 110950348.04149  86454832.32048  21113138.331    21113140.318    21113138.001
  21113140.347          54.750          52.000
 125552679.52347  97833253.46647  23891876.049    23891881.380    23891876.544
  23891880.393          44.000          42.000
 126286963.83146  98405432.18546  24031608.451    24031610.055    24031607.988
  24031610.573          38.500          40.000
 16 10  6  1  4 30.0000000  0 10G14G32G24G01G18G22G11G10G08G31
 110683506.83148  86246896.97847  21062357.054                    21062356.502
  21062356.631          52.000          43.250
 106521404.37749  83003712.67749  20270334.185    20270336.680    20270334.321
  20270336.340          56.500          55.000
 126148755.28146  98297738.06447  24005297.441    24005300.843    24005297.463
  24005301.805          41.250          43.000
 118687927.58747  92484098.05047  22585558.245    22585562.238    22585559.003
  22585561.656          46.750          46.000
 122870818.91847  95743518.82344  23381530.477                    23381530.547
  23381531.326          43.250          27.250
 127318119.28546  99208927.19944  24227828.713                    24227827.297
  24227827.611          40.750          27.500
 115511554.36647  90009007.98646  21981116.333                    21981116.127
  21981115.435          46.000          37.000
 111007033.28249  86499002.63048  21123924.827    21123927.267    21123924.901
  21123927.333          54.000          52.000
 125631763.52547  97894877.29647  23906925.857    23906930.699    23906925.591
  23906930.069          43.250          42.000
 126171322.88846  98315322.51246  24009602.365    24009602.836    24009601.748
  24009604.040          37.750          40.000
 16 10  6  1  5  0.0000000  0 10G14G32G24G01G18G22G11G10G08G31
 110631044.23048  86206017.05647  21052373.705                    21052373.212
  21052373.474          51.750          43.500
 106524791.03749  83006351.64249  20270978.659    20270981.198    20270978.770
  20270980.857          56.000          55.000
 126231001.46347  98361826.00647  24020947.873    24020952.252    24020948.233
  24020952.599          42.250          43.000
 118607956.57947  92421782.98947  22570340.281    22570343.931    22570339.988
  22570343.550          47.000          46.000
 122954181.44047  95808476.60944  23397394.417                    23397394.333
  23397393.842          43.250          26.750
 127224413.38446  99135909.66444  24209996.878                    24209996.272
  24209995.226          41.750          28.500
 115484034.63847  89987564.04446  21975879.679                    21975879.506
  21975879.463          46.250          37.500
 111064047.42349  86543429.23248  21134774.656    21134776.532    21134774.491
  21134776.755          54.750          52.000
 125711148.09847  97956735.39847  23922032.211    23922036.604    23922031.882
  23922036.882          43.250          42.000
 126055770.24446  98225281.67446  23987613.698    23987615.989    23987613.826
  23987614.510          37.750          39.000
 16 10  6  1  5 30.0000000  0 10G14G32G24G01G18G22G11G10G08G31
 110578987.80948  86165453.63747  21042467.772                    21042467.003
  21042467.498          51.500          43.250
 106528660.78549  83009367.03249  20271714.901    20271717.407    20271715.099
  20271717.196          56.500          55.000
 126313640.86447  98426220.37247  24036674.750    24036678.020    24036674.235
  24036677.781          42.500          43.000
 118528374.07847  92359770.66047  22555196.633    22555199.645    22555196.326
  22555199.716          46.500          46.000
 123037707.56447  95873561.87544  23413289.027                    23413287.730
  23413288.674          43.500          27.000
 127130764.45946  99062936.50644  24192176.888                    24192174.875
  24192174.669          41.500          28.750
 115457148.86247  89966614.08346  21970763.863                    21970763.057
  21970762.770          47.250          37.000
 111121389.86049  86588111.64848  21145686.184    21145688.712    21145686.230
  21145688.573          54.250          52.000
 125790830.68547  98018825.69447  23937195.068    23937200.320    23937195.313
  23937199.251          43.750          43.000
 125940309.04546  98135312.05546  23965642.079    23965643.748    23965641.492
  23965642.717          38.000          39.000
 16 10  6  1  6  0.0000000  0 10G14G32G24G01G18G22G11G10G08G31
 110527338.11448  86125207.13547  21032638.914                    21032638.650
  21032638.760          51.000          43.250
 106533012.85649  83012758.26249  20272543.034    20272545.457    20272543.229
  20272545.392          55.750          55.000
 126396671.26446  98490919.39947  24052474.212    24052478.270    24052474.508
  24052477.101          41.750          43.000
 118449182.56747  92298063.01047  22540126.558    22540130.521    22540126.853
  22540130.104          46.500          46.000
 123121396.43847  95938773.96644  23429214.245                    23429213.848
  23429214.379          44.000          27.250
 127037173.41046  98990008.49644  24174366.829                    24174365.191
  24174365.014          41.500          28.750
 115430897.88747  89946158.79446  21965768.207                    21965767.859
  21965767.631          46.500          37.000
 111179059.97249  86633049.39048  21156660.439    21156662.546    21156660.425
  21156662.932          54.000          52.000
 125870808.17647  98081145.77947  23952415.188    23952419.208    23952414.073
  23952419.164          42.500          43.000
 125824942.01146  98045415.79846  23943688.021    23943691.037    23943688.192
  23943689.345          39.250          40.000
 16 10  6  1  6 30.0000000  0 10G14G32G24G01G18G22G11G10G08G31
 110476095.50848  86085277.85347  21022888.000                    21022887.440
  21022887.750          51.250          43.500
 106537846.52249  83016524.75949  20273462.758    20273465.342    20273463.096
  20273465.134          55.250          55.000
 126480089.77247  98555920.86547  24068347.983    24068351.549    24068348.253
  24068351.165          42.250          42.000
 118370384.55747  92236661.95447  22525132.604    22525135.102    22525132.172
  22525135.649          47.500          47.000
 123205247.25547  96004112.25444  23445171.613                    23445171.195
  23445171.309          44.750          27.500
 126943641.24246  98917126.32444  24156568.005                    24156566.130
  24156566.466          40.750          28.250
 115405282.60447  89926198.83546  21960893.704                    21960893.258
  21960893.488          46.000          37.250
 111237057.13449  86678241.98348  21167697.213    21167699.221    21167697.033
  21167699.422          54.500          52.000
 125951077.40547  98143693.18747  23967689.978    23967693.856    23967690.010
  23967693.467          42.000          43.000
 125709672.31146  97955595.34146  23921753.685    23921755.238    23921753.040
  23921754.574          40.250          40.000
 16 10  6  1  7  0.0000000  0 10G14G32G24G01G18G22G11G10G08G31
 110425260.66848  86045666.30947  21013214.012                    21013213.792
  21013213.791          50.750          43.250
 106543161.02749  83020665.93249  20274474.277    20274476.805    20274474.412
  20274476.525          56.250          55.000
 126563893.59246  98621222.57547  24084295.196    24084298.737    24084295.043
  24084298.695          41.000          42.000
 118291982.51447  92175569.47647  22510212.479    22510216.124    22510212.832
  22510216.257          46.500          47.000
 123289259.61947  96069576.39444  23461157.380                    23461156.704
  23461158.122          43.500          27.250
 126850168.51346  98844290.50344  24138780.503                    24138779.205
  24138778.613          40.750          28.000
 115380303.62747  89906734.69346  21956140.557                    21956139.773
  21956139.923          46.000          37.000
 111295380.68749  86723688.91048  21178795.406    21178798.248    21178795.512
  21178798.253          54.250          52.000
 126031635.60947  98206465.76547  23983018.697    23983023.920    23983018.534
  23983022.975          42.000          43.000
 125594502.53446  97865852.77246  23899837.096    23899839.272    23899836.855
  23899837.957          40.750          40.000
 16 10  6  1  7 30.0000000  0 10G14G32G24G01G18G22G11G10G08G31
 110374834.39948  86006373.13047  21003618.462                    21003617.784
  21003618.174          51.000          43.500
 106548955.59049  83025181.18249  20275576.748    20275579.479    20275577.004
  20275579.143          56.500          55.000
 126648080.57446  98686822.85046  24100316.225    24100318.522    24100315.544
  24100318.497          41.750          41.000
 118213978.93247  92114787.46147  22495368.885    22495372.443    22495369.059
  22495372.909          47.250          47.000
 123373432.81547  96135165.85444  23477176.160                    23477175.793
  23477175.447          44.750          26.250
 126756756.54746  98771502.02944  24121004.719                    24121004.015
  24121003.146          40.750          27.250
 115355962.06947  89887767.24246  21951507.713                    21951508.070
  21951507.777          47.750          37.250
 111354030.02848  86769389.69148  21189956.023    21189958.543    21189956.168
  21189958.792          53.750          52.000
 126112479.57047  98269461.02747  23998403.940    23998409.027    23998402.521
  23998407.665          42.500          44.000
 125479435.59146  97776190.30346  23877940.675    23877941.677    23877940.490
  23877941.907          40.500          40.000
 16 10  6  1  8  0.0000000  0 10G14G32G24G01G18G22G11G10G08G31
 110324817.21748  85967398.72147  20994100.504                    20994100.061
  20994100.232          51.000          43.750
 106555229.39749  83030069.86349  20276770.947    20276773.275    20276770.945
  20276773.088          55.750          55.000
 126732647.75446  98752719.39746  24116408.677    24116412.645    24116409.105
  24116411.709          41.500          41.000
 118136376.25547  92054317.86447  22480602.068    22480605.509    22480601.791
  22480605.259          47.500          47.000
 123457766.23747  96200880.19744  23493224.008                    23493224.210
  23493223.060          44.750          26.500
 126663406.27546  98698761.60644  24103239.855                    24103239.731
  24103239.208          41.000          27.750
 115332258.65047  89869297.05846  21946998.255                    21946997.835
  21946997.244          47.000          37.750
 111413004.49549  86815343.82348  21201178.768    21201181.090    21201178.595
  21201181.164          54.000          52.000
 126193606.33847  98332676.64147  24013841.836    24013846.560    24013841.081
  24013845.535          42.750          44.000
 125364474.50946  97686610.33946  23856064.590    23856065.259    23856064.212
  23856065.231          40.500          41.000
 16 10  6  1  8 30.0000000  0 10G14G32G24G01G18G22G11G10G08G31
 110275209.54148  85928743.40747  20984660.627                    20984659.987
  20984660.190          51.000          43.750
 106561981.67049  83035331.37949  20278055.704    20278058.205    20278055.966
  20278057.981          55.750          55.000
 126817593.14546  98818910.65846  24132571.595    24132576.754    24132572.183
  24132575.256          39.500          41.000
 118059176.96348  91994162.57447  22465911.529    22465914.540    22465911.308
  22465914.396          48.000          47.000
 123542259.03947  96266718.74944  23509302.367                    23509302.154
  23509302.105          44.500          26.500
 126570118.78046  98626070.09344  24085488.396                    24085487.224
  24085486.786          41.500          27.500
 115309194.36447  89851324.88146  21942608.718                    21942608.150
  21942607.982          46.500          37.250
 111472303.47549  86861550.82448  21212462.809    21212464.913    21212462.876
  21212465.227          54.250          52.000
 126275012.61847  98396110.05047  24029332.921    24029337.501    24029331.965
  24029336.664          43.000          44.000
 125249622.20446  97597115.14246  23834208.845    23834209.841    23834208.680
  23834210.033          41.500          41.000
 16 10  6  1  9  0.0000000  0 10G14G32G24G01G18G22G11G10G08G31
 110226011.64748  85890407.40147  20975298.462                    20975298.061
  20975298.146          50.500          43.500
 106569211.59449  83040965.08949  20279431.616    20279433.939    20279431.660
  20279433.693          56.000          55.000
 126902913.90346  98885394.41746  24148807.272    24148812.422    24148807.975
  24148811.948          39.250          40.000
 117982383.52747  91934323.52947  22451298.229    22451301.505    22451298.529
  22451301.290          47.750          47.000
 123626910.50047  96332680.89944  23525411.272                    23525410.134
  23525411.188          44.750          26.250
 126476895.20546  98553428.36944  24067748.272                    24067747.631
  24067747.177          41.500          27.750
 115286769.98847  89833851.34646  21938341.423                    21938341.292
  21938341.171          46.000          37.250
 111531926.27749  86908010.14948  21223809.133    21223810.616    21223808.803
  21223811.101          54.000          52.000
 126356695.84747  98459759.25847  24044876.485    24044880.988    24044876.509
  24044880.258          43.500          43.000
 125134881.83847  97507707.13847  23812373.294    23812375.423    23812374.135
  23812375.008          42.000          42.000
 16 10  6  1  9 30.0000000  0 10G14G32G24G01G18G22G11G10G08G31
 110177224.50948  85852391.46547  20966014.463                    20966014.223
  20966014.373          50.500          44.000
 106576918.35949  83046970.36049  20280898.118    20280900.695    20280898.239
  20280900.280          56.000          55.000
 126988606.81046  98952168.17346  24165116.226    24165119.917    24165115.956
  24165118.116          39.500          40.000
 117905998.41347  91874802.68047  22436762.457    22436765.824    22436762.473
  22436765.685          47.250          47.000
 123711720.31747  96398766.46244  23541549.465                    23541549.925
  23541549.084          44.750          26.250
 126383736.17847  98480836.95944  24050021.068                    24050019.516
  24050018.829          42.500          27.750
 115264986.02447  89816876.82446  21934196.122                    21934196.071
  21934195.826          46.750          37.500
 111591872.27749  86954721.31548  21235216.107    21235218.363    21235216.063
  21235218.662          54.000          52.000
 126438652.73247  98523621.74147  24060472.758    24060476.779    24060471.896
  24060476.267          43.750          43.000
 125020256.16446  97418388.51547  23790561.034    23790562.655    23790561.125
  23790562.181          41.500          42.000
 16 10  6  1 10  0.0000000  0 10G14G32G24G01G18G22G11G10G08G31
 110128848.41948  85814695.82447  20956808.966                    20956808.341
  20956808.736          50.000          44.000
 106585101.10149  83053346.52549  20282455.036    20282457.696    20282455.311
  20282457.476          56.000          55.000
 127074669.76146  99019230.24046  24181493.431    24181496.369    24181493.271
  24181495.328          39.500          41.000
 117830024.03847  91815601.86447  22422304.668    22422307.906    22422304.881
  22422308.255          47.750          47.000
 123796687.59547  96464974.71044  23557718.389                    23557717.116
  23557719.130          44.500          25.750
 126290643.03447  98408296.88344  24032305.833                    24032304.606
  24032304.234          43.000          27.500
 115243842.97547  89800401.72446  21930172.524                    21930172.210
  21930172.001          46.500          37.250
 111652140.83549  87001683.82248  21246685.134    21246686.926    21246685.077
  21246687.136          54.250          52.000
 126520880.26847  98587695.10247  24076119.370    24076125.094    24076119.715
  24076124.444          43.750          43.000
 124905748.18847  97329161.59346  23768770.619    23768772.091    23768770.598
  23768772.213          43.000          41.000
 16 10  6  1 10 30.0000000  0 10G14G32G24G01G18G22G11G10G08G31
 110080884.11048  85777321.04647  20947681.711                    20947681.196
  20947681.276          51.250          44.000
 106593759.01149  83060092.95249  20284102.671    20284105.356    20284102.958
  20284105.060          56.500          55.000
 127161099.89046  99086578.44046  24197940.047    24197944.165    24197940.114
  24197942.791          38.500          41.000
 117754462.90948  91756723.07847  22407926.476    22407929.698    22407926.627
  22407929.045          48.500          47.000
 123881811.51547  96531305.01244  23573916.628                    23573915.943
  23573916.036          43.500          25.500
 126197616.72647  98335808.87744  24014603.689                    24014602.848
  24014601.745          43.250          27.500
 115223342.17147  89784427.08546  21926271.973                    21926270.836
  21926271.161          46.750          37.750
 111712731.24849  87048897.13548  21258214.879    21258217.088    21258214.781
  21258217.174          54.000          52.000
 126603375.41247  98651976.97747  24091818.596    24091821.946    24091818.049
  24091821.569          43.750          42.000
 124791360.97447  97240028.75647  23747004.393    23747006.092    23747004.104
  23747005.418          42.250          42.000
 16 10  6  1 11  0.0000000  0 10G14G32G24G01G18G22G11G10G08G31
 110033331.84748  85740267.34647  20938632.658                    20938632.250
  20938632.536          50.500          44.000
 106602891.21749  83067208.96049  20285840.535    20285843.053    20285840.776
  20285842.767          56.250          55.000
 127247895.06646  99154211.07546  24214456.271    24214459.404    24214455.959
  24214460.083          39.500          40.000
 117679317.40348  91698168.14747  22393626.798    22393629.681    22393626.642
  22393630.091          48.000          47.000
 123967091.54947  96597757.00344  23590144.842                    23590144.128
  23590144.617          43.500          25.500
 126104658.02547  98263373.53744  23996913.906                    23996912.394
  23996911.782          43.000          27.500
 115203484.31147  89768953.42346  21922492.696                    21922491.978
  21922492.608          47.250          37.750
 111773642.91848  87096360.77748  21269805.932    21269808.251    21269805.951
  21269808.336          53.750          52.000
 126686135.08347  98716464.99847  24107566.461    24107571.970    24107566.535
  24107570.208          43.750          43.000
 124677097.33346  97150992.25346  23725259.702    23725262.929    23725259.620
  23725261.695          41.500          41.000
 16 10  6  1 11 30.0000000  0 10G14G32G24G01G18G22G11G10G08G31
 109986192.30548  85703535.25147  20929662.164                    20929661.786
  20929662.081          50.000          44.000
 106612496.83249  83074693.85649  20287668.330    20287671.023    20287668.607
  20287670.600          56.250          55.000
 127335052.19246  99222125.75246  24231042.393    24231045.076    24231042.500
  24231045.153          39.750          41.000
 117604590.01448  91639939.00947  22379406.612    22379409.302    22379406.897
  22379409.204          48.250          47.000
 124052526.99047  96664330.05044  23606402.182                    23606402.077
  23606402.863          43.500          25.750
 126011767.99747  98190991.73144  23979237.146                    23979237.032
  23979235.138          43.000          26.500
 115184269.75347  89753981.05046  21918836.364                    21918835.899
  21918836.341          45.500          37.500
 111834875.10749  87144074.17248  21281458.091    21281460.313    21281457.995
  21281460.669          54.250          52.000
 126769156.53147  98781156.99947  24123364.444    24123369.799    24123364.203
  24123369.404          43.250          42.000
 124562960.30046  97062054.41646  23703539.545    23703542.207    23703539.649
  23703541.501          41.000          41.000
 16 10  6  1 12  0.0000000  0 10G14G32G24G01G18G22G11G10G08G31
 109939465.70248  85667124.91747  20920770.477                    20920770.034
  20920770.201          49.750          44.250
 106622575.02249  83082546.99549  20289586.098    20289588.740    20289586.303
  20289588.411          56.250          55.000
 127422568.46946  99290320.33146  24247694.680    24247699.879    24247695.839
  24247699.242          39.500          41.000
 117530283.12047  91582037.52747  22365265.826    22365269.330    22365265.703
  22365269.403          46.500          47.000
 124138117.15147  96731023.65644  23622690.106                    23622689.837
  23622690.230          44.250          27.250
 125918948.05847  98118664.50544  23961574.109                    23961572.652
  23961572.440          42.750          27.250
 115165699.31247  89739510.59346  21915302.422                    21915302.167
  21915302.495          47.000          38.000
 111896427.16849  87192036.82648  21293170.927    21293173.338    21293170.894
  21293173.665          54.000          52.000
 126852436.14447  98846050.18047  24139213.260    24139217.254    24139213.130
  24139217.567          43.500          42.000
 124448952.89947  96973217.59946  23681845.432    23681847.284    23681845.858
  23681846.869          42.750          41.000
 16 10  6  1 12 30.0000000  0 10G14G32G24G01G18G22G11G10G08G31
 109893152.50248  85631036.71847  20911957.047                    20911956.895
  20911957.194          49.750          44.000
 106633124.86749  83090767.65249  20291593.960    20291596.519    20291593.997
  20291596.094          56.750          55.000
 127510441.34546  99358792.77746  24264416.944    24264420.469    24264418.433
  24264421.229          39.500          41.000
 117456399.17448  91524465.65147  22351206.861    22351209.991    22351206.525
  22351210.236          48.000          47.000
 124223861.37347  96797837.30444  23639006.782                    23639006.282
  23639007.174          43.750          26.500
 125826199.15347  98046392.66844  23943924.814                    23943924.139
  23943923.555          43.000          28.000
 115147773.39847  89725542.34846  21911891.210                    21911891.073
  21911891.156          47.250          38.000
 111958298.43348  87240248.20148  21304944.251    21304946.860    21304944.530
  21304947.164          53.750          52.000
 126935971.39747  98911142.54246  24155109.576    24155113.587    24155108.353
  24155113.174          43.250          41.000
 124335077.88447  96884483.92646  23660175.414    23660178.071    23660176.197
  23660177.188          43.500          41.000
 16 10  6  1 13  0.0000000  0 10G14G32G24G01G18G22G11G10G08G31
 109847253.10648  85595270.96347  20903223.028                    20903222.390
  20903222.612          50.250          44.000
 106644145.47949  83099355.14549  20293690.842    20293693.511    20293691.213
  20293693.227          56.500          55.000
 127598668.62346  99427541.35346  24281206.449    24281209.257    24281206.298
  24281209.661          41.000          41.000
 117382940.59647  91467225.21248  22337228.077    22337230.836    22337227.764
  22337231.545          47.750          48.000
 124309758.81947  96864770.36544  23655352.567                    23655351.149
  23655353.300          43.250          26.500
 125733521.90047  97974176.65644  23926288.765                    23926288.310
  23926287.208          44.000          29.000
 115130492.49447  89712076.71346  21908602.834                    21908602.721
  21908602.628          46.750          37.750
 112020488.24348  87288707.79048  21316778.592    21316781.310    21316778.764
  21316781.407          53.750          52.000
 127019758.82747  98976431.38646  24171053.183    24171057.346    24171052.577
  24171057.748          42.250          41.000
 124221338.41247  96795855.86146  23638531.144    23638532.181    23638531.701
  23638533.228          44.000          41.000
 16 10  6  1 13 30.0000000  0 10G14G32G24G01G18G22G11G10G08G31
 109801768.13148  85559828.13647  20894567.532                    20894566.807
  20894567.221          50.750          44.250
 106655635.95849  83108308.76649  20295877.527    20295880.058    20295877.841
  20295879.717          56.750          55.000
 127687247.24346  99496563.76446  24298061.761    24298065.201    24298061.955
  24298064.797          40.250          41.000
 117309909.78248  91410318.11548  22323330.468    22323333.530    22323330.389
  22323333.965          48.000          48.000
 124395809.09947  96931822.48644  23671727.903                    23671726.854
  23671727.652          42.750          26.250
 125640917.67147  97902017.54644  23908666.994                    23908666.291
  23908665.340          43.750          28.750
 115113857.27447  89699114.21646  21905437.164                    21905437.313
  21905437.023          47.500          38.000
 112082995.90449  87337415.05648  21328673.670    21328676.127    21328673.587
  21328676.244          54.000          52.000
 127103795.53547  99041914.52046  24187044.252    24187048.683    24187044.448
  24187048.760          42.250          40.000
 124107737.44247  96707335.71646  23616913.420    23616916.113    23616914.147
  23616915.757          43.750          41.000
 16 10  6  1 14  0.0000000  0 10G14G32G24G01G18G22G11G10G08G31
 109756697.98848  85524708.55547  20885990.825                    20885990.403
  20885990.637          50.500          44.250
 106667595.38849  83117627.80749  20298153.287    20298155.974    20298153.519
  20298155.533          57.250          55.000
 127776174.36146  99565857.68346  24314985.075    24314987.319    24314985.241
  24314986.495          40.500          41.000
 117237309.15047  91353746.21048  22309514.885    22309518.751    22309514.734
  22309518.098          47.500          48.000
 124482011.50747  96998993.17844  23688130.641                    23688130.972
  23688131.607          42.250          25.750
 125548387.49647  97829916.14844  23891059.446                    23891058.313
  23891057.639          44.000          29.500
 115097868.19148  89686655.19546  21902394.729                    21902393.897
  21902394.438          48.000          38.250
 112145820.71948  87386369.46248  21340628.757    21340631.109    21340628.759
  21340631.313          53.500          52.000
 127188078.47247  99107589.48846  24203084.373    24203087.838    24203083.404
  24203087.490          42.500          40.000
 123994277.73947  96618925.67146  23595323.719    23595323.667    23595323.188
  23595325.567          43.250          41.000
 16 10  6  1 14 30.0000000  0 10G14G32G24G01G18G22G11G10G08G31
 109712043.23648  85489912.65247  20877493.273                    20877492.666
  20877493.087          50.250          44.250
 106680022.82649  83127311.52749  20300518.341    20300520.649    20300518.360
  20300520.358          57.000          55.000
 127865447.66746  99635421.38646  24331972.361    24331975.382    24331972.775
  24331976.530          40.000          41.000
 117165141.07947  91297511.37848  22295781.621    22295784.959    22295781.124
  22295785.389          46.250          48.000
 124568365.10446  97066281.65344  23704562.866                    23704563.390
  23704565.392          41.500          24.750
 125455932.38447  97757873.24345  23873465.956                    23873465.623
  23873463.477          44.500          30.500
 115082525.84247  89674700.13246  21899475.432                    21899474.815
  21899474.480          47.000          38.250
 112208962.01848  87435570.47248  21352644.160    21352646.764    21352644.062
  21352647.066          53.250          52.000
 127272604.73646  99173454.06346  24219168.645    24219173.545    24219168.022
  24219173.800          41.500          41.000
 123880962.22447  96530627.99146  23573760.774    23573761.491    23573760.017
  23573761.317          44.000          41.000
 16 10  6  1 15  0.0000000  0 10G14G32G24G01G18G22G11G10G08G31
 109667804.20448  85455440.69247  20869074.947                    20869074.502
  20869074.812          49.250          44.250
 106692917.33749  83137359.20149  20302971.933    20302974.468    20302972.104
  20302974.143          56.500          55.000
 127955064.47746  99705252.72646  24349025.789    24349029.105    24349025.816
  24349029.238          40.750          41.000
 117093407.98647  91241615.48248  22282130.961    22282134.697    22282131.353
  22282134.884          47.000          48.000
 124654869.20647  97133687.41744  23721025.490                    23721024.234
  23721025.807          42.750          25.500
 125363553.40147  97685889.64445  23855886.120                    23855885.724
  23855885.072          44.250          30.500
 115067830.57247  89663249.28246  21896678.931                    21896678.387
  21896678.041          47.500          38.000
 112272419.07848  87485017.53048  21364719.447    21364722.277    21364719.427
  21364722.426          53.500          52.000
 127357371.09146  99239505.76946  24235297.598    24235304.596    24235297.716
  24235303.418          40.500          41.000
 123767794.16047  96442445.20746  23552224.751    23552225.313    23552224.847
  23552226.432          44.500          41.000
 16 10  6  1 15 30.0000000  0 10G14G32G24G01G18G22G11G10G08G31
 109623981.24348  85421292.94647  20860735.618                    20860735.141
  20860735.438          49.750          44.250
 106706277.93849  83147770.06149  20305514.457    20305516.901    20305514.542
  20305516.504          56.750          55.000
 128045021.54046  99775349.19046  24366143.633    24366147.540    24366143.954
  24366147.632          40.000          41.000
 117022112.20147  91186060.36047  22268563.909    22268567.151    22268564.578
  22268567.468          47.750          47.000
 124741523.17147  97201209.96044  23737514.618                    23737513.910
  23737514.455          42.000          25.750
 125271251.62947  97613966.22045  23838321.702                    23838320.283
  23838319.770          44.250          30.500
 115053782.88848  89652303.03346  21894005.747                    21894005.061
  21894004.781          48.250          37.750
 112336191.22148  87534710.11348  21376854.749    21376857.545    21376855.022
  21376857.805          53.500          52.000
 127442374.40846  99305742.07246  24251474.578    24251478.644    24251474.172
  24251477.208          40.500          40.000
 123654776.38347  96354379.51546  23530718.097    23530720.327    23530718.146
  23530719.584          45.000          41.000
 16 10  6  1 16  0.0000000  0 10G14G32G24G01G18G22G11G10G08G31
 109580574.42648  85387469.45747  20852475.673                    20852475.119
  20852475.255          50.000          44.250
 106720103.70849  83158543.39249  20308145.229    20308147.691    20308145.529
  20308147.529          56.500          55.000
 128135316.71446  99845709.14947  24383326.949    24383331.455    24383325.997
  24383329.622          39.500          42.000
 116951256.16847  91130847.87848  22255080.586    22255084.056    22255080.298
  22255084.050          46.750          48.000
 124828326.44347  97268848.85344  23754031.850                    23754031.255
  23754032.812          42.500          24.500
 125179028.05247  97542103.73244  23820772.070                    23820771.012
  23820770.209          43.500          29.250
 115040383.09548  89641861.64246  21891455.999                    21891455.483
  21891455.266          48.500          38.500
 112400277.74048  87584647.65748  21389050.373    21389052.957    21389050.080
  21389053.004          53.750          52.000
 127527611.87846  99372160.81546  24267695.510    24267699.493    24267694.843
  24267698.943          41.250          41.000
 123541911.86947  96266433.23246  23509241.039    23509241.604    23509240.986
  23509241.613          45.250          41.000
 16 10  6  1 16 30.0000000  0 10G14G32G24G01G18G22G11G10G08G31
 109537584.57048  85353970.87347  20844295.125                    20844294.552
  20844294.864          49.500          44.500
 106734393.68949  83169678.44349  20310864.508    20310867.147    20310864.683
  20310866.745          56.750          55.000
 128225947.44446  99916330.56546  24400573.320    24400576.904    24400573.538
  24400575.880          40.000          41.000
 116880842.17747  91075979.86748  22241681.142    22241684.782    22241681.453
  22241684.987          47.250          48.000
 124915278.36347  97336603.57244  23770579.222                    23770579.234
  23770579.835          43.000          25.500
 125086883.90547  97470303.14144  23803237.953                    23803236.890
  23803235.420          44.250          29.750
 115027631.56847  89631925.40146  21889028.637                    21889028.586
  21889028.633          47.750          38.250
 112464677.94748  87634829.63548  21401305.138    21401307.732    21401305.128
  21401307.986          53.500          51.000
 127613080.14446  99438759.43647  24283958.683    24283964.121    24283957.979
  24283963.013          39.750          42.000
 123429203.48847  96178608.63247  23487793.123    23487794.302    23487792.844
  23487794.511          44.000          42.000
 16 10  6  1 17  0.0000000  0 10G14G32G24G01G18G22G11G10G08G31
 109495012.00148  85320797.45347  20836193.526                    20836193.196
  20836193.380          48.750          44.250
 106749146.88649  83181174.44649  20313672.007    20313674.391    20313672.179
  20313674.194          56.500          55.000
 128316910.77046  99987211.18446  24417883.065    24417885.267    24417882.228
  24417884.940          40.000          40.000
 116810872.68548  91021458.20848  22228366.767    22228369.563    22228366.872
  22228370.431          48.500          48.000
 125002378.04847  97404473.43244  23787153.776                    23787152.327
  23787153.777          43.250          25.000
 124994820.16947  97398565.20645  23785719.343                    23785717.653
  23785716.645          44.500          30.250
 115015529.12047  89622494.92346  21886725.930                    21886725.366
  21886725.929          47.500          38.250
 112529391.11148  87685255.47648  21413619.869    21413622.254    21413619.956
  21413622.425          53.750          51.000
 127698776.17046  99505535.50746  24300264.673    24300270.547    24300265.533
  24300269.771          39.750          41.000
 123316654.50547  96090908.23247  23466374.761    23466376.618    23466375.454
  23466376.283          42.500          42.000
 16 10  6  1 17 30.0000000  0 10G14G32G24G01G18G22G11G10G08G31
 109452856.81248  85287949.26347  20828171.732                    20828171.299
  20828171.565          50.250          44.500
 106764362.30849  83193030.62249  20316567.271    20316569.878    20316567.542
  20316569.615          57.250          55.000
 128408204.31946 100058349.08646  24435255.272    24435257.547    24435254.768
  24435258.802          38.750          40.000
 116741349.97047  90967284.68747  22215136.687    22215140.059    22215136.973
  22215140.250          47.250          47.000
 125089624.62247  97472457.77943  23803755.781                    23803755.625
  23803755.615          43.000          23.250
 124902838.17047  97326890.96945  23768214.751                    23768213.774
  23768213.257          44.000          30.000
 115004075.79348  89613570.26146  21884546.561                    21884545.891
  21884546.339          48.750          38.500
 112594416.53949  87735924.63848  21425993.823    21425996.223    21425993.851
  21425996.398          54.000          52.000
 127784697.23147  99572486.93947  24316617.648    24316620.808    24316616.446
  24316620.817          42.000          42.000
 123204267.60147  96003334.12947  23444989.263    23444989.536    23444989.148
  23444989.795          42.750          42.000
 16 10  6  1 18  0.0000000  0 10G14G32G24G01G18G22G11G10G08G31
 109411119.58348  85255426.75147  20820229.372                    20820228.995
  20820229.175          49.500          44.500
 106780038.95649  83205246.19849  20319550.422    20319553.047    20319550.770
  20319552.839          56.750          55.000
 128499824.87346 100129741.76847  24452689.378    24452694.058    24452689.561
  24452693.593          39.000          42.000
 116672276.40648  90913461.15548  22201992.802    22201995.793    22201993.093
  22201995.609          48.500          48.000
 125177017.60047  97540556.21843  23820387.254                    23820386.231
  23820385.465          43.000          23.500
 124810938.80847  97255281.15245  23750726.794                    23750725.722
  23750725.525          44.750          30.500
 114993271.69148  89605151.48346  21882490.700                    21882490.102
  21882490.281          48.250          38.250
 112659753.48948  87786836.54248  21438427.054    21438429.843    21438427.035
  21438429.745          53.500          51.000
 127870839.84346  99639611.01047  24333008.271    24333013.479    24333008.570
  24333013.598          40.750          42.000
 123092046.03847  95915888.84847  23423634.248    23423634.301    23423633.865
  23423634.139          43.500          42.000
 16 10  6  1 18 30.0000000  0 11G12G14G32G24G01G18G22G11G10G08G31
 131077286.72645 102138136.08646  24943175.394    24943177.154    24943176.350
  24943176.352          35.750          37.000
 109369800.36048  85223229.97047  20812366.706                    20812366.190
  20812366.446          49.750          44.500
 106796175.82449  83217820.38449  20322621.310    20322623.800    20322621.441
  20322623.618          56.500          55.000
 128591770.15146 100201387.49347  24470186.188    24470190.992    24470185.485
  24470190.768          38.750          42.000
 116603654.32547  90859989.42448  22188934.171    22188937.787    22188934.368
  22188937.845          47.750          48.000
 125264556.36347  97608768.22143  23837045.587                    23837044.669
  23837045.510          42.750          22.750
 124719123.05747  97183736.45545  23733255.661                    23733254.119
  23733253.695          45.000          30.250
 114983117.10248  89597238.82646  21880557.974                    21880557.652
  21880558.102          48.000          38.000
 112725401.27348  87837990.65048  21450919.578    21450921.865    21450919.438
  21450922.022          53.250          51.000
 127957200.81346  99706905.24747  24349441.938    24349448.653    24349443.017
  24349447.507          41.250          43.000
 122979992.81647  95828574.73347  23402311.684    23402311.223    23402310.785
  23402311.072          43.750          42.000
 16 10  6  1 19  0.0000000  0 11G12G14G32G24G01G18G22G11G10G08G31
 131008334.22445 102084406.88146  24930054.551    24930053.968    24930054.410
  24930054.877          35.500          36.000
 109328899.84348  85191359.44847  20804583.548                    20804582.998
  20804583.299          50.000          44.500
 106812771.86949  83230752.37349  20325779.316    20325781.908    20325779.629
  20325781.731          57.000          55.000
 128684037.23346 100273284.03146  24487743.142    24487746.929    24487744.768
  24487746.196          39.000          40.000
 116535486.01947  90806871.28448  22175962.280    22175965.489    22175962.053
  22175965.442          47.750          48.000
 125352240.04246  97677093.14643  23853729.202                    23853729.395
  23853729.172          40.750          22.000
 124627392.22047  97112257.93345  23715799.486                    23715798.411
  23715797.823          45.000          30.500
 114973612.32848  89589832.50746  21878749.712                    21878749.323
  21878748.980          48.500          37.750
 112791359.15148  87889386.39648  21463471.141    21463473.355    21463470.814
  21463473.407          53.750          51.000
 128043777.18746  99774367.31647  24365918.088    24365922.898    24365917.612
  24365922.359          41.500          42.000
 122868110.28647  95741393.60647  23381020.568    23381020.909    23381019.934
  23381020.799          42.750          42.000
 16 10  6  1 19 30.0000000  0 11G12G14G32G24G01G18G22G11G10G08G31
 130939756.13946 102030969.45946  24917004.868    24917005.924    24917004.562
  24917005.032          36.000          38.000
 109288417.97148  85159815.13947  20796880.080                    20796879.583
  20796879.769          50.000          44.250
 106829826.09749  83244041.38549  20329024.725    20329027.245    20329024.837
  20329027.021          56.750          55.000
 128776623.89346 100345429.55746  24505363.745    24505366.654    24505362.924
  24505365.957          39.000          41.000
 116467773.83347  90754108.56448  22163076.908    22163080.488    22163077.248
  22163080.741          47.250          48.000
 125440067.69046  97745530.27843  23870442.374                    23870442.089
  23870443.596          41.000          22.500
 124535747.20447  97040846.29645  23698359.653                    23698358.912
  23698358.154          44.750          31.000
 114964757.57648  89582932.70446  21877064.580                    21877063.809
  21877063.338          48.750          37.750
 112857626.37748  87941023.18848  21476081.278    21476083.238    21476081.168
  21476083.624          53.750          51.000
 128130566.09546  99841994.99347  24382433.588    24382438.574    24382432.836
  24382437.595          41.250          42.000
 122756401.71547  95654348.06047  23359763.157    23359763.468    23359761.879
  23359762.927          42.750          43.000
 16 10  6  1 20  0.0000000  0 11G12G14G32G24G01G18G22G11G10G08G31
 130871555.03145 101977825.74146  24904027.249    24904028.005    24904026.727
  24904026.750          35.750          38.000
 109248355.63948  85128597.74547  20789256.548                    20789256.069
  20789256.162          49.750          44.500
 106847337.46249  83257686.60749  20332356.976    20332359.779    20332357.167
  20332359.220          57.000          55.000
 128869526.78546 100417821.46746  24523041.924    24523044.611    24523042.149
  24523045.747          39.250          40.000
 116400520.11247  90701703.10448  22150278.841    22150282.517    22150278.693
  22150282.367          47.500          48.000
 125528038.97546  97814079.29743  23887184.355                    23887182.667
  23887183.893          41.750          23.250
 124444189.45947  96969502.62844  23680936.709                    23680935.555
  23680934.928          44.750          29.750
 114956553.23348  89576539.71946  21875503.225                    21875502.770
  21875502.478          49.000          37.750
 112924202.23748  87992900.48248  21488749.886    21488752.172    21488750.070
  21488752.540          53.750          51.000
 128217564.50047  99909785.92347  24398989.815    24398994.860    24398989.220
  24398992.555          42.500          43.000
 122644870.35747  95567440.56247  23338538.936    23338539.289    23338538.436
  23338539.427          43.500          43.000
 16 10  6  1 20 30.0000000  0 11G12G14G32G24G01G18G22G11G10G08G31
 130803734.34046 101924978.50546  24891121.383    24891121.279    24891120.639
  24891121.988          36.250          38.000
 109208712.68948  85097707.14447  20781712.569                    20781711.989
  20781712.383          48.750          44.500
 106865304.90649  83271687.21949  20335776.046    20335778.556    20335776.258
  20335778.314          56.750          55.000
 128962743.70646 100490458.13746  24540779.573    24540782.847    24540779.854
  24540782.852          38.500          40.000
 116333727.11148  90649656.63648  22137568.663    22137571.941    22137568.901
  22137572.153          48.000          48.000
 125616153.14946  97882739.67443  23903951.778                    23903950.511
  23903952.281          40.750          23.750
 124352720.00047  96898227.78945  23663530.391                    23663529.451
  23663528.792          44.750          30.000
 114948999.12348  89570653.40046  21874065.799                    21874065.685
  21874064.912          49.000          37.750
 112991086.00548  88045017.69148  21501477.772    21501480.102    21501477.514
  21501480.198          53.750          51.000
 128304769.04646  99977737.48047  24415582.719    24415587.746    24415582.940
  24415587.631          40.750          42.000
 122533519.10247  95480673.41447  23317349.412    23317349.421    23317348.709
  23317349.298          43.000          42.000
 16 10  6  1 21  0.0000000  0 11G12G14G32G24G01G18G22G11G10G08G31
 130736296.66745 101872429.68446  24878287.471    24878288.466    24878286.427
  24878287.274          35.750          37.000
 109169489.33348  85067143.50047  20774248.395                    20774248.147
  20774248.362          50.000          44.500
 106883727.38749  83286042.40149  20339281.706    20339284.297    20339281.909
  20339284.020          57.250          55.000
 129056271.61146 100563337.09846  24558576.702    24558580.789    24558577.528
  24558581.402          38.000          40.000
 116267397.13848  90597970.95648  22124946.786    22124949.967    22124946.757
  22124949.994          48.000          48.000
 125704409.23746  97951510.61243  23920744.947                    23920744.100
  23920746.053          38.500          23.000
 124261339.73647  96827022.44144  23646141.530                    23646140.159
  23646139.395          44.250          29.750
 114942095.80148  89565274.19446  21872751.870                    21872751.681
  21872751.893          48.750          38.000
 113058276.92848  88097374.25748  21514263.960    21514265.769    21514263.496
  21514266.096          53.750          51.000
 128392176.60746 100045847.23047  24432215.791    24432221.362    24432216.436
  24432220.926          40.250          42.000
 122422350.97447  95394048.96547  23296194.880    23296194.637    23296195.053
  23296194.726          43.750          42.000
 16 10  6  1 21 30.0000000  0 11G12G14G32G24G01G18G22G11G10G08G31
 130669245.21046 101820181.87946  24865530.022    24865530.681    24865528.391
  24865529.676          38.250          39.000
 109130686.00048  85036907.14447  20766864.498                    20766863.994
  20766864.167          49.500          44.250
 106902603.83949  83300751.32949  20342873.800    20342876.464    20342874.001
  20342876.137          56.750          55.000
 129150107.96046 100636456.45646  24576433.398    24576437.665    24576435.028
  24576437.957          38.250          40.000
 116201532.46747  90546647.86848  22112412.718    22112416.326    22112412.939
  22112416.170          47.500          48.000
 125792806.51846  98020391.55943  23937567.093                    23937565.869
  23937567.685          38.000          22.500
 124170049.80347  96755887.48345  23628769.800                    23628768.658
  23628767.895          44.750          30.250
 114935843.14848  89560402.01346  21871562.258                    21871561.698
  21871561.572          49.500          38.000
 113125774.28648  88149969.58848  21527108.058    21527110.400    21527108.122
  21527110.318          53.500          51.000
 128479784.46146 100114113.06247  24448887.454    24448892.528    24448887.113
  24448891.915          39.750          42.000
 122311368.55747  95307569.21247  23275075.237    23275075.538    23275074.953
  23275075.565          43.750          42.000
 16 10  6  1 22  0.0000000  0 11G12G14G32G24G01G18G22G11G10G08G31
 130602582.67246 101768237.15746  24852843.012    24852842.766    24852843.618
  24852843.012          38.250          36.000
 109092302.88648  85006998.23847  20759560.687                    20759560.125
  20759560.256          49.250          44.250
 106921933.21049  83315813.17849  20346552.066    20346554.640    20346552.217
  20346554.378          56.750          55.000
 129244250.12046 100709814.08046  24594348.847    24594353.556    24594348.847
  24594352.404          37.750          41.000
 116136135.40047  90495689.14748  22099968.003    22099971.463    22099968.783
  22099971.775          47.750          48.000
 125881344.53746  98089382.20744  23954416.197                    23954414.036
  23954415.315          40.500          24.500
 124078851.39947  96684823.86244  23611414.840                    23611414.240
  23611413.167          44.000          29.500
 114930241.29948  89556036.94246  21870496.209                    21870495.553
  21870495.715          49.000          38.000
 113193577.29248  88202803.10348  21540010.422    21540012.688    21540010.338
  21540012.808          53.750          51.000
 128567589.32746 100182532.39446  24465596.433    24465600.254    24465596.432
  24465599.853          39.750          41.000
 122200575.17947  95221236.76947  23253992.289    23253993.333    23253991.643
  23253992.304          44.000          42.000
 16 10  6  1 22 30.0000000  0 11G12G14G32G24G01G18G22G11G10G08G31
 130536312.11546 101716597.85646  24840231.879    24840232.123    24840232.025
  24840232.163          38.250          36.000
 109054340.24048  84977416.96747  20752336.407                    20752336.020
  20752336.239          49.500          44.500
 106941714.38349  83331227.08349  20350316.230    20350318.748    20350316.589
  20350318.520          56.750          55.000
 129338695.31646 100783407.87546  24612321.897    24612324.175    24612320.866
  24612324.506          39.000          40.000
 116071208.16947  90445096.51348  22087612.739    22087615.893    22087612.730
  22087616.515          47.750          48.000
 125970022.22246  98158481.66944  23971289.901                    23971288.807
  23971291.973          40.250          25.250
 123987746.15547  96613832.81145  23594077.738                    23594077.498
  23594076.665          43.750          30.500
 114925290.45848  89552179.15846  21869554.114                    21869553.618
  21869553.454          49.750          38.000
 113261685.22648  88255874.21348  21552970.831    21552972.991    21552971.006
  21552973.349          53.750          51.000
 128655588.16846 100251102.87847  24482340.555    24482347.786    24482341.423
  24482346.877          39.250          42.000
 122089973.85547  95135053.96347  23232945.785    23232945.825    23232945.084
  23232945.101          44.250          42.000
 16 10  6  1 23  0.0000000  0 11G12G14G32G24G01G18G22G11G10G08G31
 130470436.34046 101665266.19645  24827696.004    24827695.906    24827697.031
  24827696.057          36.750          35.000
 109016798.29148  84948163.51347  20745192.367                    20745191.956
  20745192.171          49.000          44.750
 106961946.25849  83346992.18749  20354166.226    20354168.736    20354166.448
  20354168.535          56.500          55.000
 129433440.75746 100857235.57646  24630351.021    24630353.312    24630350.439
  24630352.633          39.250          40.000
 116006753.05047  90394871.76348  22075347.618    22075350.732    22075347.626
  22075350.572          47.750          48.000
 126058838.92746  98227689.44944  23988192.150                    23988190.941
  23988192.938          40.750          25.500
 123896734.63547  96542914.80945  23576759.532                    23576758.075
  23576757.394          43.750          30.250
 114920990.23648  89548828.34546  21868736.126                    21868735.637
  21868735.235          49.750          38.250
 113330097.31248  88309182.33648  21565989.306    21565991.895    21565989.328
  21565991.783          53.500          51.000
 128743777.65446 100319821.93146  24499123.629    24499128.291    24499122.838
  24499127.833          39.000          41.000
 121979567.43147  95049023.01247  23211935.323    23211935.733    23211935.259
  23211935.341          44.250          42.000
 16 10  6  1 23 30.0000000  0 11G12G14G32G24G01G18G22G11G10G08G31
 130404958.30946 101614244.43246  24815234.527    24815236.461    24815235.275
  24815236.350          37.500          37.000
 108979677.34648  84919238.10847  20738128.819                    20738128.133
  20738128.471          49.500          44.750
 106982627.81849  83363107.69049  20358101.876    20358104.313    20358102.045
  20358103.956          57.000          55.000
 129528483.57546 100931295.07046  24648437.667    24648439.118    24648437.365
  24648439.368          39.500          39.000
 115942772.25747  90345016.62448  22063172.265    22063175.869    22063172.548
  22063175.509          47.750          48.000
 126147794.25146  98297005.27344  24005119.259                    24005119.320
  24005119.604          40.750          24.500
 123805817.95647  96472070.70545  23559459.080                    23559457.096
  23559456.197          43.500          30.500
 114917340.81548  89545984.65546  21868041.097                    21868040.877
  21868040.791          49.500          38.250
 113398812.80648  88362726.86948  21579065.354    21579067.610    21579065.575
  21579067.889          53.250          51.000
 128832154.63946 100388687.06646  24515941.307    24515946.289    24515941.380
  24515945.644          38.750          41.000
 121869358.97147  94963146.33547  23190963.595    23190963.720    23190963.694
  23190964.099          44.500          42.000
 16 10  6  1 24  0.0000000  0 11G12G14G32G24G01G18G22G11G10G08G31
 130339880.91546 101563534.87746  24802851.827    24802852.736    24802852.178
  24802851.895          37.250          37.000
 108942977.69748  84890640.99247  20731145.031                    20731144.405
  20731144.602          49.750          44.750
 107003757.86649  83379572.66949  20362122.662    20362125.431    20362123.043
  20362125.095          56.750          55.000
 129623821.71246 101005584.65746  24666579.392    24666581.448    24666580.200
  24666581.934          39.750          40.000
 115879268.05347  90295532.84748  22051087.944    22051090.897    22051087.938
  22051091.022          47.500          48.000
 126236887.12246  98366428.28944  24022072.356                    24022072.930
  24022073.556          40.500          25.000
 123714997.47647  96401301.55145  23542175.372                    23542174.572
  23542174.055          43.250          31.000
 114914341.88048  89543647.83746  21867470.638                    21867470.071
  21867470.493          49.500          38.500
 113467830.96248  88416507.24948  21592199.034    21592201.324    21592199.066
  21592201.620          53.250          51.000
 128920716.26646 100457696.11946  24532793.714    24532799.090    24532792.972
  24532799.231          38.250          41.000
 121759351.47047  94877426.25147  23170029.173    23170030.430    23170029.524
  23170030.149          43.250          42.000
 16 10  6  1 24 30.0000000  0 11G12G14G32G24G01G18G22G11G10G08G31
 130275206.75846 101513139.51245  24790544.357    24790544.297    24790544.476
  24790544.873          37.750          34.000
 108906699.44148  84862372.23247  20724241.192                    20724241.080
  20724241.018          49.250          44.500
 107025335.30249  83396386.25949  20366228.801    20366231.364    20366229.058
  20366230.989          56.500          55.000
 129719451.99746 101080101.89446  24684778.089    24684778.339    24684777.288
  24684779.065          40.000          40.000
 115816242.65347  90246422.16548  22039094.626    22039097.251    22039094.492
  22039097.602          47.750          48.000
 126326116.78946  98435957.87444  24039051.749                    24039052.354
  24039052.921          40.500          24.000
 123624274.28147  96330608.21845  23524911.351                    23524909.858
  23524910.094          43.000          31.500
 114911993.85548  89541818.22546  21867023.936                    21867023.497
  21867023.245          49.500          38.250
 113537150.97948  88470522.84048  21605390.257    21605392.967    21605390.118
  21605392.897          53.000          51.000
 129009459.82546 100526846.91246  24549681.472    24549686.472    24549681.376
  24549685.794          38.250          40.000
 121649547.95247  94791865.12447  23149135.140    23149135.023    23149134.386
  23149134.753          45.000          43.000
 16 10  6  1 25  0.0000000  0 11G12G14G32G24G01G18G22G11G10G08G31
 130210938.82346 101463060.66845  24778314.969    24778315.094    24778315.434
  24778314.919          38.250          35.000
 108870842.49548  84834431.76147  20717418.067                    20717417.556
  20717417.854          49.500          44.750
 107047359.02649  83413547.61149  20370419.809    20370422.332    20370419.983
  20370422.073          57.000          55.000
 129815372.10846 101154844.96646  24703029.299    24703031.086    24703029.792
  24703031.462          39.250          40.000
 115753698.26347  90197686.29848  22027192.577    22027195.981    22027192.614
  22027196.180          47.250          48.000
 126415482.49146  98505593.47843  24056058.531                    24056057.379
  24056059.069          40.250          23.000
 123533649.57447  96259991.62645  23507667.059                    23507664.927
  23507664.773          43.750          32.000
 114910296.78748  89540495.83646  21866700.846                    21866700.296
  21866700.637          49.250          38.250
 113606772.11448  88524773.07248  21618638.742    21618641.003    21618638.657
  21618641.292          53.000          51.000
 129098381.71546 100596136.67046  24566601.344    24566607.137    24566601.646
  24566606.357          36.250          40.000
 121539951.28847  94706465.17447  23128279.842    23128279.434    23128279.419
  23128279.605          45.250          43.000
 16 10  6  1 25 30.0000000  0 11G12G14G32G24G01G18G22G11G10G08G31
 130147079.97346 101413300.56945  24766163.103    24766163.309    24766163.257
  24766162.404          38.750          35.000
 108835407.33148  84806819.95547  20710674.975                    20710674.455
  20710674.637          49.500          44.500
 107069827.90349  83431055.82849  20374695.589    20374698.067    20374695.679
  20374697.809          57.000          55.000
 129911578.30546 101229810.98146  24721337.767    24721339.504    24721336.156
  24721338.703          39.000          39.000
 115691637.09847  90149326.97648  22015382.637    22015385.842    22015382.973
  22015386.244          47.500          48.000
 126504983.84546  98575334.77743  24073090.800                    24073090.106
  24073090.793          40.500          22.750
 123443124.60047  96189452.71445  23490440.187                    23490439.290
  23490437.803          43.750          32.250
 114909250.23048  89539680.34746  21866501.331                    21866501.394
  21866500.685          48.000          37.750
 113676693.57048  88579257.33048  21631944.293    21631946.853    21631944.109
  21631946.722          52.750          50.000
 129187478.88146 100665563.00246  24583557.945    24583562.344    24583556.831
  24583562.173          37.500          40.000
 121430564.44247  94621228.70747  23107463.867    23107463.520    23107463.777
  23107463.774          45.000          43.000
 16 10  6  1 26  0.0000000  0 11G12G14G32G24G01G18G22G11G10G08G31
 130083633.36646 101363861.71645  24754089.513    24754088.708    24754089.481
  24754089.939          38.250          35.000
 108800394.04948  84779536.88547  20704012.315                    20704011.586
  20704011.895          49.000          44.750
 107092740.79949  83448910.04049  20379055.754    20379058.107    20379055.806
  20379057.861          56.500          55.000
 130008068.96046 101304998.67546  24739695.992    24739700.394    24739698.317
  24739699.945          37.750          39.000
 115630061.35147  90101345.90148  22003665.427    22003668.748    22003665.392
  22003668.890          47.750          49.000
 126594619.54546  98645180.75643  24090147.804                    24090147.392
  24090147.670          39.750          21.500
 123352700.56947  96118992.49245  23473233.025                    23473231.911
  23473230.989          44.000          32.750
 114908853.99448  89539371.60346  21866426.118                    21866425.673
  21866425.705          48.250          38.000
 113746914.59848  88633975.01448  21645306.932    21645309.190    21645306.929
  21645309.428          53.000          50.000
 129276748.30546 100735123.57846  24600545.009    24600548.096    24600544.967
  24600548.662          38.000          39.000
 121321390.34947  94536158.05547  23086688.605    23086689.599    23086688.129
  23086689.177          45.250          45.000
 16 10  6  1 26 30.0000000  0 11G12G14G32G24G01G18G22G11G10G08G31
 130020601.08246 101314745.65246  24742094.348    24742096.648    24742095.814
  24742094.692          38.000          37.000
 108765803.11248  84752582.91747  20697430.015                    20697429.216
  20697429.476          49.250          44.750
 107116096.52649  83467109.31449  20383500.169    20383502.607    20383500.395
  20383502.375          57.000          55.000
 130104840.70546 101380405.40446  24758112.482    24758115.536    24758112.561
  24758116.123          38.750          39.000
 115568973.17247  90053744.73948  21992040.646    21992043.963    21992041.062
  21992043.932          47.750          49.000
 126684389.10646  98715131.07543  24107229.595                    24107229.100
  24107230.564          38.500          20.000
 123262378.50347  96048611.69245  23456045.361                    23456044.537
  23456043.395          43.750          32.750
 114909107.71248  89539569.32446  21866474.270                    21866474.110
  21866474.051          48.000          38.500
 113817434.36648  88688925.47848  21658726.463    21658728.626    21658726.380
  21658728.771          52.250          50.000
 129366186.74246 100804815.82246  24617564.550    24617569.303    24617563.527
  24617567.639          37.750          40.000
 121212431.99247  94451255.50547  23065955.158    23065954.381    23065954.562
  23065954.663          45.250          44.000
 16 10  6  1 27  0.0000000  0 11G12G14G32G24G01G18G22G11G10G08G31
 129957986.66946 101265955.25646  24730179.481    24730179.819    24730179.285
  24730179.661          37.000          36.000
 108731634.29448  84725957.86747  20690927.499                    20690927.039
  20690927.412          50.000          44.750
 107139893.95849  83485652.77549  20388028.757    20388031.185    20388028.830
  20388030.757          57.000          55.000
 130201891.29046 101456029.37446  24776581.671    24776583.032    24776580.925
  24776583.075          39.250          39.000
 115508374.75948  90006525.20648  21980509.260    21980512.024    21980509.648
  21980512.650          48.500          49.000
 126774291.67346  98785185.02543  24124338.647                    24124338.279
  24124338.913          38.500          19.750
 123172159.78847  95978311.44445  23438877.524                    23438876.339
  23438875.354          44.750          33.000
 114910011.50948  89540273.59646  21866646.945                    21866646.358
  21866646.100          48.750          38.000
 113888252.13848  88744108.15548  21672202.857    21672205.022    21672202.629
  21672205.123          52.750          50.000
 129455791.29446 100874637.49946  24634615.636    24634619.827    24634615.384
  24634619.207          37.000          39.000
 121103692.61147  94366523.56247  23045262.239    23045262.268    23045262.562
  23045262.163          46.000          45.000
 16 10  6  1 27 30.0000000  0 11G12G14G32G24G01G18G22G11G10G08G31
 129895792.90746 101217492.58545  24718345.159    24718343.950    24718343.936
  24718344.225          36.750          35.000
 108697887.86248  84699661.95447  20684505.965                    20684505.401
  20684505.523          49.750          45.000
 107164131.94449  83504539.51849  20392641.083    20392643.306    20392641.199
  20392643.222          56.750          55.000
 130299217.83146 101531868.39146  24795103.521    24795103.817    24795101.954
  24795103.746          39.750          38.000
 115448268.28348  89959689.00448  21969071.460    21969074.603    21969071.557
  21969074.591          48.500          49.000
 126864326.66346  98855342.11843  24141471.914                    24141470.871
  24141471.298          38.750          18.000
 123082045.31947  95908092.40745  23421729.176                    23421728.469
  23421726.734          44.500          33.500
 114911565.25648  89541484.31746  21866942.371                    21866941.438
  21866941.760          49.500          38.250
 113959367.10948  88799522.41348  21685734.906    21685737.534    21685735.261
  21685737.692          52.250          50.000
 129545558.94646 100944586.31446  24651697.763    24651702.971    24651697.448
  24651701.125          37.500          40.000
 120995175.02747  94281964.46147  23024611.514    23024612.299    23024611.577
  23024611.976          45.500          45.000
 16 10  6  1 28  0.0000000  0 11G12G14G32G24G01G18G22G11G10G08G31
 129834022.21146 101169359.56346  24706589.739    24706592.234    24706590.048
  24706591.095          38.750          37.000
 108664563.83448  84673695.18647  20678164.489                    20678163.880
  20678164.166          49.250          45.000
 107188809.27849  83523768.61549  20397336.925    20397339.365    20397337.228
  20397339.172          56.500          55.000
 130396817.46746 101607920.19546  24813674.991    24813677.067    24813673.830
  24813677.332          40.250          38.000
 115388655.85948  89913237.78848  21957727.427    21957730.716    21957727.445
  21957730.727          48.500          49.000
 126954492.98946  98925601.56342  24158629.217                    24158629.154
  24158628.417          37.250          17.250
 122992036.54847  95837955.71845  23404601.401                    23404600.256
  23404598.760          44.500          33.250
 114913768.60048  89543201.21846  21867361.239                    21867360.835
  21867361.242          49.250          37.750
 114030778.46548  88855167.62748  21699324.545    21699326.504    21699324.575
  21699327.195          52.750          50.000
 129635486.35046 101014659.59646  24668810.428    24668816.056    24668810.193
  24668815.009          38.000          40.000
 120886882.07147  94197580.39547  23004004.290    23004004.781    23004003.741
  23004004.255          45.750          45.000
 16 10  6  1 28 30.0000000  0 11G12G14G32G24G01G18G22G11G10G08G31
 129772676.90946 101121558.06246  24694915.362    24694918.405    24694915.556
  24694917.317          36.250          38.000
 108631662.60248  84648057.86947  20671903.543                    20671903.082
  20671903.192          49.250          44.750
 107213924.83249  83543339.17949  20402116.239    20402118.668    20402116.486
  20402118.469          56.750          55.000
 130494687.57546 101684182.71746  24832297.414    24832299.307    24832298.690
  24832299.642          38.500          37.000
 115329539.63548  89867173.21248  21946477.837    21946481.103    21946478.284
  21946481.225          48.750          48.000
 127044790.38146  98995963.18943  24175811.224                    24175811.733
  24175813.418          37.250          19.000
 122902134.98747  95767902.57545  23387492.781                    23387491.762
  23387491.305          44.250          33.250
 114916621.28248  89545424.09646  21867904.543                    21867903.977
  21867903.705          50.000          38.250
 114102485.43048  88911043.18448  21712969.761    21712972.158    21712969.844
  21712972.437          52.250          50.000
 129725570.52946 101084855.02746  24685951.420    24685957.562    24685951.684
  24685958.246          36.000          40.000
 120778816.71447  94113373.68347  22983440.216    22983441.067    22983439.771
  22983440.064          46.000          45.000
 16 10  6  1 29  0.0000000  0 11G12G14G32G24G01G18G22G11G10G08G31
 129711761.35546 101074091.43746  24683325.634    24683325.823    24683325.289
  24683325.530          39.000          37.000
 108599184.04648  84622749.90947  20665722.906                    20665722.617
  20665722.875          48.750          44.750
 107239477.37649  83563250.26049  20406978.851    20406981.272    20406979.069
  20406981.023          56.500          55.000
 130592825.86446 101760654.23546  24850972.604    24850974.497    24850973.070
  24850975.416          38.000          38.000
 115270921.73548  89821496.93548  21935323.245    21935326.540    21935323.510
  21935326.475          48.500          48.000
 127135217.65446  99066425.94443  24193019.860                    24193019.097
  24193020.912          37.500          19.750
 122812341.12047  95697933.34745  23370405.687                    23370404.920
  23370403.259          44.500          32.750
 114920122.65948  89548152.44946  21868570.421                    21868570.164
  21868570.627          49.500          38.000
 114174487.20448  88967148.45848  21726671.815    21726673.772    21726671.563
  21726674.085          52.500          50.000
 129815808.70546 101155170.43146  24703125.510    24703128.408    24703124.055
  24703129.078          37.500          40.000
 120670981.97047  94029346.65547  22962920.144    22962920.289    22962919.769
  22962919.856          46.750          45.000
 16 10  6  1 29 30.0000000  0 11G12G14G32G24G01G18G22G11G10G08G31
 129651277.24746 101026961.01745  24671814.285    24671813.867    24671814.020
  24671814.810          36.750          35.000
 108567128.31648  84597771.42447  20659622.882                    20659622.579
  20659622.601          49.000          44.750
 107265465.72449  83583500.92349  20411924.192    20411926.774    20411924.367
  20411926.467          56.250          55.000
 130691228.85146 101837331.98946  24869698.147    24869701.123    24869697.877
  24869700.460          39.000          39.000
 115212804.23848  89776210.60148  21924263.722    21924267.126    21924263.961
  21924267.540          48.500          49.000
 127225773.81646  99136989.16143  24210252.410                    24210251.471
  24210251.548          37.500          21.750
 122722656.42947  95628049.18745  23353339.621                    23353338.187
  23353337.282          43.750          32.500
 114924272.52248  89551386.12346  21869360.151                    21869359.956
  21869359.625          49.500          38.000
 114246782.94948  89023482.80448  21740429.067    21740431.063    21740428.565
  21740431.235          52.500          50.000
 129906197.64746 101225603.35347  24720324.203    24720331.604    24720325.120
  24720329.790          36.250          42.000
 120563381.07047  93945501.85347  22942443.850    22942444.911    22942443.694
  22942443.778          46.000          45.000
 16 10  6  1 30  0.0000000  0 11G12G14G32G24G01G18G22G11G10G08G31
 129591227.41746 100980168.95546  24660386.217    24660388.084    24660388.198
  24660388.388          36.750          38.000
 108535495.66248  84573122.61347  20653603.619                    20653603.195
  20653603.237          49.000          44.750
 107291888.68249  83604090.24649  20416952.208    20416954.856    20416952.638
  20416954.445          56.000          55.000
 130789894.31746 101914214.20346  24888473.258    24888476.809    24888473.929
  24888476.265          39.500          39.000
 115155189.28148  89731315.84848  21913299.989    21913302.764    21913300.249
  21913302.913          49.250          48.000
 127316458.70246  99207652.67243  24227508.990                    24227508.609
  24227508.871          38.250          21.500
 122633082.27847  95558251.15045  23336294.404                    23336293.284
  23336292.142          44.250          32.750
 114929070.76348  89555125.03046  21870272.876                    21870272.886
  21870272.856          50.000          37.750
 114319371.89548  89080045.61648  21754242.146    21754244.223    21754241.823
  21754244.387          52.250          50.000
 129996733.89646 101296151.04946  24737553.020    24737559.454    24737553.369
  24737559.120          37.250          41.000
 120456016.76847  93861841.40947  22922012.755    22922012.910    22922013.270
  22922013.768          46.750          44.000
 16 10  6  1 30 30.0000000  0 12G12G14G32G24G01G18G22G11G03G10G08G31
 129531613.96046 100933716.95046  24649042.634    24649044.285    24649043.736
  24649044.329          36.500          38.000
 108504286.15648  84548803.52447  20647664.730                    20647664.055
  20647664.439          48.750          44.750
 107318745.05649  83625017.29349  20422062.858    20422065.303    20422062.995
  20422065.025          56.000          55.000
 130888819.30146 101991298.76946  24907297.798    24907301.964    24907297.541
  24907301.516          38.250          39.000
 115098078.96648  89686814.30948  21902432.398    21902435.365    21902432.150
  21902435.565          49.250          49.000
 127407271.07146  99278415.51843  24244789.665                    24244788.286
  24244789.340          38.000          22.250
 122543619.80647  95488540.15345  23319270.181                    23319269.293
  23319267.914          44.500          32.500
 114934516.95748  89559368.82746  21871309.687                    21871309.293
  21871309.109          50.250          38.000
 131885474.63646                  25096971.413    25096976.531
                        37.250          30.000
 114392253.21448  89136836.24648  21768111.185    21768113.357    21768111.266
  21768113.591          52.750          50.000
 130087414.79846 101366811.47546  24754809.465    24754814.967    24754809.168
  24754814.907          37.500          41.000
 120348891.99647  93778367.59247  22901627.640    22901628.244    22901627.574
  22901628.045          47.000          44.000
 16 10  6  1 31  0.0000000  0 12G12G14G32G24G01G18G22G11G03G10G08G31
 129472440.52646 100887607.81346  24637782.552    24637783.942    24637782.073
  24637783.398          36.250          37.000
 108473499.66548  84524814.05947  20641806.230                    20641805.709
  20641805.776          48.750          44.750
 107346033.59749  83646281.09349  20427255.710    20427258.074    20427255.858
  20427257.892          55.750          55.000
 130988001.25046 102068583.46346  24926171.226    24926174.639    24926170.764
  24926173.491          37.000          39.000
 115041475.29748  89642707.58248  21891660.778    21891664.371    21891661.146
  21891664.497          49.500          49.000
 127498210.49346  99349277.37643  24262095.255                    24262093.998
  24262094.270          39.000          23.500
 122454270.33147  95418917.18845  23302267.650                    23302266.199
  23302264.376          43.000          32.000
 114940610.68648  89564117.18946  21872469.076                    21872469.024
  21872468.632          50.250          38.000
 131783525.12246 102688462.82045  25077571.851    25077575.191    25077573.297
  25077575.336          39.500          35.000
 114465426.09248  89193854.07148  21782035.320    21782037.897    21782034.946
  21782037.663          52.250          50.000
 130178237.13646 101437582.08146  24772091.538    24772096.950    24772091.861
  24772095.776          36.250          40.000
 120242009.77847  93695082.78347  22881288.520    22881288.915    22881288.528
  22881289.198          46.250          44.000
 16 10  6  1 31 30.0000000  0 12G12G14G32G24G01G18G22G11G03G10G08G31
 129413709.63045 100841843.53446  24626606.227    24626608.924    24626605.904
  24626607.580          35.500          38.000
 108443136.22348  84501154.24047  20636028.392                    20636027.817
  20636027.978          49.000          44.750
 107373753.12149  83667880.72549  20432530.413    20432532.956    20432530.688
  20432532.829          55.750          55.000
 131087437.54746 102146066.32646  24945093.986    24945094.130    24945091.938
  24945095.395          37.250          37.000
 114985380.38148  89598997.27948  21880986.392    21880989.718    21880986.369
  21880989.757          49.250          49.000
 127589276.00046  99420237.49043  24279423.409                    24279423.903
  24279425.024          38.250          23.000
 122365034.88947  95349383.07045  23285286.085                    23285285.017
  23285283.989          43.000          32.250
 114947351.49148  89569369.77646  21873751.789                    21873751.515
  21873751.470          50.250          37.750
 131681585.45846 102609029.41546  25058174.313    25058177.987    25058173.531
  25058177.779          39.500          37.000
 114538889.70048  89251098.43448  21796014.720    21796016.943    21796014.842
  21796017.416          52.000          50.000
 130269197.61746 101508460.32846  24789401.714    24789406.544    24789400.304
  24789406.447          36.250          41.000
 120135373.08047  93611989.30047  22860996.244    22860997.026    22860996.065
  22860996.926          46.250          44.000
 16 10  6  1 32  0.0000000  0 12G12G14G32G24G01G18G22G11G03G10G08G31
 129355423.52746 100796425.80546  24615514.262    24615516.021    24615514.778
  24615517.032          36.750          38.000
 108413196.09948  84477824.27947  20630330.633                    20630330.312
  20630330.560          49.500          44.750
 107401902.38049  83689815.21949  20437887.181    20437889.630    20437887.325
  20437889.397          56.000          55.000
 131187125.47146 102223745.26446  24964063.865    24964065.655    24964063.595
  24964066.349          36.750          38.000
 114929796.25348  89555684.98548  21870408.985    21870412.461    21870409.132
  21870412.592          50.000          49.000
 127680466.80246  99491295.23044  24296776.456                    24296776.192
  24296777.636          38.000          24.000
 122275915.27447  95279939.22745  23268326.926                    23268326.426
  23268324.798          43.250          32.750
 114954738.80048  89575126.13746  21875157.634                    21875157.311
  21875157.294          50.500          38.000
 131579656.67346 102529604.46746  25038776.422    25038782.088    25038776.559
  25038781.510          38.500          37.000
 114612643.20748  89308568.68748  21810049.813    21810052.389    21810049.779
  21810052.436          52.250          50.000
 130360293.61546 101579444.22546  24806735.408    24806740.612    24806735.733
  24806741.099          36.000          40.000
 120028984.91947  93529089.47947  22840750.714    22840751.818    22840751.029
  22840751.646          46.250          45.000
 16 10  6  1 32 30.0000000  0 12G12G14G32G24G01G18G22G11G03G10G08G31
 129297585.06246 100751356.92746  24604508.849    24604509.070    24604508.575
  24604510.504          37.250          36.000
 108383679.17748  84454824.08947  20624713.998                    20624713.279
  20624713.619          49.000          45.250
 107430480.12749  83712083.59849  20443325.208    20443327.836    20443325.451
  20443327.672          55.750          55.000
 131287062.13546 102301617.98546  24983080.168    24983083.997    24983080.097
  24983084.969          36.500          39.000
 114874725.00848  89512772.35448  21859929.513    21859932.752    21859929.323
  21859932.492          50.250          48.000
 127771782.11746  99562450.00343  24314154.925                    24314153.800
  24314155.157          39.500          23.000
 122186912.10847  95210586.11845  23251390.026                    23251389.427
  23251388.432          42.750          33.000
 114962771.97948  89581385.76146  21876686.416                    21876686.194
  21876686.375          50.750          38.000
 131477739.86046 102450188.81946  25019382.663    25019386.844    25019382.672
  25019384.755          38.250          37.000
 114686685.81948  89366264.22448  21824139.471    21824142.083    21824139.463
  21824142.276          52.000          50.000
 130451521.74746 101650531.01646  24824097.276    24824101.451    24824096.898
  24824100.799          37.250          40.000
 119922847.95547  93446385.40147  22820553.509    22820554.950    22820553.431
  22820554.105          46.500          45.000
 16 10  6  1 33  0.0000000  0 12G12G14G32G24G01G18G22G11G03G10G08G31
 129240197.48846 100706639.35646  24593588.895    24593589.382    24593589.203
  24593589.514          37.750          38.000
 108354585.79448  84432153.92247  20619177.440                    20619176.946
  20619177.241          48.750          45.000
 107459485.04549  83734684.83249  20448844.567    20448847.622    20448844.853
  20448846.996          55.500          55.000
 131387245.18746 102379682.70646  25002145.532    25002147.835    25002145.232
  25002147.946          36.000          38.000
 114820168.58348  89470260.87248  21849547.522    21849550.496    21849547.552
  21849550.875          50.000          49.000
 127863221.00446  99633701.06343  24331554.972                    24331553.414
  24331554.734          37.000          22.250
 122098026.75347  95141324.81845  23234476.581                    23234474.782
  23234474.544          43.250          32.750
 114971450.55848  89588148.30446  21878338.127                    21878337.257
  21878337.116          50.750          37.750
 131375836.02246 102370783.31446  24999991.385    24999994.713    24999991.133
  24999992.267          38.250          37.000
 114761016.68648  89424184.37348  21838284.533    21838286.650    21838284.305
  21838286.943          52.250          50.000
 130542878.92645 101721718.38946  24841480.038    24841487.488    24841480.362
  24841485.741          33.750          40.000
 119816965.45547  93363879.59247  22800404.793    22800405.223    22800404.700
  22800405.547          46.250          45.000
 16 10  6  1 33 30.0000000  0 12G12G14G32G24G01G18G22G11G03G10G08G31
 129183262.87146 100662274.77346  24582753.669    24582753.945    24582754.350
  24582754.532          36.250          37.000
 108325915.54648  84409813.47547  20613721.772                    20613721.200
  20613721.244          48.500          44.750
 107488916.06549  83757618.09949  20454445.254    20454448.025    20454445.510
  20454447.483          55.250          55.000
 131487671.23245 102457936.78646  25021253.697    25021259.791    25021256.489
  25021258.595          35.000          40.000
 114766128.98048  89428152.11148  21839264.049    21839267.311    21839264.319
  21839267.715          49.750          49.000
 127954782.79545  99705047.89543  24348975.791                    24348975.793
  24348978.329          34.750          19.500
 122009260.46747  95072156.29445  23217584.642                    23217582.838
  23217582.664          42.750          32.750
 114980774.04348  89595413.35646  21880112.224                    21880111.586
  21880111.447          50.250          38.000
 131273946.17146 102291388.73846  24980601.387    24980606.252    24980601.718
  24980605.557          37.250          38.000
 114835634.94248  89482328.46048  21852483.391    21852486.028    21852483.753
  21852486.272          52.000          50.000
 130634362.40645 101793004.17246  24858889.259    24858893.809    24858889.380
  24858893.824          34.250          38.000
 119711340.18247  93281574.24647  22780305.138    22780305.621    22780304.819
  22780305.064          47.000          44.000
 16 10  6  1 34  0.0000000  0 12G12G14G32G24G01G18G22G11G03G10G08G31
 129126783.63146 100618265.00946  24572005.365    24572006.758    24572006.380
  24572007.388          36.750          38.000
 108297668.53448  84387802.82147  20608346.806                    20608346.184
  20608346.188          48.750          45.000
 107518771.85749  83780882.35549  20460126.653    20460129.156    20460126.861
  20460128.942          55.500          55.000
 131588338.00746 102536378.38446  25040412.990    25040414.862    25040413.328
  25040414.868          37.500          39.000
 114712608.21548  89386447.64948  21829079.448    21829082.354    21829079.661
  21829082.693          50.500          49.000
 128046466.83045  99776489.96243  24366424.757                    24366425.017
  24366425.549          34.750          19.000
 121920614.80447  95003081.74445  23200715.483                    23200714.703
  23200713.736          42.750          33.000
 114990741.81248  89603180.45046  21882008.905                    21882008.328
  21882008.315          50.500          38.000
 131172071.40346 102212005.83946  24961214.189    24961219.275    24961215.916
  24961219.906          36.500          38.000
 114910539.79948  89540695.88048  21866737.309    21866739.607    21866737.612
  21866740.046          51.750          50.000
 130725968.52345 101864385.53646  24876321.868    24876325.770    24876321.860
  24876326.812          33.250          38.000
 119605975.28947  93199471.75347  22760254.451    22760256.148    22760254.371
  22760255.005          47.250          45.000
 16 10  6  1 34 30.0000000  0 12G12G14G32G24G01G18G22G11G03G10G08G31
 129070762.83946 100574612.44446  24561347.117    24561349.080    24561346.430
  24561347.164          39.750          40.000
 108269844.74148  84366121.95447  20603051.950                    20603051.492
  20603051.501          49.500          45.000
 107549051.13749  83804476.60349  20465888.434    20465891.272    20465888.706
  20465890.914          55.500          55.000
 131689243.28146 102615005.84046  25059614.322    25059615.910    25059614.697
  25059615.209          36.250          39.000
 114659608.27148  89345149.00648  21818993.765    21818996.702    21818994.087
  21818997.080          50.250          49.000
 128138271.89445  99848026.37743  24383894.899                    24383895.716
  24383894.072          35.750          18.250
 121832091.03647  94934102.20345  23183870.428                    23183869.341
  23183868.369          43.000          33.250
 115001353.18948  89611449.05546  21884028.235                    21884027.512
  21884027.563          50.250          37.750
 131070212.76746 102132635.51746  24941831.788    24941836.618    24941832.345
  24941835.571          37.500          39.000
 114985730.36648  89599285.91748  21881046.029    21881048.415    21881045.853
  21881048.465          51.750          50.000
 130817694.66145 101935860.38146  24893777.166    24893782.347    24893777.239
  24893782.158          35.250          40.000
 119500873.52747  93117574.32347  22740254.939    22740255.630    22740254.615
  22740255.119          47.250          45.000
 16 10  6  1 35  0.0000000  0 12G12G14G32G24G01G18G22G11G03G10G08G31
 129015203.26346 100531319.34146  24550772.441    24550774.511    24550773.968
  24550774.083          37.750          39.000
 108242444.32148  84344770.98647  20597837.716                    20597837.278
  20597837.448          49.500          45.250
 107579752.64249  83828399.85849  20471730.735    20471733.410    20471730.991
  20471733.125          55.250          54.000
 131790383.43246 102693816.23346  25078860.710    25078862.632    25078860.713
  25078862.495          36.000          39.000
 114607131.10448  89304257.72948  21809008.060    21809011.111    21809008.061
  21809011.168          50.750          49.000
 128230197.52945  99919656.72542  24401388.062                    24401386.844
  24401388.509          34.250          15.500
 121743690.18047  94865218.42645  23167048.086                    23167047.041
  23167045.930          42.500          33.250
 115012607.78548  89620218.87846  21886169.592                    21886169.473
  21886169.246          50.250          38.250
 130968371.27746 102053278.56446  24922452.257    24922456.137    24922452.466
  24922455.716          38.250          39.000
 115061205.82048  89658097.95448  21895408.410    21895410.434    21895408.105
  21895410.631          51.500          50.000
 130909537.73945 102007426.38746  24911253.543    24911260.712    24911253.054
  24911259.012          34.250          40.000
 119396038.14347  93035884.48047  22720305.358    22720305.734    22720304.931
  22720305.833          47.250          45.000
 16 10  6  1 35 30.0000000  0 12G12G14G32G24G01G18G22G11G03G10G08G31
 128960106.81146 100488387.06946  24540290.079    24540290.458    24540289.000
  24540289.903          39.750          38.000
 108215467.27348  84323749.91347  20592704.218                    20592703.640
  20592703.730          49.000          45.000
 107610875.10349  83852651.13449  20477653.140    20477655.868    20477653.290
  20477655.598          54.750          55.000
 131891756.56445 102772808.17446  25098149.744    25098153.337    25098150.685
  25098152.691          35.500          40.000
 114555178.67048  89263775.33348  21799121.834    21799124.754    21799121.491
  21799124.734          50.500          49.000
 128322242.86245  99991380.33842  24418903.168                    24418902.849
  24418904.625          33.250          15.250
 121655413.53247  94796431.44545  23150250.319                    23150249.093
  23150248.133          43.250          34.500
 115024504.78748  89629489.28146  21888433.781                    21888433.541
  21888433.474          50.500          38.250
 130866548.01246 101973935.87346  24903076.948    24903079.825    24903075.914
  24903078.425          38.750          39.000
 115136965.31748  89717131.32148  21909824.915    21909827.276    21909824.956
  21909827.604          51.000          50.000
 131001494.55445 102079081.01346  24928755.074    24928758.330    24928752.995
  24928758.996          35.250          40.000
 119291471.79047  92954404.24647  22700407.030    22700407.725    22700406.981
  22700407.097          47.750          45.000
 16 10  6  1 36  0.0000000  0 12G12G14G32G24G01G18G22G11G03G10G08G31
 128905476.68846 100445818.16846  24529893.822    24529894.826    24529894.466
  24529893.742          40.250          38.000
 108188913.47848  84303058.65347  20587651.290                    20587650.779
  20587650.830          49.250          45.000
 107642417.23849  83877229.42649  20483655.571    20483658.197    20483655.653
  20483657.752          55.250          55.000
 131993359.48245 102851979.19946  25117485.767    25117488.257    25117486.385
  25117488.009          35.500          39.000
 114503752.89948  89223703.33148  21789335.427    21789338.983    21789335.763
  21789339.085          50.750          49.000
 128414407.16045 100063196.66442  24436440.957                    24436439.879
  24436442.159          34.250          14.500
 121567262.52847  94727742.37845  23133475.027                    23133473.713
  23133473.453          43.000          34.250
 115037043.51548  89639259.71146  21890820.047                    21890819.376
  21890819.535          50.250          38.250
 130764744.07646 101894608.17846  24883703.649    24883707.666    24883703.327
  24883706.889          37.500          39.000
 115213007.98548  89776385.33848  21924295.368    21924297.656    21924295.459
  21924297.754          51.000          50.000
 131093562.02845 102150821.87846  24946273.589    24946279.019    24946272.106
  24946276.650          34.750          39.000
 119187177.36047  92873135.91347  22680560.386    22680561.122    22680560.013
  22680559.974          47.250          45.000
 16 10  6  1 36 30.0000000  0 12G12G14G32G24G01G18G22G11G03G10G08G31
 128851314.79146 100403614.07946  24519586.472    24519587.244    24519586.296
  24519588.066          38.750          38.000
 108162783.01148  84282697.25647  20582678.643                    20582678.272
  20582678.303          48.250          45.000
 107674377.76549  83902133.73949  20489737.424    20489740.020    20489737.725
  20489739.689          55.000          54.000
 132095190.09545 102931327.80546  25136863.524    25136865.888    25136863.546
  25136866.088          35.500          40.000
 114452855.73348  89184043.21948  21779650.070    21779652.897    21779650.198
  21779652.984          50.750          49.000
 128506689.48445 100135105.00342  24454001.594                    24454001.225
  24454003.348          34.250          15.750
 121479238.44947  94659152.19345  23116724.651                    23116723.509
  23116722.666          44.250          34.500
 115050223.06948  89649529.49546  21893327.818                    21893327.520
  21893327.037          50.250          37.750
 130662960.61745 101815296.43246  24864333.873    24864338.704    24864334.616
  24864337.944          35.750          39.000
 115289332.98948  89835859.35548  21938819.429    21938821.561    21938819.363
  21938821.962          50.750          49.000
 131185737.16845 102222646.60546  24963812.972    24963817.964    24963812.635
  24963817.920          33.000          38.000
 119083157.93147  92792081.85747  22660766.054    22660767.059    22660766.054
  22660766.266          46.750          45.000
 16 10  6  1 37  0.0000000  0 12G12G14G32G24G01G18G22G11G03G10G08G31
 128797623.79446 100361776.95546  24509370.146    24509370.364    24509369.281
  24509369.585          40.750          37.000
 108137075.62448  84262665.53547  20577786.726                    20577786.294
  20577786.200          49.500          45.000
 107706755.38749  83927363.06549  20495898.715    20495901.303    20495898.928
  20495901.027          55.500          55.000
 132197245.42645 103010851.41246  25156284.210    25156285.901    25156285.194
  25156285.386          35.250          40.000
 114402489.05848  89144796.47448  21770065.773    21770069.303    21770065.813
  21770069.233          51.000          49.000
 128599088.77846 100207104.45943  24471586.670                    24471585.027
  24471586.552          37.750          19.250
 121391342.35247  94590661.76545  23099998.805                    23099997.922
  23099996.613          43.500          35.000
 115064043.05548  89660298.32046  21895957.208                    21895957.091
  21895957.287          50.000          37.500
 130561198.59945 101736001.37046  24844969.240    24844974.517    24844969.874
  24844972.241          35.500          40.000
 115365939.42648  89895552.68048  21953397.419    21953399.552    21953397.497
  21953399.940          50.750          50.000
 131278016.95945 102294552.87746  24981374.190    24981379.513    24981372.778
  24981378.512          33.500          38.000
 118979416.33347  92711244.30447  22641025.075    22641025.439    22641024.835
  22641024.969          47.000          45.000
 16 10  6  1 37 30.0000000  0 12G12G14G32G24G01G18G22G11G03G10G08G31
 128744406.92746 100320309.26046  24499242.181    24499242.769    24499241.986
  24499241.738          38.250          38.000
 108111791.31848  84242963.48247  20572975.369                    20572974.729
  20572974.938          49.750          45.250
 107739548.78949  83952916.36949  20502139.024    20502141.783    20502139.215
  20502141.233          55.250          54.000
 132299522.82846 103090548.03046  25175748.085    25175748.616    25175746.383
  25175748.394          36.250          40.000
 114352654.73148  89105964.56248  21760582.590    21760585.643    21760582.721
  21760585.637          51.250          49.000
 128691604.31146 100279194.50643  24489191.719                    24489191.286
  24489189.623          37.750          18.250
 121303575.65647  94522272.16445  23083297.041                    23083295.817
  23083294.690          43.500          35.000
 115078502.45948  89671565.38246  21898709.148                    21898708.573
  21898708.667          49.750          37.500
 130459459.22845 101656723.95646  24825608.820    24825613.890    24825610.128
  24825613.047          35.500          40.000
 115442826.47348  89955464.65748  21968028.424    21968030.801    21968028.321
  21968031.016          50.750          50.000
 131370398.56645 102366538.49046  24998953.692    24998958.529    24998953.284
  24998958.054          35.250          37.000
 118875955.71347  92630625.68847  22621336.560    22621337.469    22621336.934
  22621337.107          46.750          45.000
 16 10  6  1 38  0.0000000  0 13G12G14G32G24G01G18G22G11G03G25G10G08
                                G31
 128691665.56246 100279212.11246  24489206.439    24489207.406    24489206.085
  24489206.850          40.000          38.000
 108086930.02148  84223591.05147  20568244.481                    20568243.789
  20568243.918          49.000          45.250
 107772756.70649  83978792.67349  20508458.237    20508460.820    20508458.502
  20508460.415          54.750          54.000
 132402019.54945 103170415.64946  25195251.800    25195253.229    25195249.014
  25195252.853          35.500          40.000
 114303354.67748  89067548.94448  21751201.569    21751204.416    21751201.372
  21751204.331          51.500          49.000
 128784235.78646 100351374.87343  24506818.355                    24506816.885
  24506818.455          36.250          20.250
 121215939.66147  94453984.42045  23066620.915                    23066619.795
  23066618.342          44.500          35.250
 115093600.42248  89683330.02646  21901582.110                    21901581.538
  21901581.242          49.250          37.750
 130357743.57846 101577465.03146  24806253.593    24806258.292    24806252.843
  24806257.062          36.000          41.000
 132292578.65245 103085128.70646  25174441.886    25174447.289    25174440.924
  25174443.995          33.750          40.000
 115519993.21048  90015594.57048  21982712.975    21982714.872    21982712.891
  21982715.021          51.000          49.000
 131462878.40645 102438600.68146  25016552.412    25016557.368    25016551.675
  25016557.182          35.000          39.000
 118772778.85847  92550228.18447  22601703.177    22601703.591    22601702.990
  22601702.752          47.000          45.000
 16 10  6  1 38 30.0000000  0 13G12G14G32G24G01G18G22G11G03G25G10G08
                                G31
 128639403.31746 100238488.32446  24479261.041    24479261.674    24479260.720
  24479260.983          40.250          38.000
 108062491.68148  84204548.19247  20563593.837                    20563593.343
  20563593.651          50.250          45.250
 107806377.80849  84004990.93849  20514856.167    20514858.786    20514856.409
  20514858.515          55.500          54.000
 132504733.03946 103250452.13046  25214797.621    25214799.262    25214796.535
  25214799.035          36.000          41.000
 114254590.77148  89029551.11048  21741921.929    21741924.585    21741921.755
  21741924.690          51.500          49.000
 128876982.10746 100423644.73243  24524467.556                    24524467.203
  24524466.796          37.500          21.250
 121128435.91947  94385799.71145  23049969.391                    23049967.909
  23049967.364          44.750          35.500
 115109336.43448  89695591.85746  21904576.615                    21904575.853
  21904575.717          49.000          37.500
 130256052.67246 101498225.41246  24786902.760    24786905.856    24786902.917
  24786905.196          37.250          39.000
 132204863.10345 103016778.97246  25157748.573    25157753.333    25157747.767
  25157752.822          33.750          37.000
 115597438.82048  90075941.80048  21997450.183    21997452.352    21997450.106
  21997452.637          50.000          49.000
 131555454.00245 102510737.46346  25034169.270    25034173.265    25034168.778
  25034172.510          34.750          38.000
 118669888.59447  92470053.97647  22582123.477    22582123.825    22582123.891
  22582123.568          46.750          45.000
 16 10  6  1 39  0.0000000  0 13G12G14G32G24G01G18G22G11G03G25G10G08
                                G31
 128587622.05546 100198139.34946  24469407.003    24469408.893    24469407.147
  24469407.524          39.250          38.000
 108038476.10248  84185834.76747  20559023.664                    20559023.273
  20559023.598          50.250          45.250
 107840410.78449  84031510.14649  20521332.349    20521335.119    20521332.732
  20521334.814          55.750          54.000
 132607660.11646 103330654.94647  25234383.701    25234386.657    25234383.380
  25234386.895          36.000          42.000
 114206364.79748  88991972.44548  21732744.658    21732747.435    21732744.504
  21732747.932          51.250          49.000
 128969842.17946 100496003.18143  24542138.047                    24542137.232
  24542138.405          38.000          20.750
 121041065.54547  94317718.93345  23033343.148                    23033342.561
  23033340.943          45.000          35.500
 115125709.15948  89708349.82846  21907692.184                    21907691.923
  21907691.696          49.500          37.500
 130154387.71046 101419006.00246  24767556.974    24767559.826    24767557.030
  24767559.123          38.750          39.000
 132117344.63645 102948582.75145  25141094.331    25141098.374    25141094.315
  25141097.779          34.250          35.000
 115675162.37348  90136505.60048  22012240.350    22012242.723    22012240.593
  22012242.925          50.250          49.000
 131648122.09145 102582946.34046  25051800.979    25051808.825    25051802.031
  25051806.620          35.000          39.000
 118567287.82347  92390105.36047  22562599.207    22562599.493    22562599.567
  22562599.837          47.500          45.000
 16 10  6  1 39 30.0000000  0 12G12G14G32G01G18G22G11G03G25G10G08G31
 128536324.50046 100158167.27246  24459645.962    24459648.174    24459645.814
  24459646.983          41.250          39.000
 108014883.40348  84167450.85147  20554534.403                    20554533.666
  20554534.044          49.250          45.250
 107874854.34349  84058349.28749  20527886.900    20527889.499    20527886.994
  20527889.164          55.250          54.000
 114158678.63848  88954814.41548  21723670.193    21723673.074    21723670.054
  21723673.489          51.500          49.000
 129062815.26146 100568449.78743  24559831.504                    24559829.865
  24559831.129          38.500          20.000
 120953829.94647  94249743.18345  23016742.619                    23016742.063
  23016740.974          45.000          35.750
 115142718.09348  89721603.53546  21910929.229                    21910928.753
  21910928.107          49.250          37.500
 130052749.82246 101339807.67946  24748214.895    24748218.207    24748215.081
  24748217.422          37.750          39.000
 132030026.59946 102880542.78746  25124478.103    25124483.735    25124478.656
  25124481.451          36.500          37.000
 115753163.02248  90197285.31948  22027083.196    22027085.618    22027083.495
  22027086.112          49.750          49.000
 131740879.48945 102655224.80446  25069452.950    25069460.473    25069454.960
  25069459.392          35.750          39.000
 118464979.73247  92310384.79547  22543131.153    22543131.569    22543130.977
  22543130.963          47.750          45.000
 16 10  6  1 40  0.0000000  0 12G12G14G32G01G18G22G11G03G25G10G08G31
 128485513.04146 100118573.96346  24449977.390    24449976.791    24449976.042
  24449977.974          41.000          38.000
 107991713.36248  84149396.28247  20550125.131                    20550124.829
  20550124.865          50.250          45.250
 107909707.11249  84085507.29249  20534518.830    20534521.790    20534519.279
  20534521.379          55.500          54.000
 114111534.08048  88918078.40848  21714698.923    21714701.853    21714698.811
  21714702.013          51.500          49.000
 129155900.52646 100640983.70843  24577543.757                    24577542.940
  24577543.412          38.000          21.500
 120866730.38247  94181873.43245  23000168.505                    23000166.999
  23000166.108          45.250          35.250
 115160362.23248  89735352.21246  21914286.846                    21914286.379
  21914285.830          49.000          37.500
 129951140.18946 101260631.40746  24728879.400    24728883.001    24728879.008
  24728883.045          38.750          39.000
 131942912.19245 102812661.46245  25107899.143    25107904.258    25107900.368
  25107903.959          35.250          34.000
 115831439.85448  90258280.24848  22041978.803    22041981.307    22041978.993
  22041981.629          49.750          49.000
 131833723.28846 102727570.58046  25087121.378    25087124.030    25087121.775
  25087125.911          37.250          37.000
 118362967.08348  92230894.45347  22523718.787    22523718.379    22523718.348
  22523718.761          48.000          45.000
 16 10  6  1 40 30.0000000  0 12G12G14G32G01G18G22G11G03G25G10G08G31
 128435189.69846 100079360.99746  24440400.667    24440400.659    24440400.438
  24440399.677          40.750          38.000
 107968966.11348  84131671.15447  20545796.798                    20545796.067
  20545796.054          50.000          45.250
 107944967.77249  84112983.13749  20541228.997    20541231.502    20541229.204
  20541231.290          55.750          54.000
 114064932.91348  88881765.82748  21705830.659    21705833.963    21705831.118
  21705834.191          51.250          49.000
 129249097.23645 100713604.53743  24595276.098                    24595276.192
  24595278.936          35.000          18.250
 120779768.03047  94114110.60345  22983619.351                    22983618.767
  22983617.925          44.500          35.500
 115178640.66148  89749595.13946  21917765.168                    21917764.218
  21917764.163          49.000          37.500
 129849559.84046 101181477.91846  24709549.530    24709554.340    24709549.157
  24709552.642          39.500          39.000
 131856004.72846 102744941.33145  25091364.036    25091366.830    25091363.539
  25091367.508          37.000          35.000
 115909991.97448  90319489.69248  22056927.314    22056929.354    22056927.327
  22056929.528          50.000          49.000
 131926650.67846 102799981.47346  25104805.244    25104810.879    25104804.405
  25104811.548          36.250          39.000
 118261252.56747  92151636.42447  22504362.544    22504362.944    22504362.469
  22504362.607          46.750          45.000
 16 10  6  1 41  0.0000000  0 12G12G14G32G01G18G22G11G03G25G10G08G31
 128385357.39146 100040530.67946  24430918.575    24430917.917    24430918.272
  24430918.408          41.750          39.000
 107946641.31248  84114275.21647  20541548.488                    20541547.918
  20541547.755          50.000          45.250
 107980634.99649  84140775.78249  20548016.285    20548018.672    20548016.419
  20548018.466          56.000          54.000
 114018876.91448  88845878.04148  21697066.763    21697069.922    21697066.485
  21697069.898          51.500          50.000
 129342404.54545 100786311.52242  24613034.670                    24613033.780
  24613034.549          35.500          17.750
 120692944.42947  94046455.89045  22967097.705                    22967096.605
  22967096.004          45.500          35.000
 115197552.20548  89764331.39346  21921363.742                    21921363.231
  21921362.864          49.000          37.500
 129748009.98346 101102348.23946  24690225.531    24690228.592    24690225.522
  24690228.299          39.750          38.000
 131769307.42546 102677385.03145  25074864.078    25074868.353    25074865.241
  25074869.450          36.250          33.000
 115988818.51848  90380912.95748  22071927.075    22071929.537    22071927.097
  22071929.867          49.750          49.000
 132019658.00746 102872454.68746  25122502.812    25122509.347    25122503.030
  25122508.804          36.250          39.000
 118159839.37647  92072613.18247  22485063.996    22485064.675    22485064.076
  22485064.175          46.500          44.000
 16 10  6  1 41 30.0000000  0 12G12G14G32G01G18G22G11G03G25G10G08G31
 128336018.67346 100002084.97146  24421528.414    24421529.395    24421529.547
  24421528.339          40.500          38.000
 107924738.51948  84097208.11047  20537380.440                    20537380.101
  20537379.875          49.250          45.500
 108016707.46549  84168884.20549  20554880.526    20554883.111    20554880.772
  20554882.800          55.500          54.000
 113973367.89948  88810416.48748  21688406.815    21688409.635    21688407.193
  21688409.687          51.500          49.000
 129435821.57045 100859103.98642  24630809.794                    24630810.455
  24630811.988          34.250          14.750
 120606260.85647  93978910.27545  22950602.099                    22950601.467
  22950600.300          45.750          35.500
 115217095.83048  89779560.19046  21925082.554                    21925082.132
  21925082.065          49.000          37.500
 129646491.74946 101023243.22546  24670906.464    24670909.767    24670906.936
  24670909.827          39.250          38.000
 131682823.55246 102609994.98645  25058407.706    25058412.486    25058406.541
  25058410.770          37.000          35.000
 116067918.57948  90442549.35448  22086979.895    22086982.127    22086979.557
  22086982.161          50.000          49.000
 132112742.76046 102944988.22546  25140216.938    25140222.727    25140216.231
  25140223.691          37.000          39.000
 118058730.34747  91993826.94947  22465823.743    22465823.880    22465824.094
  22465823.449          47.000          44.000
 16 10  6  1 42  0.0000000  0 12G12G14G32G01G18G22G11G03G25G10G08G31
 128287175.31646  99964025.26646  24412234.789    24412233.882    24412233.894
  24412233.564          41.500          38.000
 107903257.91548  84080469.98447  20533292.726                    20533292.269
  20533292.280          50.250          45.250
 108053183.79949  84197307.32749  20561821.929    20561824.251    20561821.909
  20561823.986          56.000          54.000
 113928407.55048  88775382.45148  21679850.735    21679854.063    21679851.074
  21679854.203          51.250          50.000
 129529347.48845 100931981.35242  24648606.606                    24648607.969
  24648609.047          35.250          17.750
 120519718.83647  93911474.96545  22934134.068                    22934132.904
  22934131.772          45.750          35.250
 115237270.69548  89795280.86346  21928921.884                    21928921.304
  21928921.437          49.000          37.500
 129545006.27646 100944163.70246  24651594.156    24651599.650    24651594.831
  24651597.595          39.000          38.000
 131596556.40546 102542773.88145  25041992.079    25041995.003    25041991.033
  25041994.320          36.750          34.000
 116147291.24348  90504398.17448  22102083.706    22102085.971    22102083.638
  22102086.003          49.750          49.000
 132205901.77946 103017579.62046  25157945.901    25157950.662    25157945.074
  25157949.682          38.000          38.000
 117957928.41847  91915280.02447  22446641.455    22446642.264    22446641.606
  22446641.920          46.500          45.000
 16 10  6  1 42 30.0000000  0 12G12G14G32G01G18G22G11G03G25G10G08G31
 128238829.72346  99926353.41046  24403034.437    24403033.137    24403033.932
  24403035.031          41.250          38.000
 107882199.30548  84064060.68447  20529285.347                    20529284.974
  20529284.776          49.500          45.000
 108090062.69849  84226044.13449  20568839.914    20568842.156    20568839.838
  20568841.813          55.750          55.000
 113883997.64648  88740777.35448  21671400.133    21671403.140    21671399.981
  21671403.323          51.250          50.000
 129622981.25546 101004942.68242  24666426.500                    24666426.160
  24666426.028          37.000          16.250
 120433319.60547  93844150.92245  22917692.869                    22917691.614
  22917690.971          46.000          35.500
 115258076.03748  89811492.81546  21932881.034                    21932880.521
  21932880.326          49.250          37.500
 129443554.69846 100865110.61446  24632288.620    24632290.920    24632289.593
  24632292.946          38.250          38.000
 131510509.26846 102475724.14545  25025617.956    25025621.224    25025617.476
  25025621.412          36.000          34.000
 116226935.61548  90566458.72348  22117239.711    22117241.809    22117239.561
  22117242.096          49.250          49.000
 132299132.15346 103090226.64146  25175686.593    25175691.347    25175685.445
  25175689.991          37.000          39.000
 117857436.32947  91836974.53147  22427518.302    22427519.166    22427518.613
  22427518.591          45.750          45.000
 16 10  6  1 43  0.0000000  0 12G12G14G32G01G18G22G11G03G25G10G08G31
 128190984.32246  99889071.29146  24393930.961    24393930.129    24393929.353
  24393929.312          41.250          38.000
 107861562.54348  84047980.09747  20525358.431                    20525357.709
  20525357.724          49.750          45.000
 108127342.75449  84255093.53049  20575933.971    20575936.173    20575934.143
  20575935.959          56.250          54.000
 113840139.86148  88706602.45648  21663054.120    21663057.178    21663054.392
  21663057.608          51.000          50.000
 129716721.76046 101077987.25242  24684265.508                    24684263.169
  24684264.298          37.750          15.750
 120347064.15847  93776938.90245  22901278.772                    22901277.551
  22901276.593          47.000          35.500
 115279510.60748  89828195.07046  21936959.742                    21936959.251
  21936958.965          49.750          37.250
 129342138.21346 100786084.85046  24612989.398    24612994.321    24612990.544
  24612993.061          37.750          38.000
 131424685.40045 102408848.44545  25009285.351    25009287.290    25009285.486
  25009288.127          34.750          32.000
 116306850.78248  90628730.26748  22132446.680    22132449.155    22132446.502
  22132449.482          49.500          49.000
 132392431.00846 103162926.96346  25193439.980    25193446.592    25193440.374
  25193444.472          37.000          38.000
 117757257.07347  91758912.81647  22408454.719    22408455.080    22408454.877
  22408455.238          46.250          45.000
 16 10  6  1 43 30.0000000  0 12G12G14G32G01G18G22G11G03G25G10G08G31
 128143641.19246  99852180.60146  24384919.219    24384920.271    24384919.297
  24384920.849          40.250          38.000
 107841347.37348  84032228.02447  20521511.625                    20521510.952
  20521510.957          50.000          45.000
 108165022.64449  84284454.48949  20583104.010    20583106.598    20583104.307
  20583106.256          56.250          54.000
 113796835.91648  88672859.13348  21654813.744    21654816.668    21654813.966
  21654816.776          50.750          50.000
 129810568.71346 101151114.71642  24702123.575                    24702120.867
  24702123.454          36.000          16.000
 120260954.21447  93709840.27045  22884892.286                    22884890.612
  22884890.304          47.000          35.500
 115301572.96148  89845386.51946  21941158.274                    21941157.801
  21941157.682          49.750          37.750
 129240757.95746 100707087.32946  24593697.763    24593700.882    24593697.832
  24593699.790          39.250          38.000
 131339088.03946 102342149.20945  24992997.111    24993000.848    24992996.810
  24992999.372          38.000          34.000
 116387035.84248  90691212.12748  22147705.393    22147707.622    22147705.378
  22147707.987          49.500          49.000
 132485794.92246 103235678.06746  25211207.611    25211213.708    25211207.374
  25211211.628          37.750          40.000
 117657393.31347  91681096.94047  22389451.895    22389451.627    22389451.752
  22389451.919          47.000          45.000
 16 10  6  1 44  0.0000000  0 12G12G14G32G01G18G22G11G03G25G10G08G31
 128096803.02246  99815683.34846  24376007.391    24376007.782    24376008.015
  24376008.082          41.500          38.000
 107821553.58248  84016804.30247  20517744.918                    20517744.402
  20517744.439          50.000          45.250
 108203101.01849  84314125.95549  20590349.975    20590352.311    20590350.303
  20590352.146          55.750          54.000
 113754087.49448  88639548.68048  21646679.020    21646681.748    21646679.361
  21646682.260          50.750          50.000
 129904521.35846 101224324.55442  24720001.854                    24719999.829
  24720001.773          39.250          16.500
 120174991.25847  93642856.17545  22868533.901                    22868532.852
  22868531.854          46.750          35.500
 115324262.35048  89863066.56146  21945475.781                    21945475.355
  21945474.657          50.000          37.750
 129139415.11946 100628118.95346  24574412.815    24574416.291    24574412.919
  24574414.800          38.000          38.000
 131253720.51446 102275629.07746  24976751.972    24976756.919    24976750.285
  24976755.031          37.000          37.000
 116467489.85748  90753903.55948  22163015.488    22163017.643    22163015.416
  22163018.027          49.250          49.000
 132579221.37146 103308477.83846  25228986.289    25228990.502    25228984.442
  25228989.469          37.250          38.000
 117557847.86547  91603529.07247  22370508.665    22370508.747    22370508.751
  22370509.226          46.000          45.000
 16 10  6  1 44 30.0000000  0 12G12G14G32G01G18G22G11G03G25G10G08G31
 128050472.18847  99779581.40346  24367190.958    24367192.668    24367191.132
  24367191.090          42.000          39.000
 107802181.15748  84001708.91547  20514058.404                    20514057.964
  20514057.910          49.750          45.250
 108241576.47449  84344106.83549  20597671.744    20597674.270    20597671.941
  20597673.989          56.000          54.000
 113711896.25848  88606672.41248  21638650.521    21638652.958    21638650.389
  21638653.694          50.750          50.000
 129998578.84146 101297616.12242  24737899.956                    24737899.309
  24737898.715          37.750          15.250
 120089176.54847  93575987.60645  22852203.576                    22852202.847
  22852202.082          46.750          35.500
 115347577.49148  89881234.19546  21949912.524                    21949912.327
  21949911.916          49.750          37.750
 129038110.88846 100549180.62546  24555134.844    24555138.322    24555134.652
  24555137.517          39.500          38.000
 131168586.01246 102209290.54345  24960551.629    24960554.655    24960551.351
  24960552.826          36.250          35.000
 116548211.92148  90816803.86548  22178376.184    22178378.713    22178376.315
  22178378.947          49.250          49.000
 132672706.86146 103381323.63346  25246775.373    25246779.717    25246775.046
  25246780.837          37.000          37.000
 117458623.92047  91526211.73447  22351627.089    22351627.027    22351627.427
  22351626.458          47.500          45.000
 16 10  6  1 45  0.0000000  0 12G12G14G32G01G18G22G11G03G25G10G08G31
 128004650.93946  99743876.51546  24358470.501    24358471.729    24358470.804
  24358472.438          41.250          38.000
 107783229.97948  83986941.77247  20510452.241                    20510451.852
  20510451.600          50.250          45.250
 108280447.66149  84374396.07949  20605068.509    20605070.968    20605068.783
  20605070.921          56.250          54.000
 113670263.83648  88574231.56948  21630727.614    21630731.138    21630727.753
  21630731.149          50.500          50.000
 130092739.61846 101370988.13742  24755817.371                    24755816.392
  24755818.265          39.250          16.750
 120003511.54047  93509235.68745  22835902.152                    22835901.417
  22835900.732          47.250          35.500
 115371517.22748  89899888.54046  21954467.955                    21954467.930
  21954468.149          50.250          37.500
 128936846.46946 100470273.31546  24535866.028    24535868.055    24535864.818
  24535867.462          40.250          38.000
 131083687.73246 102143136.10646  24944397.330    24944400.065    24944396.027
  24944399.645          37.500          38.000
 116629201.09548  90879912.29348  22193787.944    22193790.551    22193787.723
  22193790.620          48.750          49.000
 132766248.85846 103454213.43446  25264576.541    25264582.221    25264575.233
  25264580.587          37.750          40.000
 117359724.18647  91449147.03247  22332806.989    22332807.809    22332806.907
  22332807.092          46.750          45.000
 16 10  6  1 45 30.0000000  0 11G12G14G32G01G18G22G11G03G25G10G31
 127959341.35847  99708570.32846  24349849.836    24349851.450    24349849.604
  24349849.695          42.500          39.000
 107764699.69948  83972502.59847  20506926.129                    20506925.523
  20506925.326          50.750          45.750
 108319713.20049  84404992.60949  20612540.376    20612543.095    20612540.642
  20612542.844          56.250          54.000
 113629191.86748  88542227.45548  21622912.103    21622914.699    21622912.038
  21622915.182          50.500          50.000
 130187003.10046 101444440.19942  24773753.793                    24773755.137
  24773754.861          36.000          13.000
 119917997.29147  93442601.25145  22819629.697                    22819628.592
  22819628.174          47.750          35.750
 115396080.29748  89919028.58246  21959142.561                    21959141.666
  21959141.427          50.000          37.500
 128835623.01746 100391397.91046  24516603.841    24516604.577    24516603.569
  24516605.909          40.500          39.000
 130999029.12146 102077168.37146  24928286.900    24928290.301    24928285.319
  24928289.636          37.750          38.000
 116710456.48548  90943228.18548  22209250.890    22209252.725    22209250.676
  22209252.825          49.000          49.000
 117261151.50447  91372337.19147  22314050.039    22314049.152    22314049.763
  22314049.511          47.500          45.000
 16 10  6  1 46  0.0000000  0 11G12G14G32G01G18G22G11G03G25G10G31
 127914545.50247  99673664.52446  24341324.909    24341325.900    24341326.124
  24341324.562          42.250          39.000
 107746589.91748  83958391.09047  20503479.754                    20503479.416
  20503479.165          50.500          45.250
 108359371.71849  84435895.35649  20620087.282    20620089.958    20620087.503
  20620089.558          56.000          54.000
 113588681.97448  88510661.31248  21615203.169    21615205.935    21615203.650
  21615206.051          50.500          50.000
 130281368.90746 101517972.06642  24791712.994                    24791712.311
  24791713.527          39.250          16.750
 119832635.43648  93376085.55246  22803386.107                    22803384.819
  22803384.272          48.000          36.000
 115421265.46948  89938653.38646  21963934.705                    21963934.326
  21963934.517          50.000          37.250
 128734441.78946 100312555.43046  24497348.893    24497351.293    24497348.213
  24497351.677          40.000          39.000
 130914613.28946 102011389.84846  24912221.577    24912225.430    24912222.210
  24912226.458          37.250          38.000
 116791977.12848  91006750.75348  22224763.288    22224765.257    22224763.229
  22224766.016          48.750          49.000
 117162908.75748  91295784.43947  22295354.547    22295354.032    22295354.707
  22295354.232          48.000          45.000
 16 10  6  1 46 30.0000000  0 12G12G14G32G17G01G18G22G11G03G25G10G31
 127870265.34447  99639160.52846  24332899.290    24332898.214    24332898.650
  24332899.104          42.250          38.000
 107728900.54448  83944607.17247  20500113.662                    20500113.171
  20500113.095          50.000          45.250
 108399421.83149  84467103.24549  20627708.473    20627711.300    20627708.862
  20627711.010          55.750          54.000
 134290598.99545                  25554653.857    25554651.160
                        30.500          28.000
 113548735.68848  88479534.35148  21607601.705    21607604.703    21607601.471
  21607604.989          50.250          50.000
 130375835.72446 101591582.55042  24809687.963                    24809687.954
  24809690.028          37.250          14.750
 119747427.48548  93309689.78346  22787171.048                    22787170.434
  22787169.231          48.250          36.250
 115447071.41348  89958761.90446  21968845.815                    21968844.741
  21968844.718          50.750          37.500
 128633303.96946 100233746.73246  24478102.833    24478105.790    24478102.749
  24478105.950          40.250          40.000
 130830443.54546 101945803.08946  24896204.467    24896209.979    24896204.599
  24896207.639          37.250          40.000
 116873762.09648  91070479.29748  22240326.737    22240329.194    22240326.643
  22240329.101          49.250          49.000
 117064998.89047  91219491.06447  22276722.427    22276722.842    22276722.476
  22276722.377          46.750          45.000
 16 10  6  1 47  0.0000000  0 12G12G14G32G17G01G18G22G11G03G25G10G31
 127826503.67446  99605060.57346  24324570.957    24324571.893    24324570.127
  24324571.025          41.500          38.000
 107711631.42248  83931150.72747  20496827.438                    20496827.028
  20496826.883          50.000          45.500
 108439862.13449  84498615.17749  20635403.949    20635406.765    20635404.217
  20635406.300          56.250          54.000
 134242090.63345                  25545418.619    25545416.637
                        31.250          26.000
 113509354.64748  88448847.83348  21600107.881    21600110.815    21600107.955
  21600110.936          50.500          50.000
 130470402.69546                  24827683.642
                        38.000
 119662374.84548  93243415.03246  22770986.288                    22770985.153
  22770984.548          49.000          36.500
 115473497.15048  89979353.39346  21973873.907                    21973873.353
  21973873.348          50.250          37.250
 128532210.77046 100154972.83146  24458865.064    24458868.540    24458865.877
  24458868.001          39.500          40.000
 130746523.21346 101880410.66346  24880236.897    24880239.842    24880235.686
  24880239.604          38.750          40.000
 116955810.43748  91134413.07648  22255939.373    22255942.135    22255939.797
  22255942.347          48.250          48.000
 116967424.65847  91143459.22547  22258155.168    22258155.642    22258154.699
  22258154.694          47.250          45.000
 16 10  6  1 47 30.0000000  0 12G12G14G32G17G01G18G22G11G03G25G10G31
 127783262.25546  99571366.02946  24316342.457    24316341.074    24316342.075
  24316341.168          41.500          37.000
 107694782.01948  83918021.33047  20493621.201                    20493620.312
  20493620.508          49.750          45.500
 108480691.25649  84530430.08349  20643173.542    20643176.319    20643173.754
  20643176.095          56.000          54.000
 134194045.35945                  25536275.939    25536274.348
                        32.250          31.000
 113470540.37248  88418602.97048  21592721.403    21592724.637    21592721.261
  21592724.637          50.000          50.000
 130565068.77346 101738980.04343  24845699.702                    24845697.706
  24845701.278          39.250          18.000
 119577478.61148  93177262.16646  22754831.252                    22754830.712
  22754829.525          48.750          37.000
 115500541.14148  90000426.62546  21979020.035                    21979020.028
  21979019.931          50.000          37.000
 128431163.49846 100076234.68346  24439637.135    24439640.032    24439637.687
  24439640.319          40.500          40.000
 130662855.42846 101815215.00946  24864314.785    24864318.364    24864313.137
  24864318.151          38.000          40.000
 117038121.24148  91198551.35148  22271602.941    22271605.073    22271602.756
  22271605.833          48.500          48.000
 116870188.84147  91067691.07847  22239651.597    22239652.176    22239651.434
  22239651.809          47.000          45.000
