     2.11           OBSERVATION DATA    M (MIXED)           RINEX VERSION / TYPE
teqc  2016Apr1      anonyme             20160927 12:13:31UTCPGM / RUN BY / DATE
MELN                                                        MARKER NAME
19831M001                                                   MARKER NUMBER
Automatic           EXAGONE                                 OBSERVER / AGENCY
495347              LEICA GRX1200GGPRO  7.5                 REC # / TYPE / VERS
09060015            LEIAR25         LEIT                    ANT # / TYPE
  4226433.0030   197279.0530  4756902.4360                  APPROX POSITION XYZ
        0.0000        0.0000        0.0000                  ANTENNA: DELTA H/E/N
     1     1                                                WAVELENGTH FACT L1/2
     8    L1    L2    C1    P2    D1    D2    S1    S2      # / TYPES OF OBSERV
    30.0000                                                 INTERVAL
Linux 2.4.21-27.ELsmp|Opteron|gcc|Linux x86_64|=+           COMMENT
teqc  2016Apr1      anonyme             20160927 07:44:46UTCCOMMENT
     2.10           OBSERVATION DATA    M (MIXED)           COMMENT
teqc  2006Dec12     Administrateur RGP  20160915 01:31:14UTCCOMMENT
Linux 2.4.20-8|Pentium IV|gcc|Linux|486/DX+                 COMMENT
teqc  2006Dec12     IGN-RGP             20160914 01:07:40UTCCOMMENT
teqc  2006Dec12     Administrateur RGP  20160914 01:07:40UTCCOMMENT
Forced Modulo Decimation to 30 seconds                      COMMENT
    17                                                      LEAP SECONDS
     2.11           OBSERVATION DATA    M                   COMMENT
GN-RINEX 1.3        Geo++ Teria         14-SEP-16 02:00     COMMENT
teqc edited: all GLONASS satellites excluded                COMMENT
teqc edited: all SBAS satellites excluded                   COMMENT
teqc edited: all Galileo satellites excluded                COMMENT
  2016     9    14     0     0    0.0000000     GPS         TIME OF FIRST OBS
                                                            END OF HEADER
 16  9 14  0  0  0.0000000  0 11G13G15G20G28G05G30G24G18G08G21G17
 105730784.729 8  82387640.688 8  20119889.620    20119884.320         183.197
       142.753          48.850          48.850
 111268048.021 8  86702373.386 8  21173600.700    21173596.220        1948.366
      1518.209          49.350          49.050
 112212213.239 8  87438075.192 8  21353268.440    21353263.220        -293.521
      -228.717          49.250          46.550
 112404616.296 8  87588006.587 8  21389883.420    21389878.200        -518.518
      -404.038          49.350          47.650
 118617847.389 8  92429497.147 8  22572221.260    22572217.060       -3209.219
     -2500.688          49.000          46.650
 120446565.382 8  93854490.460 7  22920208.380    22920205.760       -2986.639
     -2327.250          46.950          43.850
 124072131.153 8  96679578.411 7  23610139.980    23610138.540        3176.331
      2475.065          45.050          42.750
 129699888.620 7 101064843.191 6  24681069.000    24681063.520        2811.143
      2190.501          44.100          35.350
 132872328.537 7 103536878.421 6  25284759.960    25284758.100       -1263.198
      -984.311          40.000          34.500
 133580619.172 7 104088766.747 6  25419544.840    25419539.940       -1162.217
      -905.624          40.200          35.750
 134332836.960 7 104674920.783 6  25562687.560    25562684.900        2944.923
      2294.743          40.250          34.650
 16  9 14  0  0 30.0000000  0 11G13G15G20G28G05G30G24G18G08G21G17
 105725509.830 8  82383530.365 8  20118885.780    20118880.580         168.689
       131.446          49.850          49.200
 111209777.886 8  86656968.084 8  21162512.120    21162507.640        1936.566
      1509.013          50.050          48.100
 112221328.718 8  87445178.148 8  21355003.020    21354997.960        -313.882
      -244.585          49.850          45.900
 112420446.959 8  87600342.179 8  21392896.020    21392890.780        -536.578
      -418.113          49.950          46.800
 118714271.543 8  92504632.833 8  22590570.140    22590566.260       -3218.855
     -2508.199          49.800          45.150
 120536240.770 8  93924367.361 7  22937272.740    22937270.540       -2991.446
     -2331.000          47.650          42.350
 123976926.127 8  96605392.691 7  23592023.140    23592021.400        3170.919
      2470.846          45.450          41.400
 129615689.181 8 100999233.221 6  24665046.480    24665040.340        2802.380
      2183.673          45.500          34.300
 132910490.108 7 103566614.737 6  25292021.920    25292019.920       -1280.523
      -997.811          41.000          37.000
 133615673.007 7 104116081.367 6  25426215.740    25426210.320       -1174.572
      -915.254          41.900          33.400
 134244487.803 7 104606077.288 6  25545875.120    25545872.400        2945.083
      2294.868          44.050          35.250
 16  9 14  0  1  0.0000000  0 11G13G15G20G28G05G30G24G18G08G21G17
 105720665.743 8  82379755.754 8  20117963.980    20117958.900         154.806
       120.629          49.550          49.250
 111151859.830 8  86611837.136 8  21151490.640    21151486.280        1925.210
      1500.164          49.800          48.500
 112231052.186 8  87452754.877 8  21356853.180    21356848.280        -333.765
      -260.076          49.450          45.900
 112436811.904 8  87613094.100 8  21396010.120    21396004.940        -553.818
      -431.546          49.700          46.750
 118810978.784 8  92579989.115 8  22608972.960    22608968.940       -3227.792
     -2515.162          49.250          45.550
 120626055.475 8  93994352.821 7  22954363.820    22954361.660       -2995.647
     -2334.271          48.250          41.900
 123881882.447 8  96531332.729 7  23573936.760    23573935.260        3165.798
      2466.859          45.300          41.700
 129531748.960 8 100933825.270 6  24649073.240    24649067.400        2794.070
      2177.199          44.600          36.350
 132949160.484 7 103596747.475 6  25299380.060    25299379.280       -1296.954
     -1010.618          40.850          35.350
 133651087.154 7 104143676.834 6  25432955.120    25432949.740       -1185.876
      -924.053          42.350          35.100
 134156136.941 7 104537232.446 6  25529062.380    25529059.600        2945.307
      2295.044          41.500          36.700
 16  9 14  0  1 30.0000000  0 11G13G15G20G28G05G30G24G18G08G21G17
 105716255.980 8  82376319.581 8  20117124.860    20117119.780         139.575
       108.762          50.150          48.900
 111094298.148 9  86566983.883 8  21140537.060    21140532.660        1912.649
      1490.377          50.750          47.800
 112241386.518 8  87460807.580 8  21358819.700    21358814.720        -354.795
      -276.465          50.050          45.350
 112453713.042 8  87626263.826 8  21399226.200    21399221.120        -572.481
      -446.089          50.250          46.350
 118907969.129 8  92655565.990 8  22627429.600    22627425.720       -3237.791
     -2522.954          50.050          44.800
 120716010.922 8  94064447.972 7  22971481.900    22971479.680       -3001.059
     -2338.487          48.700          41.250
 123787004.108 8  96457401.587 7  23555881.780    23555880.380        3159.848
      2462.220          46.400          42.250
 129448073.631 8 100868623.726 6  24633150.400    24633144.560        2784.553
      2169.783          45.600          33.600
 132988341.635 7 103627278.258 6  25306835.860    25306834.680       -1314.732
     -1024.469          41.100          34.800
 133686862.799 7 104171553.926 6  25439763.140    25439757.760       -1198.876
      -934.186          42.750          32.950
 134067790.386 8 104468390.958 6  25512250.540    25512248.140        2944.607
      2294.501          44.500          33.900
 16  9 14  0  2  0.0000000  0 11G13G15G20G28G05G30G24G18G08G21G17
 105712277.017 8  82373219.080 8  20116367.680    20116362.640         124.846
        97.282          50.350          48.750
 111037090.266 9  86522406.308 8  21129650.860    21129646.500        1900.333
      1480.779          50.850          47.850
 112252327.024 9  87469332.642 8  21360901.660    21360896.560        -375.471
      -292.576          50.550          45.050
 112471145.492 8  87639847.562 8  21402543.360    21402538.480        -590.581
      -460.192          50.450          46.050
 119005235.319 8  92731357.802 8  22645938.700    22645934.820       -3247.458
     -2530.487          50.200          44.850
 120806101.456 8  94134648.355 7  22988625.520    22988623.120       -3005.886
     -2342.251          48.700          41.550
 123692287.914 8  96383596.795 7  23537857.760    23537856.520        3153.942
      2457.617          46.150          41.150
 129364660.651 8 100803626.604 6  24617277.240    24617271.300        2775.375
      2162.633          45.250          33.650
 133028028.288 7 103658202.892 6  25314387.780    25314387.140       -1332.126
     -1038.021          41.950          35.700
 133722993.822 7 104199707.931 6  25446638.540    25446632.980       -1211.141
      -943.747          43.650          32.750
 133979446.324 8 104399551.440 6  25495439.200    25495436.480        2944.050
      2294.064          44.550          32.750
 16  9 14  0  2 30.0000000  0 11G13G15G20G28G05G30G24G18G08G21G17
 105708732.186 8  82370456.868 8  20115693.200    20115688.080         111.157
        86.615          49.550          49.200
 110980240.301 8  86478107.635 8  21118832.760    21118828.260        1889.221
      1472.120          49.950          48.500
 112263875.587 8  87478331.522 8  21363099.380    21363094.120        -394.823
      -307.655          49.850          45.400
 112489110.580 8  87653846.337 8  21405961.920    21405957.160        -607.542
      -473.409          49.650          46.600
 119102777.569 8  92807364.730 8  22664500.280    22664496.460       -3255.733
     -2536.936          49.550          45.250
 120896328.074 8  94204954.796 7  23005795.100    23005792.640       -3009.580
     -2345.127          48.200          41.350
 123597737.487 8  96309921.173 7  23519865.340    23519864.320        3149.058
      2453.812          45.200          41.900
 129281514.481 7 100738837.357 5  24601454.640    24601449.220        2767.317
      2156.349          43.600          32.450
 133068221.009 7 103689521.838 6  25322036.240    25322035.340       -1348.183
     -1050.535          42.250          34.300
 133759481.086 7 104228139.557 6  25453581.660    25453576.780       -1221.629
      -951.918          42.300          35.850
 133891110.150 7 104330718.080 6  25478629.580    25478626.700        2944.385
      2294.327          42.050          35.300
 16  9 14  0  3  0.0000000  0 11G13G15G20G28G05G30G24G18G08G21G17
 105705617.907 8  82368030.157 8  20115100.500    20115095.400          96.051
        74.846          49.800          49.250
 110923745.733 8  86434085.901 8  21108082.180    21108077.680        1876.810
      1462.449          50.350          48.650
 112276027.425 8  87487800.467 8  21365411.880    21365406.620        -415.547
      -323.803          50.150          45.750
 112507603.344 8  87668256.289 8  21409480.940    21409475.980        -625.595
      -487.476          49.950          46.600
 119200589.194 8  92883581.558 8  22683113.300    22683109.540       -3265.284
     -2544.379          49.700          45.300
 120986685.295 8  94275363.025 7  23022989.580    23022987.600       -3014.576
     -2349.019          48.950          42.700
 123503349.509 8  96236372.117 7  23501903.820    23501902.940        3143.209
      2449.255          45.450          42.650
 129198633.712 8 100674254.996 6  24585682.660    24585677.520        2757.715
      2148.872          44.550          33.950
 133108914.485 7 103721231.085 6  25329780.300    25329779.300       -1365.272
     -1063.845          42.750          32.550
 133796318.575 7 104256844.046 6  25460591.480    25460587.020       -1233.810
      -961.418          41.600          33.600
 133802780.400 7 104261889.709 6  25461821.340    25461817.800        2943.588
      2293.706          43.850          34.550
 16  9 14  0  3 30.0000000  0 11G13G15G20G28G05G30G24G18G08G17G21
 105702942.054 8  82365945.066 8  20114591.240    20114586.100          81.550
        63.546          50.100          49.100
 110867615.135 9  86390347.773 8  21097400.860    21097396.360        1864.576
      1452.917          50.550          48.400
 112288789.261 8  87497744.756 8  21367840.460    21367835.300        -435.870
      -339.640          50.450          45.450
 112526629.588 8  87683081.945 8  21413101.480    21413096.540        -643.519
      -501.442          50.250          46.150
 119298674.502 8  92960011.670 8  22701778.440    22701774.360       -3274.336
     -2551.432          49.800          45.150
 121077178.869 8  94345877.473 7  23040210.020    23040208.160       -3018.972
     -2352.447          48.750          41.600
 123409131.639 8  96162955.643 7  23483974.600    23483973.740        3137.556
      2444.850          46.200          40.700
 129116027.363 8 100609886.382 6  24569963.160    24569957.780        2748.947
      2142.037          44.900          33.100
 133150114.869 7 103753335.216 6  25337620.740    25337619.060       -1381.979
     -1076.865          42.900          35.250
 133714467.199 7 104193074.228 6  25445015.800    25445012.140        2943.071
      2293.306          43.950          34.900
 133833511.680 7 104285825.664 6  25467668.920    25467664.580       -1245.867
      -970.810          42.600          32.500
 16  9 14  0  4  0.0000000  0 11G13G15G20G28G05G30G24G18G08G17G21
 105700699.496 8  82364197.623 8  20114164.500    20114159.320          67.591
        52.669          49.350          49.350
 110811844.479 8  86346890.127 8  21086788.080    21086783.480        1853.045
      1443.932          49.750          49.000
 112302154.800 8  87508159.451 8  21370383.880    21370378.680        -455.516
      -354.946          49.800          46.000
 112546182.884 8  87698318.292 8  21416822.300    21416817.500        -660.457
      -514.641          49.400          46.900
 119397024.648 8  93036648.131 8  22720493.840    22720489.900       -3282.628
     -2557.892          49.300          45.250
 121167801.511 8  94416492.505 7  23057454.780    23057453.240       -3022.874
     -2355.486          47.700          42.300
 123315079.697 8  96089668.450 7  23466077.120    23466075.840        3132.402
      2440.835          45.450          41.350
 129033691.785 8 100545728.789 6  24554295.280    24554289.920        2740.131
      2135.169          45.100          34.350
 133191814.737 7 103785828.545 6  25345556.140    25345553.980       -1398.105
     -1089.438          41.850          35.700
 133626167.529 8 104124269.257 6  25428212.900    25428209.220        2943.148
      2293.360          44.650          35.000
 133871052.591 7 104315078.335 5  25474812.720    25474808.040       -1257.082
      -979.542          40.950          32.200
 16  9 14  0  4 30.0000000  0 11G13G15G20G28G05G30G24G18G08G17G21
 105698891.399 8  82362788.705 8  20113820.460    20113815.320          53.103
        41.379          50.100          49.200
 110756435.735 8  86303714.482 8  21076244.160    21076239.540        1841.104
      1434.627          50.350          48.450
 112316123.748 8  87519044.344 8  21373041.960    21373036.880        -475.524
      -370.537          50.050          45.700
 112566262.335 8  87713964.634 8  21420643.280    21420638.500        -677.914
      -528.244          49.950          46.700
 119495637.612 8  93113489.375 8  22739259.200    22739255.500       -3291.353
     -2564.690          50.000          45.700
 121258552.088 8  94487207.222 7  23074724.020    23074722.700       -3026.941
     -2358.655          48.850          42.350
 123221194.119 8  96016510.885 7  23448211.280    23448210.120        3126.830
      2436.492          45.800          41.000
 128951629.614 8 100481784.254 6  24538679.600    24538673.980        2730.876
      2127.959          45.000          32.700
 133234013.266 7 103818710.540 6  25353586.020    25353584.740       -1414.825
     -1102.461          42.250          35.150
 133537883.873 8 104055476.836 6  25411413.300    25411409.420        2942.566
      2292.909          44.750          34.700
 133908939.721 7 104344600.763 6  25482022.500    25482017.660       -1268.582
      -988.504          42.100          33.800
 16  9 14  0  5  0.0000000  0 11G13G15G20G28G05G30G24G18G08G17G21
 105697523.592 8  82361722.878 8  20113560.200    20113555.080          38.563
        30.050          49.150          49.250
 110701395.710 8  86260826.153 8  21065770.420    21065765.720        1828.856
      1425.083          49.650          49.050
 112330700.378 8  87530402.739 8  21375815.700    21375810.820        -495.706
      -386.266          49.350          45.950
 112586872.495 8  87730024.494 8  21424565.120    21424560.420        -695.447
      -541.906          49.300          46.900
 119594515.734 8  93190537.258 8  22758074.980    22758071.260       -3300.026
     -2571.449          48.950          45.750
 121349434.492 8  94558024.657 7  23092018.480    23092017.000       -3031.178
     -2361.957          47.300          42.800
 123127481.618 7  95943488.206 7  23430378.400    23430377.400        3121.104
      2432.034          44.100          42.750
 128869848.208 7 100418058.510 6  24523117.160    24523111.660        2721.761
      2120.854          43.800          35.550
 133276713.989 7 103851983.819 6  25361711.760    25361710.240       -1431.344
     -1115.333          39.900          35.550
 133449625.482 7 103986704.071 6  25394618.260    25394614.660        2941.855
      2292.354          43.300          37.150
 133947176.226 7 104374395.411 5  25489298.700    25489293.540       -1279.833
      -997.277          41.600          32.350
 16  9 14  0  5 30.0000000  0 11G13G15G20G28G05G30G24G18G08G17G21
 105696593.918 8  82360998.457 8  20113383.280    20113378.240          22.907
        17.851          49.650          49.400
 110646723.246 8  86218224.235 8  21055366.540    21055361.920        1815.507
      1414.682          49.950          48.600
 112345881.837 8  87542232.437 8  21378704.560    21378699.700        -516.883
      -402.766          49.550          45.650
 112608009.501 8  87746494.901 8  21428587.440    21428582.600        -714.151
      -556.480          49.700          46.600
 119693653.927 8  93267787.768 8  22776940.320    22776936.780       -3309.716
     -2579.001          48.850          45.500
 121440444.636 8  94628941.621 7  23109337.200    23109335.480       -3036.743
     -2366.292          47.650          42.000
 123033940.276 8  95870598.871 7  23412578.260    23412577.080        3114.392
      2426.802          45.300          41.200
 128788347.361 8 100354551.355 6  24507608.100    24507602.740        2711.182
      2112.607          45.200          34.300
 133319912.971 7 103885645.423 6  25369931.980    25369930.420       -1448.966
     -1129.063          40.200          33.250
 133361391.904 7 103917950.640 6  25377827.920    25377824.900        2939.938
      2290.858          44.350          35.800
 133985757.913 7 104404459.031 6  25496640.680    25496635.780       -1292.435
     -1007.098          40.650          33.350
 16  9 14  0  6  0.0000000  0 11G13G15G20G28G05G30G24G18G17G08G21
 105696097.139 8  82360611.350 8  20113288.680    20113283.720           9.447
         7.361          49.000          48.950
 110592414.230 8  86175905.522 8  21045031.760    21045027.340        1804.374
      1406.006          49.200          48.950
 112361661.463 8  87554528.233 8  21381707.400    21381702.420        -535.754
      -417.471          49.300          46.600
 112629666.448 8  87763370.452 8  21432708.680    21432703.820        -730.456
      -569.186          49.200          47.500
 119793043.399 8  93345234.115 8  22795853.640    22795849.740       -3317.028
     -2584.697          48.350          46.350
 121531575.217 8  94699952.443 7  23126678.820    23126676.840       -3039.615
     -2368.531          46.950          43.150
 122940564.654 7  95797838.681 7  23394809.560    23394808.200        3109.972
      2423.355          44.250          42.900
 128707123.063 7 100291259.702 6  24492151.720    24492146.080        2702.986
      2106.225          44.250          35.550
 133273180.193 7 103849214.205 6  25361041.960    25361038.340        2940.136
      2291.013          43.450          36.750
 133363602.687 7 103919689.351 6  25378245.780    25378245.180       -1464.356
     -1141.060          39.650          38.100
 134024677.124 7 104434785.691 6  25504046.800    25504041.320       -1302.875
     -1015.229          39.400          33.950
 16  9 14  0  6 30.0000000  0 11G13G15G20G28G05G30G24G18G17G08G21
 105696041.667 8  82360568.123 8  20113278.160    20113273.220          -5.847
        -4.557          49.450          49.550
 110538477.792 8  86133877.128 8  21034767.940    21034763.680        1791.438
      1395.925          50.000          49.050
 112378046.046 8  87567295.428 8  21384825.420    21384820.440        -556.446
      -433.595          49.850          46.100
 112651849.637 8  87780656.050 8  21436930.060    21436925.240        -748.354
      -583.134          49.750          46.750
 119892688.666 8  93422879.758 8  22814815.520    22814811.680       -3325.914
     -2591.620          49.450          45.150
 121622832.460 8  94771061.941 7  23144044.560    23144042.760       -3044.176
     -2372.086          48.150          42.250
 122847363.718 8  95725214.594 7  23377073.980    23377072.480        3103.646
      2418.427          44.950          42.150
 128626185.406 8 100228191.376 6  24476749.680    24476744.100        2693.106
      2098.521          45.350          34.750
 133185000.551 8 103780502.806 6  25344261.860    25344258.780        2938.718
      2289.907          44.600          35.500
 133407789.566 7 103954120.653 6  25386654.440    25386653.080       -1481.338
     -1154.291          41.850          37.450
 134063939.175 7 104465379.467 6  25511518.220    25511513.020       -1314.876
     -1024.577          42.700          33.350
 16  9 14  0  7  0.0000000  0 11G13G15G20G28G05G30G24G18G17G08G21
 105696426.619 8  82360868.077 8  20113351.380    20113346.440         -20.118
       -15.676          49.850          49.600
 110484914.369 8  86092139.400 8  21024575.220    21024570.940        1779.313
      1386.479          50.200          49.200
 112395033.637 8  87580532.497 8  21388058.100    21388053.020        -576.180
      -448.972          49.650          45.950
 112674557.016 8  87798350.115 8  21441251.160    21441246.240        -765.517
      -596.506          49.950          46.200
 119992586.147 8  93500721.918 8  22833825.200    22833821.540       -3334.104
     -2598.003          49.400          45.250
 121714213.725 8  94842268.098 7  23161433.840    23161431.840       -3048.011
     -2375.073          47.750          41.650
 122754336.810 8  95652726.127 7  23359371.580    23359369.980        3098.165
      2414.156          46.250          40.950
 128545535.197 8 100165347.083 6  24461402.340    24461396.800        2683.616
      2091.131          44.750          34.300
 133096854.399 8 103711817.517 6  25327488.400    25327484.600        2937.735
      2289.145          46.100          36.900
 133452470.645 7 103988937.094 6  25395157.000    25395155.940       -1497.693
     -1167.034          42.000          36.700
 134103540.944 7 104496238.004 6  25519054.440    25519049.200       -1325.336
     -1032.724          42.250          35.300
 16  9 14  0  7 30.0000000  0 11G13G15G20G28G05G30G24G18G17G08G21
 105697249.823 8  82361509.525 8  20113508.120    20113503.060         -34.839
       -27.147          49.600          49.600
 110431722.442 8  86050691.148 8  21014453.220    21014448.860        1766.832
      1376.753          50.000          49.100
 112412620.695 8  87594236.691 8  21391404.700    21391399.640        -596.221
      -464.587          49.750          45.550
 112697784.325 8  87816449.317 8  21445671.200    21445666.300        -782.938
      -610.081          49.750          47.200
 120092730.475 8  93578756.443 8  22852882.060    22852878.180       -3342.235
     -2604.342          48.800          45.650
 121805714.805 8  94913567.600 7  23178845.920    23178843.660       -3052.120
     -2378.275          47.750          41.750
 122661482.330 8  95580372.015 7  23341702.040    23341700.740        3092.069
      2409.405          45.700          41.650
 128465171.837 8 100102726.279 6  24446109.760    24446104.220        2673.880
      2083.541          45.700          34.900
 133008742.468 8 103643158.835 6  25310721.120    25310717.960        2936.479
      2288.162          44.650          36.000
 133497641.626 7 104024135.257 6  25403752.840    25403751.320       -1513.771
     -1179.560          42.750          37.000
 134143477.910 7 104527357.661 6  25526654.000    25526648.740       -1336.762
     -1041.632          41.950          34.950
 16  9 14  0  8  0.0000000  0 11G13G15G20G28G05G30G24G18G17G08G21
 105698515.556 8  82362495.808 8  20113749.140    20113743.940         -49.228
       -38.358          49.650          49.450
 110378907.507 8  86009536.657 8  21004402.960    21004398.540        1754.445
      1367.102          50.000          49.250
 112430810.412 8  87608410.475 8  21394865.980    21394861.140        -616.153
      -480.120          49.300          45.600
 112721534.332 8  87834955.830 8  21450190.740    21450185.980        -800.119
      -623.469          49.900          46.650
 120193122.528 8  93656984.023 8  22871986.220    22871982.340       -3350.242
     -2610.578          49.550          45.050
 121897338.011 8  94984962.288 7  23196281.500    23196279.060       -3055.711
     -2381.073          48.500          41.250
 122568804.299 8  95508155.375 7  23324066.120    23324064.660        3086.587
      2405.133          45.350          42.200
 128385100.806 8 100040333.268 6  24430872.840    24430867.320        2664.312
      2076.089          45.900          36.700
 132920670.856 7 103574531.605 6  25293961.520    25293958.440        2934.780
      2286.844          44.200          36.850
 133543304.658 7 104059716.838 6  25412442.380    25412440.800       -1530.152
     -1192.328          43.300          36.050
 134183751.533 7 104558739.671 6  25534317.660    25534313.040       -1347.929
     -1050.335          41.850          35.200
 16  9 14  0  8 30.0000000  0 11G13G15G20G28G05G30G24G18G17G08G21
 105700220.287 8  82363824.158 8  20114073.580    20114068.300         -64.055
       -49.913          50.100          48.850
 110326466.612 9  85968673.614 8  20994423.820    20994419.320        1741.896
      1357.321          50.650          48.100
 112449597.379 8  87623049.660 8  21398440.940    21398436.080        -636.055
      -495.626          49.850          45.000
 112745801.531 8  87853865.337 8  21454808.640    21454803.820        -817.343
      -636.891          50.400          45.850
 120293755.094 8  93735398.985 8  22891136.080    22891132.220       -3358.176
     -2616.760          50.250          44.600
 121989077.620 8  95056447.685 7  23213739.300    23213736.540       -3059.545
     -2384.063          49.050          39.800
 122476299.728 8  95436073.900 7  23306462.980    23306461.500        3080.699
      2400.546          46.550          40.250
 128305319.924 8  99978166.345 6  24415691.100    24415685.600        2654.692
      2068.591          46.700          34.800
 132832637.834 7 103505934.512 6  25277209.300    25277206.060        2934.053
      2286.275          44.350          37.400
 133589453.941 8 104095677.310 6  25421224.400    25421222.560       -1545.975
     -1204.657          44.550          36.200
 134224355.710 7 104590379.273 6  25542044.360    25542039.900       -1358.559
     -1058.619          42.400          32.800
 16  9 14  0  9  0.0000000  0 11G13G15G20G28G05G30G24G18G17G08G21
 105702367.066 8  82365496.962 8  20114482.120    20114476.720         -78.805
       -61.405          49.400          49.450
 110274404.174 8  85928105.488 8  20984516.600    20984512.180        1729.133
      1347.378          49.900          49.450
 112468983.045 8  87638155.370 8  21402129.900    21402125.080        -656.175
      -511.305          49.450          46.100
 112770587.116 8  87873178.792 8  21459525.260    21459520.240        -834.642
      -650.370          49.700          47.300
 120394628.119 8  93814001.326 8  22910331.600    22910327.800       -3366.355
     -2623.133          49.450          45.800
 122080934.864 8  95128024.734 7  23231219.240    23231216.480       -3063.820
     -2387.393          47.300          42.500
 122383971.784 8  95364130.083 7  23288893.420    23288892.100        3074.542
      2395.749          44.850          42.100
 128225834.076 8  99916229.327 6  24400565.440    24400559.960        2644.724
      2060.825          44.750          37.400
 132744649.467 7 103437372.145 7  25260465.300    25260462.640        2932.357
      2284.954          43.400          40.400
 133636090.462 7 104132017.437 6  25430099.020    25430097.700       -1562.551
     -1217.570          41.950          36.700
 134265291.109 7 104622276.956 6  25549834.140    25549828.940       -1370.131
     -1067.629          40.800          34.200
 16  9 14  0  9 30.0000000  0 11G13G15G20G28G05G30G24G18G17G08G21
 105704959.577 8  82367517.079 8  20114975.460    20114969.960         -93.247
       -72.661          49.350          48.900
 110222724.739 8  85887835.795 8  20974682.320    20974677.840        1716.879
      1337.827          49.850          48.700
 112488970.052 8  87653729.634 8  21405933.380    21405928.580        -675.715
      -526.532          49.600          45.200
 112795893.265 8  87892897.867 8  21464340.760    21464335.860        -851.722
      -663.681          49.400          46.050
 120495741.691 8  93892791.090 7  22929572.880    22929569.080       -3373.896
     -2629.012          49.100          44.200
 122172911.393 8  95199694.697 7  23248721.500    23248719.360       -3067.289
     -2390.098          47.600          40.900
 122291824.688 8  95292327.150 7  23271358.300    23271356.640        3069.086
      2391.494          45.050          41.150
 128146648.606 8  99854526.357 6  24385496.780    24385491.440        2634.951
      2053.209          44.600          34.650
 132656711.368 7 103368849.001 6  25243731.220    25243728.940        2931.188
      2284.047          42.900          38.300
 133683215.584 7 104168738.300 5  25439066.680    25439065.420       -1578.503
     -1229.998          40.700          32.450
 134306558.724 7 104654433.499 6  25557687.200    25557682.240       -1380.488
     -1075.704          41.350          32.850
 16  9 14  0 10  0.0000000  0 11G13G15G20G28G05G24G30G18G17G08G21
 105707990.648 8  82369878.956 8  20115552.240    20115546.760        -108.477
       -84.527          49.650          49.050
 110171422.075 8  85847859.688 8  20964919.840    20964915.300        1703.657
      1327.524          50.200          48.750
 112509549.906 8  87669765.882 8  21409849.720    21409844.860        -695.970
      -542.314          49.900          45.200
 112821710.808 8  87913015.447 8  21469253.720    21469248.640        -869.208
      -677.306          50.050          46.400
 120597085.573 8  93971760.342 7  22948858.040    22948854.140       -3382.025
     -2635.346          49.300          44.300
 122199851.446 8  95220659.736 7  23253856.480    23253854.960        3062.827
      2386.618          46.050          40.350
 122264998.288 8  95271450.681 7  23266244.680    23266242.500       -3071.526
     -2393.396          47.850          40.750
 128067758.064 8  99793053.205 6  24370484.080    24370479.120        2624.545
      2045.101          45.300          36.100
 132568818.004 7 103300360.696 6  25227005.660    25227002.860        2929.085
      2282.405          43.000          36.250
 133730820.301 7 104205832.855 5  25448125.500    25448124.320       -1594.755
     -1242.669          40.600          30.650
 134348148.809 7 104686841.336 6  25565601.560    25565597.180       -1391.488
     -1084.276          42.250          33.750
 16  9 14  0 10 30.0000000  0 11G13G15G20G28G05G24G30G18G17G08G21
 105711468.680 8  82372589.092 8  20116213.980    20116208.740        -123.541
       -96.266          49.800          48.950
 110120505.179 8  85808184.177 8  20955230.700    20955226.160        1690.552
      1317.313          50.200          48.700
 112530729.047 8  87686269.101 8  21413880.000    21413875.220        -716.191
      -558.071          49.800          45.000
 112848046.415 8  87933536.701 8  21474265.220    21474260.200        -886.698
      -690.934          49.950          46.100
 120698664.710 8  94050912.902 7  22968187.920    22968183.980       -3390.021
     -2641.575          49.700          44.200
 122108060.630 8  95149134.435 7  23236389.340    23236387.560        3056.520
      2381.703          46.350          40.750
 122357201.683 8  95343297.451 7  23283790.480    23283788.340       -3075.539
     -2396.523          48.300          40.300
 127989171.920 8  99731817.236 6  24355529.520    24355524.740        2614.070
      2036.938          45.300          36.350
 132480980.714 8 103231916.079 6  25210290.760    25210288.020        2926.652
      2280.510          45.300          32.500
 133778910.174 7 104243305.450 6  25457276.740    25457275.300       -1611.716
     -1255.884          40.050          33.600
 134390066.866 7 104719504.720 6  25573578.380    25573573.840       -1402.886
     -1093.160          41.350          32.500
 16  9 14  0 11  0.0000000  0 11G13G15G20G28G05G24G30G18G17G08G21
 105715389.307 8  82375644.120 8  20116959.940    20116954.940        -137.287
      -106.978          49.650          49.350
 110069971.447 8  85768807.249 8  20945614.360    20945609.880        1678.947
      1308.271          50.050          48.950
 112552502.448 8  87703235.369 8  21418023.380    21418018.560        -734.915
      -572.661          49.800          45.700
 112874893.913 8  87954456.838 8  21479374.080    21479369.080        -902.622
      -703.342          49.950          46.300
 120800471.655 8  94130242.983 8  22987561.180    22987557.160       -3396.457
     -2646.590          49.700          44.650
 122016448.382 8  95077748.283 7  23218956.080    23218954.480        3051.579
      2377.855          46.000          41.300
 122449515.732 8  95415230.456 7  23301357.640    23301355.640       -3078.134
     -2398.548          48.050          41.450
 127910887.798 8  99670816.641 6  24340632.480    24340627.920        2605.022
      2029.890          45.400          36.250
 132393197.438 8 103163513.512 6  25193586.220    25193582.840        2925.962
      2279.969          46.700          34.750
 133827479.477 7 104281151.631 5  25466519.040    25466517.840       -1626.024
     -1267.039          40.650          29.200
 134432306.339 7 104752418.592 6  25581616.340    25581611.360       -1412.500
     -1100.649          42.600          32.950
 16  9 14  0 11 30.0000000  0 11G13G15G20G28G05G24G30G18G17G08G21
 105719753.921 8  82379045.124 8  20117790.460    20117785.460        -153.430
      -119.556          49.750          49.200
 110019823.174 8  85729730.673 8  20936071.400    20936066.900        1664.655
      1297.134          49.950          49.150
 112574869.358 8  87720664.124 8  21422279.680    21422274.740        -755.917
      -589.024          49.600          45.600
 112902253.494 8  87975775.997 8  21484580.500    21484575.320        -921.101
      -717.741          49.800          46.350
 120902504.724 8  94209749.262 7  23006977.480    23006973.440       -3405.274
     -2653.460          49.900          44.200
 121925016.527 8  95006502.698 7  23201557.200    23201555.400        3044.261
      2372.152          46.000          42.250
 122541939.971 8  95487249.339 7  23318945.680    23318943.300       -3083.124
     -2402.435          47.450          41.300
 127832908.971 8  99610053.920 6  24325793.520    24325789.300        2593.673
      2021.044          45.150          36.850
 132305472.207 8 103095156.195 6  25176892.940    25176888.980        2922.543
      2277.307          45.600          35.800
 133876527.206 7 104319370.682 5  25475852.660    25475851.460       -1643.450
     -1280.602          39.100          30.900
 134474866.380 7 104785582.219 6  25589715.400    25589710.240       -1424.645
     -1110.114          43.050          33.400
 16  9 14  0 12  0.0000000  0 11G13G15G20G28G05G24G30G18G17G08G21
 105724563.493 8  82382792.830 8  20118705.720    20118700.700        -167.526
      -130.540          49.600          49.300
 109970062.224 8  85690955.905 8  20926602.280    20926597.580        1652.463
      1287.633          50.150          48.950
 112597829.638 8  87738555.237 8  21426648.880    21426643.800        -775.009
      -603.903          49.300          45.500
 112930123.945 8  87997493.238 8  21489883.900    21489878.760        -937.256
      -730.330          49.600          46.200
 121004761.156 8  94289429.568 7  23026436.240    23026432.560       -3412.052
     -2658.741          49.350          43.850
 121833765.821 8  94935398.266 7  23184192.760    23184191.000        3038.756
      2367.863          46.800          41.500
 122634473.387 8  95559353.255 7  23336553.880    23336551.840       -3086.229
     -2404.854          47.300          40.950
 127755237.594 8  99549530.765 6  24311013.480    24311008.940        2584.330
      2013.765          46.550          34.900
 132217808.025 8 103026846.452 6  25160211.040    25160206.880        2921.315
      2276.350          46.250          35.150
 133926052.037 6 104357961.367 5  25485276.920    25485275.880       -1658.399
     -1292.262          37.950          29.500
 134517745.076 7 104818994.149 6  25597874.880    25597869.280       -1434.335
     -1117.663          42.850          33.750
 16  9 14  0 12 30.0000000  0 11G13G15G20G28G05G24G30G18G17G08G21
 105729819.161 8  82386888.154 8  20119705.880    20119700.840        -182.455
      -142.173          50.000          48.950
 109920690.769 8  85652484.637 8  20917207.260    20917202.520        1639.496
      1277.530          50.300          48.450
 112621382.389 8  87756908.018 8  21431130.800    21431125.760        -794.755
      -619.290          50.100          44.700
 112958504.192 8  88019607.721 8  21495284.500    21495279.200        -954.359
      -743.657          50.150          45.900
 121107239.251 8  94369282.612 7  23045937.220    23045933.600       -3419.287
     -2664.381          49.650          43.450
 121742698.385 8  94864436.651 7  23166863.220    23166861.300        3032.597
      2363.063          47.000          41.150
 122727115.164 8  95631541.613 7  23354182.580    23354181.260       -3089.569
     -2407.457          47.950          40.550
 127677876.722 8  99489249.535 6  24296292.780    24296287.620        2573.627
      2005.423          46.850          35.900
 132130208.258 7 102958586.887 6  25143541.340    25143537.200        2918.868
      2274.442          44.400          34.300
 133976052.580 6 104396922.760 6  25494791.940    25494790.060       -1674.179
     -1304.571          36.200          33.850
 134560940.621 7 104852652.989 6  25606094.660    25606089.440       -1444.706
     -1125.747          42.950          33.300
 16  9 14  0 13  0.0000000  0 11G13G15G20G28G05G24G30G18G17G08G21
 105735519.196 8  82391329.741 8  20120790.720    20120785.540        -196.560
      -153.164          49.750          49.550
 109871707.861 8  85614316.137 8  20907886.140    20907881.400        1627.166
      1267.922          50.000          49.000
 112645524.595 8  87775720.104 8  21435725.000    21435719.940        -813.583
      -633.962          49.600          45.500
 112987390.833 8  88042116.812 8  21500781.620    21500776.240        -970.429
      -756.176          49.900          46.050
 121209933.569 8  94449304.167 7  23065479.340    23065475.380       -3425.767
     -2669.429          49.350          43.900
 121651812.389 8  94793616.397 7  23149568.200    23149566.220        3027.499
      2359.091          46.750          41.950
 122819861.800 8  95703811.670 7  23371831.520    23371830.020       -3092.470
     -2409.718          47.300          40.750
 127600825.936 8  99429209.958 6  24281630.740    24281625.300        2564.049
      1997.959          46.200          37.300
 132042673.640 7 102890378.128 6  25126883.920    25126880.020        2917.732
      2273.560          44.400          36.700
 134026525.315 6 104436243.304 5  25504396.320    25504397.500       -1689.646
     -1316.616          35.450          31.800
 134604449.143 7 104886555.709 6  25614373.820    25614368.840       -1454.615
     -1133.467          43.700          35.500
 16  9 14  0 13 30.0000000  0 11G13G15G20G28G05G24G30G18G17G08G21
 105741673.849 8  82396125.563 8  20121961.940    20121956.700        -211.606
      -164.889          49.850          49.250
 109823124.761 8  85576459.178 8  20898641.040    20898636.480        1613.789
      1257.499          50.250          49.100
 112670264.753 8  87794998.134 8  21440432.920    21440427.980        -833.568
      -649.534          50.000          45.250
 113016792.202 8  88065026.968 8  21506376.460    21506371.060        -987.640
      -769.589          49.900          46.350
 121312851.297 8  94529499.773 7  23085063.900    23085059.800       -3433.153
     -2675.186          49.950          43.850
 121561118.325 8  94722945.716 7  23132309.620    23132307.920        3021.050
      2354.066          46.850          41.750
 122912721.469 8  95776169.823 7  23389502.400    23389500.720       -3096.037
     -2412.496          48.400          40.400
 127524097.050 8  99369421.236 6  24267029.760    24267024.140        2553.378
      1989.647          46.450          36.850
 131955216.630 8 102822229.834 6  25110241.300    25110237.600        2915.185
      2271.574          45.150          37.350
 134077478.070 6 104475946.602 5  25514093.040    25514091.140       -1705.476
     -1328.959          35.050          31.000
 134648278.018 7 104920708.044 6  25622714.140    25622709.120       -1465.235
     -1141.742          44.000          34.500
 16  9 14  0 14  0.0000000  0 11G13G15G20G28G05G24G30G18G17G08G21
 105748271.012 8  82401266.214 8  20123217.260    20123212.120        -227.334
      -177.144          49.300          49.200
 109774930.865 8  85538905.493 8  20889469.940    20889465.460        1599.983
      1246.740          49.600          49.150
 112695589.536 8  87814731.736 8  21445252.060    21445247.220        -853.938
      -665.405          49.400          45.700
 113046694.702 8  88088327.633 8  21512066.580    21512061.340       -1005.055
      -783.157          49.350          46.650
 121415976.862 8  94609857.366 7  23104688.200    23104683.980       -3441.001
     -2681.299          49.150          43.900
 121470604.669 8  94652415.621 7  23115085.200    23115084.020        3014.145
      2348.686          45.400          44.200
 123005680.608 8  95848605.506 7  23407192.500    23407190.160       -3100.382
     -2415.883          47.650          42.050
 127447679.730 8  99309875.283 6  24252488.260    24252482.080        2542.024
      1980.800          46.600          36.600
 131867827.755 7 102754134.588 6  25093611.540    25093608.220        2911.613
      2268.788          43.750          37.600
 134128896.700 6 104516013.113 5  25523877.520    25523875.260       -1721.430
     -1341.379          36.600          31.700
 134692412.683 7 104955098.651 6  25631112.840    25631107.860       -1476.250
     -1150.326          42.950          33.650
 16  9 14  0 14 30.0000000  0 11G13G15G20G28G24G05G30G18G17G08G21
 105755316.617 8  82406756.283 8  20124557.940    20124552.800        -241.880
      -188.478          49.950          48.700
 109727133.130 8  85501660.511 8  20880374.200    20880369.840        1587.143
      1236.735          49.750          49.150
 112721503.619 8  87834924.493 8  21450183.400    21450178.440        -873.081
      -680.325          49.700          44.750
 113077102.463 8  88112021.992 8  21517852.940    21517847.780       -1021.406
      -795.901          50.050          45.800
 121380278.240 8  94582031.411 7  23097896.640    23097895.500        3008.330
      2344.155          46.400          43.400
 121519313.440 8  94690379.338 7  23124352.560    23124348.800       -3447.497
     -2686.361          49.800          42.850
 123098743.487 8  95921122.024 7  23424902.160    23424899.540       -3103.213
     -2418.088          48.000          40.300
 127371581.711 8  99250578.107 6  24238007.340    24238000.860        2531.813
      1972.841          47.350          35.700
 131780515.391 8 102686099.020 6  25076996.440    25076993.340        2909.797
      2267.377          44.700          37.100
 134180785.052 6 104556445.609 5  25533751.040    25533750.220       -1736.927
     -1353.443          37.200          31.850
 134736856.964 7 104989730.532 6  25639570.340    25639565.700       -1486.049
     -1157.961          44.250          32.650
 16  9 14  0 15  0.0000000  0 11G13G15G20G28G24G05G30G18G17G08G21
 105762809.980 8  82412595.261 8  20125983.860    20125978.700        -256.697
      -200.024          48.650          48.400
 109679731.793 8  85464724.394 8  20871353.920    20871349.640        1573.839
      1226.369          49.050          48.900
 112748004.647 8  87855574.651 8  21455226.280    21455221.420        -892.682
      -695.595          48.750          46.200
 113108012.778 8  88136107.965 8  21523735.060    21523729.800       -1038.221
      -809.003          48.950          47.050
 121290138.159 8  94511792.399 7  23080743.500    23080742.180        3002.201
      2339.377          45.400          44.000
 121622856.802 8  94771062.475 7  23144056.100    23144052.000       -3454.265
     -2691.636          48.600          44.400
 123191907.459 8  95993717.301 7  23442630.520    23442628.380       -3106.503
     -2420.652          46.350          41.950
 127295803.895 8  99191530.441 6  24223587.340    24223581.000        2520.984
      1964.404          45.700          35.200
 131693281.035 8 102618124.232 6  25060396.420    25060393.360        2907.127
      2265.295          45.250          36.900
 134233139.998 6 104597241.624 5  25543713.460    25543713.140       -1752.371
     -1365.490          34.950          31.750
 134781607.154 7 105024600.779 6  25648086.140    25648081.200       -1496.076
     -1165.776          41.550          36.800
 16  9 14  0 15 30.0000000  0 11G13G15G20G28G24G05G30G18G17G08G21
 105770751.465 8  82418783.432 8  20127495.000    20127489.980        -272.781
      -212.556          49.600          49.150
 109632728.039 8  85428098.104 8  20862409.460    20862405.140        1559.476
      1215.176          50.100          49.200
 112775090.613 8  87876680.578 8  21460380.520    21460375.760        -913.239
      -711.616          49.800          45.450
 113139424.091 8  88160584.335 8  21529712.440    21529707.120       -1056.008
      -822.862          49.600          46.300
 121200185.142 8  94441699.162 7  23063625.900    23063624.440        2994.733
      2333.560          46.400          43.650
 121726604.237 8  94851904.610 7  23163798.440    23163794.420       -3462.426
     -2697.995          48.800          43.900
 123285171.004 8  96066390.156 7  23460377.580    23460376.040       -3111.009
     -2424.164          46.800          40.850
 127220347.871 8  99132733.556 6  24209228.220    24209222.080        2509.120
      1955.160          46.200          36.200
 131606127.633 8 102550212.441 6  25043811.700    25043808.760        2902.914
      2262.008          45.000          37.200
 134285959.458 7 104638399.701 6  25553764.440    25553763.940       -1769.000
     -1378.442          38.700          35.550
 134826660.820 7 105059707.556 5  25656659.860    25656654.960       -1507.408
     -1174.598          43.900          31.250
 16  9 14  0 16  0.0000000  0 11G13G15G20G28G24G05G30G18G17G08G21
 105779146.427 8  82425324.949 8  20129092.360    20129087.540        -286.813
      -223.490          48.850          48.750
 109586128.447 8  85391786.722 8  20853541.960    20853537.540        1547.222
      1205.627          49.600          49.400
 112802765.764 8  87898245.608 8  21465647.060    21465642.120        -931.704
      -726.005          49.700          45.550
 113171339.999 8  88185453.860 8  21535785.700    21535780.720       -1071.697
      -835.090          49.250          46.650
 121110424.824 8  94371756.100 7  23046545.000    23046543.540        2989.384
      2329.392          46.200          43.450
 121830557.761 8  94932907.342 7  23183580.100    23183575.960       -3467.901
     -2702.261          48.750          43.350
 123378537.984 8  96139143.622 7  23478144.580    23478143.260       -3113.295
     -2425.943          47.000          40.750
 127145221.442 8  99074193.494 6  24194932.020    24194926.280        2499.221
      1947.446          46.200          36.850
 131519063.067 8 102482369.959 7  25027243.700    25027241.400        2901.190
      2260.669          45.050          38.900
 134339246.784 7 104679922.351 6  25563904.780    25563904.160       -1783.432
     -1389.674          39.750          33.550
 134872021.350 7 105095053.364 5  25665291.840    25665286.520       -1516.389
     -1181.606          44.100          30.300
 16  9 14  0 16 30.0000000  0 11G13G15G20G28G24G05G30G18G17G08G21
 105787986.918 8  82432213.644 8  20130774.600    20130769.860        -301.867
      -235.222          49.300          49.300
 109539926.118 8  85355784.908 8  20844750.040    20844745.460        1533.693
      1195.086          49.650          49.400
 112831020.442 8  87920262.224 8  21471023.880    21471018.820        -951.230
      -741.220          49.300          45.900
 113203750.764 8  88210709.009 8  21541953.340    21541948.320       -1088.353
      -848.066          49.550          46.300
 121020849.671 8  94301957.287 7  23029499.580    23029498.100        2982.994
      2324.410          46.450          43.850
 121934706.490 8  95014062.164 7  23203398.920    23203395.400       -3474.678
     -2707.542          49.050          43.250
 123471998.490 8  96211969.950 7  23495929.720    23495928.240       -3116.679
     -2428.583          47.550          41.050
 127070417.544 8  99015904.746 6  24180697.400    24180691.560        2488.381
      1938.997          46.850          36.250
 131432081.775 8 102414592.364 7  25010691.800    25010689.160        2898.268
      2258.395          45.450          39.300
 134392991.527 6 104721801.408 6  25574132.240    25574131.380       -1799.471
     -1402.178          37.850          35.000
 134917677.493 7 105130629.575 5  25673980.120    25673974.440       -1526.521
     -1189.492          43.350          32.000
 16  9 14  0 17  0.0000000  0 11G13G15G20G28G24G05G30G18G17G08G21
 105797279.016 8  82439454.234 8  20132542.920    20132538.060        -316.993
      -247.007          49.800          48.850
 109494128.029 8  85320098.080 8  20836034.880    20836030.320        1520.231
      1184.597          50.200          49.350
 112859858.894 8  87942733.739 8  21476511.660    21476506.640        -970.684
      -756.376          49.600          45.450
 113236660.508 8  88236352.970 8  21548215.880    21548210.800       -1104.997
      -861.036          49.950          46.150
 120931466.176 8  94232307.829 7  23012490.680    23012489.060        2976.470
      2319.329          47.400          43.250
 122039052.749 8  95095370.948 7  23223255.360    23223251.400       -3481.338
     -2712.733          48.700          43.250
 123565556.872 8  96284872.564 7  23513733.660    23513731.620       -3119.908
     -2431.098          48.350          40.850
 126995944.054 8  98957873.443 6  24166525.560    24166519.940        2477.270
      1930.338          46.750          34.750
 131345192.031 8 102346886.090 6  24994157.180    24994154.620        2895.063
      2255.896          45.800          37.950
 134447197.417 7 104764039.748 5  25584447.280    25584446.120       -1814.250
     -1413.696          41.200          31.950
 134963632.993 7 105166438.993 5  25682725.260    25682720.220       -1536.519
     -1197.290          44.000          32.050
 16  9 14  0 17 30.0000000  0 11G13G15G20G28G24G05G30G18G17G08G21
 105807021.455 8  82447045.722 8  20134396.960    20134391.960        -332.152
      -258.821          49.650          49.150
 109448734.187 8  85284726.240 8  20827396.680    20827392.180        1506.449
      1173.856          50.200          49.300
 112889278.425 8  87965658.034 8  21482109.900    21482104.980        -990.227
      -771.606          49.900          44.950
 113270065.831 8  88262383.081 8  21554572.560    21554567.620       -1121.681
      -874.037          49.450          46.650
 120842273.631 8  94162807.145 7  22995518.040    22995516.260        2970.083
      2314.351          47.750          43.400
 122143592.252 8  95176830.281 7  23243148.500    23243144.700       -3487.680
     -2717.676          48.200          43.250
 123659210.319 8  96357849.246 7  23531555.380    23531553.320       -3123.283
     -2433.730          47.100          40.800
 126921801.741 8  98900100.228 6  24152416.720    24152410.900        2466.005
      1921.561          46.650          35.950
 131258395.010 8 102279252.066 6  24977640.360    24977637.940        2891.786
      2253.344          45.350          38.000
 134501861.226 7 104806634.879 5  25594849.500    25594848.240       -1829.686
     -1425.724          42.850          32.050
 135009884.221 7 105202478.876 5  25691526.620    25691520.780       -1546.528
     -1205.092          41.900          31.500
 16  9 14  0 18  0.0000000  0 11G13G15G20G28G24G05G30G18G17G08G21
 105817218.058 8  82454991.121 8  20136337.340    20136332.260        -347.159
      -270.514          49.350          49.150
 109403749.438 8  85249673.192 8  20818836.440    20818831.800        1493.034
      1163.404          50.100          48.900
 112919281.254 8  87989036.839 7  21487819.200    21487814.300       -1009.588
      -786.692          49.750          44.350
 113303969.075 8  88288801.202 8  21561024.100    21561019.080       -1138.182
      -886.895          49.700          45.900
 120753276.436 8  94093458.692 7  22978582.500    22978580.660        2963.509
      2309.227          46.950          42.400
 122248325.761 8  95258440.787 7  23263078.420    23263074.720       -3494.040
     -2722.629          48.050          42.950
 123752960.922 8  96430901.633 7  23549395.400    23549393.380       -3126.300
     -2436.078          46.650          40.550
 126847995.790 8  98842589.094 6  24138371.760    24138366.200        2454.788
      1912.822          46.400          36.050
 131171696.694 8 102211694.965 6  24961142.300    24961139.440        2888.554
      2250.824          46.150          38.200
 134556984.465 7 104849588.051 6  25605339.260    25605338.100       -1844.550
     -1437.311          43.050          36.000
 135056432.356 7 105238750.127 5  25700384.440    25700379.320       -1556.416
     -1212.788          42.950          31.350
 16  9 14  0 18 30.0000000  0 11G13G15G20G28G24G05G30G18G17G08G21
 105827864.237 8  82463286.838 8  20138363.240    20138358.180        -361.392
      -281.604          49.250          49.200
 109359170.310 8  85214936.205 8  20810353.380    20810348.680        1480.104
      1153.328          49.750          49.550
 112949861.001 8  88012865.204 8  21493638.440    21493633.480       -1027.902
      -800.963          49.350          45.600
 113338363.561 8  88315602.100 8  21567569.320    21567564.240       -1153.698
      -898.986          49.650          46.700
 120664470.197 8  94024259.043 7  22961683.140    22961681.240        2957.836
      2304.809          46.750          44.050
 122353245.836 8  95340196.649 7  23283044.080    23283040.960       -3499.432
     -2726.833          48.250          43.550
 123846802.473 8  96504024.879 7  23567252.760    23567251.020       -3128.456
     -2437.760          47.250          40.750
 126774523.400 8  98785337.872 6  24124390.320    24124384.540        2444.512
      1904.812          46.200          36.650
 131085096.234 8 102144214.065 6  24944662.920    24944659.580        2886.013
      2248.841          46.150          37.700
 134612560.180 7 104892893.771 6  25615914.940    25615913.380       -1858.959
     -1448.542          41.850          36.700
 135103270.127 7 105275247.036 6  25709297.120    25709292.480       -1565.291
     -1219.711          41.150          35.850
 16  9 14  0 19  0.0000000  0 11G13G15G20G28G24G05G30G18G17G08G21
 105838963.071 8  82471935.271 8  20140475.220    20140470.220        -377.054
      -293.809          50.150          48.950
 109315000.941 9  85180518.512 8  20801948.240    20801943.620        1465.917
      1142.273          50.650          49.350
 112981018.806 8  88037144.002 8  21499567.600    21499562.560       -1047.771
      -816.445          50.400          45.150
 113373250.357 8  88342786.630 8  21574208.040    21574203.040       -1170.648
      -912.193          49.950          46.400
 120575858.428 8  93955210.936 7  22944820.760    22944819.000        2951.004
      2299.485          48.050          42.600
 122458351.570 8  95422097.232 7  23303045.220    23303041.460       -3506.049
     -2731.988          49.000          42.700
 123940736.177 8  96577219.938 7  23585127.720    23585126.120       -3132.192
     -2440.670          48.100          39.800
 126701389.160 8  98728350.157 6  24110473.280    24110467.540        2432.665
      1895.582          47.050          35.950
 130998598.345 8 102076813.131 6  24928202.980    24928199.280        2882.103
      2245.797          46.000          36.550
 134668588.901 7 104936552.459 6  25626576.860    25626575.800       -1874.603
     -1460.732          43.450          34.050
 135150398.152 7 105311970.152 5  25718265.220    25718260.480       -1575.272
     -1227.485          43.850          31.850
 16  9 14  0 19 30.0000000  0 11G13G15G20G28G24G05G30G18G17G08G21
 105850514.977 8  82480936.755 8  20142673.420    20142668.540        -392.564
      -305.895          49.300          49.100
 109271242.831 8  85146421.290 8  20793621.340    20793616.860        1451.743
      1131.228          49.800          49.700
 113012753.450 8  88061872.294 8  21505606.440    21505601.340       -1067.393
      -831.735          49.450          45.400
 113408628.036 8  88370353.649 8  21580940.020    21580935.260       -1187.288
      -925.158          49.750          46.000
 120487441.936 8  93886314.962 7  22927995.560    22927993.920        2944.121
      2294.118          46.350          42.800
 122563640.696 8  95504140.687 7  23323081.100    23323077.240       -3512.646
     -2737.129          48.250          43.400
 124034761.032 8  96650486.030 7  23603019.920    23603018.240       -3135.579
     -2443.311          46.150          40.900
 126628595.576 8  98671627.902 6  24096620.980    24096615.380        2420.682
      1886.244          46.100          36.100
 130912206.108 8 102009494.512 6  24911763.040    24911759.580        2878.129
      2242.696          45.250          36.650
 134725069.097 7 104980563.038 6  25637324.660    25637323.760       -1890.101
     -1472.800          39.250          38.000
 135197814.137 7 105348917.585 5  25727288.060    25727283.500       -1585.240
     -1235.258          42.300          32.250
 16  9 14  0 20  0.0000000  0 11G13G15G20G28G24G05G30G18G17G08G21
 105862518.292 8  82490289.982 8  20144957.520    20144952.700        -407.623
      -317.629          49.300          49.050
 109227895.917 8  85112644.473 8  20785372.700    20785368.280        1438.121
      1120.614          49.800          49.650
 113045062.393 8  88087048.072 8  21511754.580    21511749.520       -1086.497
      -846.621          49.750          45.150
 113444493.509 8  88398300.770 8  21587765.100    21587760.240       -1203.579
      -937.854          49.400          46.650
 120399220.035 8  93817570.642 7  22911207.340    22911205.940        2937.536
      2288.991          46.650          43.150
 122669109.116 8  95586323.863 7  23343151.060    23343147.080       -3518.418
     -2741.625          47.100          42.750
 124128874.206 8  96723820.936 7  23620928.880    23620927.220       -3138.460
     -2445.555          46.050          40.250
 126556142.713 8  98615171.130 6  24082833.680    24082828.340        2409.369
      1877.432          46.150          36.800
 130825920.846 8 101942259.242 6  24895343.680    24895339.700        2874.558
      2239.915          45.250          37.050
 134781997.503 7 105024922.786 6  25648157.840    25648157.500       -1904.904
     -1484.347          39.100          36.550
 135245514.318 7 105386086.571 6  25736364.960    25736360.100       -1594.475
     -1242.444          42.300          35.000
 16  9 14  0 20 30.0000000  0 11G13G15G20G28G24G05G30G18G17G08G21
 105874976.970 8  82499998.038 8  20147328.340    20147323.500        -422.276
      -329.047          49.250          49.150
 109184964.665 8  85079191.540 8  20777203.220    20777198.740        1424.726
      1110.175          49.950          49.750
 113077946.984 8  88112672.416 8  21518012.440    21518007.320       -1105.110
      -861.125          49.750          45.450
 113480848.369 8  88426629.246 8  21594683.320    21594678.220       -1219.383
      -950.168          49.450          46.300
 120311196.690 8  93748981.044 7  22894456.940    22894455.720        2931.266
      2284.104          46.400          43.100
 122774756.890 8  95668646.765 7  23363255.040    23363251.560       -3523.865
     -2745.872          47.300          43.350
 124223077.375 8  96797225.941 7  23638855.060    23638853.300       -3140.975
     -2447.515          46.400          40.600
 126484035.297 8  98558983.533 6  24069112.100    24069106.840        2398.279
      1868.787          46.100          35.450
 130739747.844 8 101875111.475 7  24878945.500    24878942.080        2871.094
      2237.215          45.350          38.750
 134839374.469 7 105069631.985 6  25659076.160    25659075.640       -1919.321
     -1495.586          38.750          34.100
 135293499.610 7 105423477.644 6  25745496.240    25745491.100       -1603.521
     -1249.505          41.400          34.850
 16  9 14  0 21  0.0000000  0 11G13G15G20G28G24G05G30G18G17G08G21
 105887888.776 8  82510059.178 8  20149785.460    20149780.640        -438.600
      -341.767          49.750          48.750
 109142447.500 8  85046061.278 8  20769112.480    20769107.960        1409.745
      1098.503          50.400          49.100
 113111402.817 8  88138741.880 8  21524378.960    21524373.760       -1125.388
      -876.926          50.250          44.700
 113517688.380 8  88455335.744 8  21601693.600    21601688.680       -1236.661
      -963.632          49.850          45.750
 120223369.845 8  93680544.549 7  22877743.940    22877742.560        2923.479
      2278.037          46.700          42.550
 122880578.199 8  95751104.917 7  23383392.140    23383388.440       -3530.842
     -2751.307          48.700          42.150
 124317366.558 8  96870698.001 7  23656797.760    23656795.660       -3145.166
     -2450.778          47.350          38.850
 126412272.906 8  98503064.793 6  24055456.220    24055450.940        2385.600
      1858.908          47.050          36.650
 130653688.159 8 101808051.997 6  24862568.820    24862565.340        2866.399
      2233.559          46.600          37.700
 134897195.472 7 105114687.281 5  25670079.060    25670079.080       -1935.477
     -1508.170          40.400          30.650
 135341764.530 7 105461086.727 5  25754681.000    25754675.800       -1614.033
     -1257.683          43.050          31.250
 16  9 14  0 21 30.0000000  0 11G13G15G20G28G24G05G30G18G17G08G21
 105901254.512 8  82520474.029 8  20152328.960    20152324.020        -452.978
      -352.970          49.250          49.050
 109100347.204 8  85013255.858 8  20761101.080    20761096.540        1396.530
      1088.206          49.950          49.650
 113145429.705 8  88165256.328 8  21530854.140    21530848.960       -1143.487
      -891.030          49.850          45.600
 113555012.830 8  88484419.730 8  21608796.240    21608791.300       -1252.032
      -975.609          49.550          46.350
 120135740.639 8  93612262.077 7  22861068.640    22861067.060        2917.867
      2273.663          46.400          43.600
 122986571.573 8  95833697.155 7  23403562.100    23403558.520       -3535.761
     -2755.138          47.650          43.550
 124411741.514 8  96944236.908 7  23674756.960    23674755.060       -3147.118
     -2452.301          46.250          39.000
 126340858.618 8  98447417.296 6  24041866.580    24041861.180        2374.773
      1850.473          45.650          36.800
 130567745.559 8 101741083.723 7  24846214.460    24846210.980        2862.944
      2230.865          45.550          39.600
 134955459.839 7 105160088.005 6  25681166.600    25681166.120       -1949.331
     -1518.962          39.400          33.950
 135390308.359 7 105498912.980 6  25763918.520    25763913.300       -1622.746
     -1264.484          40.250          35.850
 16  9 14  0 22  0.0000000  0 11G13G15G20G28G24G05G30G18G17G08G21
 105915075.337 8  82531243.499 8  20154958.980    20154953.900        -467.819
      -364.534          49.200          48.950
 109058666.057 8  84980777.036 8  20753169.380    20753164.880        1382.804
      1077.510          49.650          49.700
 113180027.017 8  88192215.262 8  21537437.800    21537432.700       -1162.248
      -905.648          49.650          45.750
 113592820.639 8  88513880.369 8  21615991.020    21615985.860       -1267.835
      -987.923          49.450          46.300
 120048311.494 8  93544135.485 7  22844431.560    22844429.800        2911.495
      2268.698          46.200          43.250
 123092734.667 8  95916421.617 7  23423764.260    23423760.620       -3541.135
     -2759.325          47.200          43.650
 124506201.725 8  97017842.230 7  23692732.240    23692730.660       -3149.653
     -2454.274          46.650          39.400
 126269795.252 8  98392043.259 6  24028343.480    24028338.380        2363.204
      1841.459          45.300          38.200
 130481923.292 8 101674209.263 7  24829882.840    24829879.700        2859.002
      2227.797          45.000          40.850
 135014166.426 7 105205833.350 5  25692338.240    25692337.040       -1963.667
     -1530.137          38.850          32.000
 135439129.431 7 105536955.409 6  25773209.100    25773204.540       -1631.297
     -1271.135          40.350          35.500
 16  9 14  0 22 30.0000000  0 11G13G15G20G28G24G05G30G18G17G08G21
 105929349.773 8  82542366.430 8  20157675.300    20157670.140        -483.517
      -376.767          49.400          49.100
 109017403.009 8  84948624.010 8  20745317.280    20745312.740        1368.261
      1066.177          49.950          49.450
 113215191.368 8  88219616.045 8  21544129.220    21544124.460       -1181.736
      -920.835          49.700          45.500
 113631108.633 8  88543715.178 8  21623276.860    21623271.780       -1284.429
     -1000.854          49.700          45.950
 119961081.203 8  93476163.867 7  22827832.180    22827830.520        2904.251
      2263.056          45.750          43.850
 123199063.149 8  95999274.949 7  23443997.920    23443994.580       -3547.151
     -2764.012          48.300          42.550
 124600744.301 8  97091511.716 7  23710723.080    23710721.600       -3152.966
     -2456.855          47.150          39.600
 126199083.185 8  98336942.936 6  24014887.380    24014882.180        2351.163
      1832.075          46.000          37.000
 130396222.534 8 101607429.497 7  24813574.520    24813571.460        2854.572
      2224.345          45.550          38.700
 135073311.172 6 105251920.276 5  25703593.080    25703591.780       -1979.211
     -1542.240          37.350          30.200
 135488223.680 7 105575210.555 6  25782551.380    25782546.180       -1641.080
     -1278.770          41.350          35.750
 16  9 14  0 23  0.0000000  0 11G13G15G20G28G24G05G30G18G17G08G21
 105944080.329 8  82553844.779 8  20160478.480    20160473.260        -499.169
      -388.963          49.800          49.050
 108976562.229 8  84916800.025 8  20737545.600    20737541.020        1353.689
      1054.823          50.350          49.600
 113250923.087 8  88247458.926 8  21550928.680    21550924.000       -1201.082
      -935.908          49.800          45.850
 113669877.003 8  88573924.295 8  21630654.120    21630649.280       -1300.851
     -1013.648          49.850          46.350
 119874052.411 8  93408349.238 7  22811271.200    22811269.640        2896.954
      2257.367          46.600          43.650
 123305556.414 8  96082256.677 7  23464262.820    23464259.460       -3552.999
     -2768.571          48.050          42.400
 124695369.972 8  97165245.965 7  23728729.900    23728728.180       -3156.069
     -2459.275          46.600          40.250
 126128726.423 8  98282119.484 6  24001498.960    24001493.480        2338.643
      1822.320          46.100          36.600
 130310648.333 8 101540748.344 6  24797290.040    24797287.320        2849.716
      2220.558          45.000          38.200
 135132894.076 7 105298348.433 6  25714931.200    25714930.180       -1993.952
     -1553.729          38.500          34.300
 135537590.865 7 105613678.492 5  25791945.960    25791940.120       -1650.235
     -1285.896          41.750          29.850
 16  9 14  0 23 30.0000000  0 11G13G15G20G28G24G05G30G18G17G08G21
 105959266.801 8  82565678.389 8  20163368.440    20163363.260        -514.097
      -400.595          49.150          49.250
 108936145.081 8  84885306.142 8  20729854.500    20729849.880        1339.876
      1044.060          49.550          49.550
 113287221.264 8  88275743.216 8  21557836.040    21557831.220       -1219.633
      -950.363          49.450          45.950
 113709124.527 8  88604506.796 8  21638122.700    21638117.840       -1316.383
     -1025.753          49.400          46.250
 119787226.182 8  93340692.479 7  22794748.600    22794747.220        2890.595
      2252.413          45.700          44.050
 123412211.366 8  96165364.428 7  23484558.660    23484555.120       -3558.056
     -2772.511          46.750          42.650
 124790077.556 8  97239044.053 7  23746752.440    23746750.160       -3158.479
     -2461.153          46.300          39.250
 126058726.587 8  98227574.151 6  23988178.460    23988172.640        2327.216
      1813.416          45.800          37.850
 130225203.653 8 101474168.117 6  24781030.240    24781026.700        2845.685
      2217.417          44.500          35.600
 135192913.436 6 105345116.632 5  25726352.480    25726352.000       -2007.707
     -1564.450          35.500          30.850
 135587229.192 7 105652357.660 6  25801391.760    25801386.180       -1659.150
     -1292.850          38.700          32.600
 16  9 14  0 24  0.0000000  0 11G13G15G20G28G24G05G30G18G17G08G21
 105974905.749 8  82577864.581 8  20166344.380    20166339.180        -529.018
      -412.222          50.100          48.800
 108896148.116 9  84854139.681 8  20722243.360    20722238.740        1326.073
      1033.304          50.550          49.500
 113324079.516 9  88304463.915 8  21564850.060    21564845.060       -1238.106
      -964.760          50.650          44.850
 113748844.952 8  88635457.778 8  21645681.060    21645676.140       -1332.019
     -1037.937          50.100          45.650
 119700598.691 8  93273190.562 7  22778263.920    22778262.600        2884.200
      2247.429          47.550          42.400
 123519021.086 8  96248592.777 7  23504883.960    23504880.240       -3563.025
     -2776.382          48.550          41.700
 124884861.517 8  97312901.657 7  23764789.380    23764786.580       -3160.979
     -2463.102          47.950          38.500
 125989081.562 8  98173305.307 6  23974925.580    23974919.540        2315.383
      1804.193          47.150          35.500
 130139886.991 8 101407687.597 6  24764795.200    24764791.360        2841.681
      2214.295          47.900          35.550
 135253362.471 6 105392219.765 6  25737855.800    25737855.400       -2022.118
     -1575.677          33.800          32.600
 135637131.516 7 105691242.584 5  25810887.940    25810882.780       -1668.141
     -1299.848          41.800          30.800
 16  9 14  0 24 30.0000000  0 11G13G15G20G28G24G05G30G18G17G08G21
 105990985.832 9  82590394.501 8  20169404.300    20169399.160        -543.722
      -423.680          50.550          47.700
 108856561.791 9  84823293.195 8  20714710.280    20714705.780        1312.281
      1022.558          50.950          48.700
 113361484.800 9  88333610.882 7  21571968.180    21571963.080       -1256.354
      -978.979          51.000          44.400
 113789025.240 8  88666767.101 8  21653327.020    21653322.120       -1347.364
     -1049.895          50.350          44.850
 119614159.222 8  93205835.175 7  22761815.120    22761813.600        2877.851
      2242.483          48.600          41.500
 123625971.179 8  96331930.461 7  23525236.000    23525232.740       -3567.620
     -2779.966          49.050          41.850
 124979709.135 8  97386808.879 6  23782838.380    23782835.480       -3163.050
     -2464.716          47.900          38.400
 125919782.085 8  98119305.724 6  23961738.520    23961732.520        2303.721
      1795.109          47.550          35.200
 130054689.781 8 101341300.114 6  24748583.140    24748579.040        2837.510
      2211.045          49.000          35.000
 135314217.138 7 105439634.465 6  25749439.240    25749437.060       -2036.246
     -1586.685          41.700          33.550
 135687284.248 7 105730322.671 5  25820431.820    25820426.180       -1676.180
     -1306.108          41.700          28.900
 16  9 14  0 25  0.0000000  0 11G13G15G20G28G24G05G30G18G17G08G21
 106007539.386 8  82603293.366 8  20172554.380    20172549.300        -557.600
      -434.494          49.800          48.600
 108817419.331 8  84792792.583 8  20707261.660    20707257.280        1299.434
      1012.546          50.350          49.250
 113399467.734 8  88363207.955 8  21579196.140    21579191.120       -1273.604
      -992.419          50.400          45.050
 113829695.748 8  88698458.417 8  21661066.260    21661061.580       -1361.734
     -1061.092          50.000          45.200
 119527940.693 8  93138651.910 7  22745408.360    22745406.720        2872.465
      2238.285          47.600          42.700
 123733091.134 8  96415400.549 7  23545620.460    23545616.500       -3571.313
     -2782.843          48.650          41.850
 125074651.359 8  97460789.810 7  23800905.340    23800902.760       -3164.111
     -2465.543          46.150          38.750
 125850861.877 8  98065601.662 6  23948623.400    23948617.560        2293.211
      1786.916          46.250          36.450
 129969647.195 8 101275033.156 6  24732400.240    24732396.200        2834.396
      2208.621          47.700          38.400
 135375529.111 6 105487414.876 4  25761106.120    25761105.620       -2048.743
     -1596.425          37.950          24.950
 135737716.981 7 105769620.837 6  25830028.520    25830022.660       -1683.170
     -1311.558          42.650          33.900
 16  9 14  0 25 30.0000000  0 11G13G15G20G28G24G05G30G18G17G08G21
 106024560.779 8  82616556.788 8  20175793.460    20175788.320        -574.644
      -447.774          49.600          48.700
 108778716.565 8  84762634.581 8  20699896.720    20699892.360        1283.317
       999.988          50.050          49.650
 113438020.994 8  88393249.444 8  21586532.640    21586527.640       -1294.004
     -1008.314          50.050          45.050
 113870849.219 8  88730526.054 8  21668897.420    21668892.480       -1379.285
     -1074.768          49.650          45.200
 119441938.443 8  93071637.196 7  22729042.600    22729040.920        2863.599
      2231.377          46.700          43.150
 123840372.367 8  96498996.287 7  23566035.440    23566031.720       -3578.278
     -2788.269          47.700          42.000
 125169681.360 8  97534839.106 7  23818988.800    23818986.900       -3168.738
     -2469.147          46.200          39.100
 125782317.415 8  98012190.415 6  23935579.620    23935573.960        2278.999
      1775.846          45.700          36.900
 129884756.214 8 101208884.348 7  24716246.000    24716242.620        2827.772
      2203.461          46.850          39.300
 135437279.908 6 105535532.407 5  25772856.460    25772855.460       -2065.170
     -1609.224          37.900          30.650
 135788421.861 6 105809131.150 5  25839677.140    25839671.900       -1694.326
     -1320.256          37.850          27.900
 16  9 14  0 26  0.0000000  0 11G13G15G20G28G24G05G30G18G17G08G21
 106042025.285 8  82630165.485 8  20179116.880    20179111.760        -589.320
      -459.211          49.250          48.850
 108740429.465 8  84732800.489 8  20692610.920    20692606.620        1269.529
       989.244          49.600          49.400
 113477117.654 8  88423714.355 8  21593972.540    21593967.380       -1311.915
     -1022.272          49.400          46.200
 113912458.545 8  88762948.912 8  21676815.500    21676810.300       -1394.249
     -1086.427          49.250          46.150
 119356127.892 8  93004771.844 7  22712713.280    22712711.600        2857.485
      2226.614          46.450          44.300
 123947786.556 8  96582695.634 7  23586475.600    23586471.880       -3582.522
     -2791.579          46.250          43.350
 125264772.538 8  97608936.061 7  23837083.960    23837082.440       -3170.436
     -2470.472          45.650          40.200
 125714125.326 8  97959053.715 6  23922602.960    23922597.320        2267.448
      1766.844          45.250          37.250
 129799994.426 8 101142836.232 7  24700116.360    24700112.900        2823.438
      2200.082          44.950          42.650
 135499441.972 6 105583970.355 6  25784685.960    25784685.120       -2078.588
     -1619.676          37.950          34.400
 135839371.235 7 105848831.912 6  25849372.340    25849367.600       -1702.483
     -1326.611          39.600          35.750
 16  9 14  0 26 30.0000000  0 11G13G15G20G28G24G05G30G18G17G08G21
 106059946.146 8  82644129.787 8  20182527.200    20182521.980        -605.501
      -471.818          49.350          49.200
 108702572.809 8  84703301.797 8  20685407.040    20685402.740        1254.142
       977.254          49.700          49.700
 113516769.619 8  88454611.972 8  21601517.920    21601512.740       -1331.461
     -1037.503          49.500          45.750
 113954535.346 8  88795736.030 8  21684822.580    21684817.340       -1410.831
     -1099.350          48.950          46.250
 119270522.707 8  92938066.513 7  22696423.020    22696421.320        2849.607
      2220.474          46.200          44.350
 124055344.849 8  96666507.274 7  23606943.340    23606939.660       -3588.342
     -2796.113          47.200          42.000
 125359937.123 8  97683090.222 7  23855193.300    23855191.820       -3173.974
     -2473.229          46.200          40.050
 125646300.843 8  97906203.450 7  23909696.400    23909691.080        2254.097
      1756.441          45.450          38.650
 129715378.255 7 101076901.633 7  24684014.380    24684011.540        2817.631
      2195.560          44.250          40.750
 135562026.767 6 105632730.602 5  25796595.460    25796597.640       -2093.648
     -1631.414          36.550          31.800
 135890576.033 7 105888731.752 5  25859116.560    25859111.340       -1711.905
     -1333.948          40.250          29.650
 16  9 14  0 27  0.0000000  0 11G13G15G20G28G24G05G30G18G17G19G21
 106078326.345 8  82658452.013 8  20186024.920    20186019.600        -620.748
      -483.699          49.950          48.750
 108665150.643 8  84674141.671 8  20678285.860    20678281.500        1239.738
       966.030          50.150          49.700
 113556977.732 8  88485942.961 8  21609169.200    21609164.080       -1349.938
     -1051.901          50.150          45.250
 113997080.507 8  88828888.105 8  21692918.660    21692913.700       -1426.307
     -1111.408          49.850          45.800
 119185127.091 8  92871524.491 7  22680172.720    22680170.940        2842.607
      2215.021          46.650          42.850
 124163046.325 8  96750430.484 7  23627438.240    23627434.400       -3592.853
     -2799.625          48.250          40.500
 125455176.562 8  97757302.742 7  23873317.000    23873314.820       -3176.297
     -2475.037          47.050          38.700
 125578848.740 8  97853643.355 6  23896860.840    23896855.380        2241.936
      1746.961          46.350          36.650
 129630913.095 8 101011084.676 7  24667941.120    24667938.760        2812.465
      2191.533          46.000          40.400
 135455824.276 6 105549985.681 4  25776386.000    25776379.560        3471.210
      2704.843          36.050          25.300
 135942036.916 7 105928831.066 5  25868909.360    25868904.600       -1720.083
     -1340.335          40.550          31.850
 16  9 14  0 27 30.0000000  0 11G13G15G20G28G24G05G18G30G17G19G21
 106097175.382 8  82673139.564 8  20189611.820    20189606.440        -635.699
      -495.351          50.050          48.550
 108628173.699 8  84645328.468 8  20671249.320    20671244.940        1225.539
       954.965          50.400          49.250
 113597749.314 9  88517713.018 7  21616927.820    21616922.620       -1368.055
     -1066.018          50.550          44.350
 114040101.370 8  88862410.870 8  21701105.380    21701100.380       -1441.646
     -1123.359          50.400          45.050
 119099950.785 8  92805153.377 7  22663964.140    22663962.360        2835.963
      2209.842          47.750          42.450
 124270898.382 8  96834471.044 7  23647961.840    23647958.060       -3597.206
     -2803.018          48.100          40.950
 125511780.362 8  97801382.281 6  23884098.220    23884092.540        2229.647
      1737.389          45.850          36.500
 125550499.037 8  97831579.965 6  23891456.440    23891453.820       -3178.450
     -2476.715          47.550          37.250
 129546611.209 8 100945394.942 6  24651899.100    24651896.120        2807.690
      2187.812          48.150          37.200
 135351642.095 6 105468804.684 6  25756559.180    25756555.920        3474.789
      2707.624          37.000          33.150
 135993761.011 7 105969135.544 5  25878752.180    25878746.880       -1728.188
     -1346.640          40.950          26.650
 16  9 14  0 28  0.0000000  0 11G13G15G20G28G24G05G18G30G17G19G21
 106116475.551 8  82688178.639 8  20193284.520    20193279.100        -652.007
      -508.059          49.000          49.050
 108591625.300 8  84616849.202 8  20664294.320    20664289.940        1209.957
       942.823          49.150          49.150
 113639065.138 8  88549907.155 8  21624789.980    21624784.980       -1387.376
     -1081.072          49.150          47.450
 114083578.811 8  88896289.398 8  21709379.140    21709373.700       -1458.016
     -1136.115          49.600          48.000
 119014976.633 8  92738939.778 8  22647794.040    22647792.380        2827.882
      2203.546          45.400          45.450
 124378880.130 8  96918612.637 7  23668509.920    23668506.280       -3602.668
     -2807.275          46.750          44.400
 125445079.300 7  97749407.428 7  23871405.400    23871399.920        2216.163
      1726.881          44.400          40.600
 125645885.517 8  97905907.049 7  23909607.860    23909605.280       -3181.650
     -2479.210          45.600          41.200
 129462457.365 8 100879820.443 6  24635885.120    24635880.940        2801.396
      2182.900          47.300          38.400
 135247370.680 6 105387554.262 6  25736717.520    25736711.560        3476.081
      2708.630          37.000          33.050
 136045727.878 7 106009629.151 5  25888641.000    25888636.380       -1737.308
     -1353.755          39.200          30.950
 16  9 14  0 28 30.0000000  0 11G13G15G20G28G24G05G18G30G17G19G21
 106136232.516 8  82703573.676 8  20197044.080    20197038.820        -666.452
      -519.313          49.650          49.100
 108555511.979 8  84588708.954 8  20657422.180    20657417.740        1196.363
       932.231          49.800          49.850
 113680928.719 8  88582528.118 8  21632756.360    21632751.300       -1404.759
     -1094.616          49.550          45.700
 114127516.263 8  88930526.377 8  21717740.340    21717734.980       -1472.402
     -1147.325          50.000          46.300
 118930210.607 8  92672888.341 7  22631663.660    22631662.060        2821.808
      2198.811          46.350          43.650
 124486994.103 8  97002857.286 7  23689083.280    23689079.780       -3606.152
     -2809.991          46.400          42.400
 125378752.946 8  97697724.575 6  23858783.900    23858778.620        2204.477
      1717.775          45.050          37.400
 125741340.096 8  97980287.204 7  23927772.040    23927770.280       -3182.843
     -2480.139          45.100          39.900
 129378460.476 8 100814368.250 6  24619901.040    24619895.980        2797.166
      2179.608          47.150          36.700
 135143018.169 6 105306240.629 5  25716859.900    25716854.660        3479.550
      2711.340          37.950          29.300
 136097940.434 7 106050314.188 3  25898576.680    25898572.100       -1744.690
     -1359.508          38.950          18.350
 16  9 14  0 29  0.0000000  0 11G13G15G20G28G24G05G18G30G17G19G21
 106156447.466 8  82719325.577 8  20200890.820    20200885.680        -681.174
      -530.785          49.050          49.000
 108519836.429 8  84560909.822 8  20650633.440    20650628.800        1182.192
       921.188          49.800          49.800
 113723339.065 8  88615575.127 8  21640826.740    21640821.620       -1422.411
     -1108.374          49.500          45.100
 114171913.183 8  88965121.380 8  21726188.920    21726183.780       -1487.148
     -1158.817          49.650          46.550
 118845654.834 8  92607000.755 7  22615573.240    22615571.540        2815.235
      2193.690          46.250          43.800
 124595238.080 8  97087203.226 7  23709681.480    23709678.080       -3609.900
     -2812.909          46.300          43.450
 125312804.568 8  97646336.239 6  23846234.420    23846228.860        2192.399
      1708.362          45.650          38.200
 125836862.865 8  98054720.465 7  23945949.320    23945948.020       -3184.915
     -2481.756          44.950          40.150
 129294623.913 8 100749041.068 6  24603947.260    24603943.240        2792.285
      2175.809          45.400          38.350
 135038588.050 6 105224866.402 5  25696987.720    25696981.960        3482.353
      2713.506          37.150          30.700
 136150397.304 7 106091189.669 6  25908558.980    25908554.400       -1752.077
     -1365.266          38.550          34.350
 16  9 14  0 29 30.0000000  0 11G13G15G20G28G24G05G18G30G17G19G21
 106177122.165 8  82735435.722 8  20204825.000    20204819.920        -696.896
      -543.036          48.950          49.100
 108484601.645 8  84533454.146 8  20643928.540    20643923.940        1167.050
       909.390          49.650          49.700
 113766296.439 8  88649048.383 8  21649001.240    21648996.200       -1441.107
     -1122.941          49.250          45.250
 114216769.278 8  89000074.187 8  21734724.820    21734719.440       -1502.931
     -1171.114          49.450          46.850
 118761311.567 8  92541278.768 8  22599523.280    22599521.660        2807.696
      2187.817          46.650          44.750
 124703611.434 8  97171649.954 7  23730304.160    23730301.040       -3614.768
     -2816.703          46.750          43.150
 125247237.583 8  97595245.075 6  23833757.520    23833751.760        2179.082
      1697.984          45.700          37.750
 125932454.230 8  98129207.194 7  23964139.820    23964138.680       -3187.500
     -2483.768          45.050          40.750
 129210952.532 7 100683842.624 7  24588024.960    24588021.600        2786.214
      2171.075          43.050          40.850
 134934085.382 7 105143435.856 6  25677101.480    25677096.840        3484.550
      2715.240          39.600          34.100
 136203097.982 7 106132255.093 5  25918587.600    25918583.340       -1760.976
     -1372.193          39.450          30.550
 16  9 14  0 30  0.0000000  0 11G13G15G20G28G24G05G18G30G17G19G21
 106198255.989 8  82751903.629 8  20208846.500    20208841.580        -711.668
      -554.546          49.550          48.950
 108449808.331 8  84506342.469 8  20637307.680    20637303.000        1152.943
       898.396          50.100          49.750
 113809798.419 8  88682946.009 8  21657279.380    21657274.520       -1458.637
     -1136.601          49.600          44.600
 114262081.777 8  89035382.630 8  21743347.520    21743341.880       -1517.520
     -1182.483          49.950          45.650
 118677181.066 8  92475722.560 8  22583513.760    22583512.320        2801.113
      2182.688          46.900          44.650
 124812110.709 8  97256194.829 7  23750951.060    23750947.280       -3618.246
     -2819.412          47.600          40.700
 125182053.395 8  97544452.193 6  23821353.400    23821347.540        2166.946
      1688.529          46.050          37.400
 126028112.392 8  98203745.972 7  23982343.140    23982341.600       -3189.158
     -2485.063          46.650          39.750
 129127448.573 8 100618774.694 7  24572134.480    24572131.880        2781.134
      2167.118          44.600          41.550
 134829512.472 7 105061950.412 6  25657201.940    25657196.500        3486.912
      2717.075          42.600          34.650
 136256039.395 7 106173508.085 6  25928662.100    25928657.460       -1767.984
     -1377.655          39.050          33.650
 16  9 14  0 30 30.0000000  0 11G13G15G20G28G24G05G18G30G17G19G21
 106219848.878 8  82768729.256 8  20212955.460    20212950.620        -727.425
      -566.824          49.650          48.700
 108415457.280 8  84479575.427 8  20630770.900    20630766.220        1137.478
       886.347          50.150          49.650
 113853842.621 8  88717266.163 8  21665660.680    21665655.880       -1477.244
     -1151.099          49.450          44.900
 114307848.990 8  89071045.406 8  21752056.780    21752051.200       -1533.281
     -1194.764          50.000          45.700
 118593263.536 8  92410332.291 7  22567544.920    22567543.380        2793.580
      2176.814          47.600          44.250
 124920732.773 8  97340835.388 7  23771621.100    23771617.280       -3622.879
     -2823.022          46.900          41.700
 125117253.337 8  97493958.646 6  23809022.340    23809016.620        2153.571
      1678.107          46.800          37.450
 126123835.896 8  98278335.668 7  24000558.900    24000557.080       -3191.894
     -2487.190          45.950          38.950
 129044114.551 8 100553839.154 7  24556276.360    24556274.100        2774.907
      2162.267          46.700          42.350
 134724871.001 7 104980411.599 6  25637289.500    25637284.640        3489.081
      2718.764          41.600          32.500
 136309219.020 7 106214946.759 5  25938781.880    25938777.240       -1776.603
     -1384.360          41.700          31.000
 16  9 14  0 31  0.0000000  0 11G13G15G20G28G24G05G18G30G17G19G21
 106241898.444 8  82785910.728 8  20217151.400    20217146.540        -742.589
      -578.641          50.150          48.650
 108381547.333 9  84453152.089 8  20624318.080    20624313.300        1123.010
       875.073          50.650          49.550
 113898424.799 8  88752005.510 8  21674144.300    21674139.580       -1494.996
     -1164.933          49.950          44.800
 114354066.181 8  89107058.795 8  21760851.320    21760846.080       -1547.978
     -1206.216          50.350          45.250
 118509557.230 8  92345106.637 7  22551616.100    22551614.500        2786.844
      2171.568          48.450          44.350
 125029472.140 8  97425567.333 7  23792313.460    23792309.860       -3626.734
     -2826.030          47.400          40.950
 125052836.718 8  97443763.870 6  23796764.220    23796758.540        2140.694
      1668.074          46.200          36.800
 126219621.138 8  98352973.486 7  24018786.220    24018784.060       -3193.664
     -2488.570          46.050          38.750
 128960950.423 8 100489035.978 7  24540450.980    24540448.220        2769.287
      2157.887          48.600          40.050
 134620161.870 7 104898820.012 6  25617364.460    25617359.700        3491.329
      2720.511          42.650          34.000
 136362631.539 7 106256566.831 5  25948946.020    25948940.740       -1784.145
     -1390.253          41.700          31.400
 16  9 14  0 31 30.0000000  0 11G13G15G20G28G24G18G05G30G17G19G21
 106264413.002 8  82803454.524 8  20221435.960    20221430.800        -757.419
      -590.197          49.800          48.750
 108348088.020 8  84427079.891 8  20617951.000    20617946.100        1108.584
       863.832          50.250          49.600
 113943551.515 8  88787169.160 8  21682731.600    21682726.820       -1512.475
     -1178.553          49.800          44.850
 114400739.969 8  89143427.985 8  21769732.800    21769727.660       -1562.564
     -1217.582          49.950          45.400
 118426071.690 8  92280052.984 8  22535729.240    22535727.800        2780.011
      2166.245          47.250          44.650
 124988813.510 8  97393875.651 6  23784580.760    23784575.420        2128.379
      1658.478          46.150          37.650
 125138334.661 8  97510395.276 7  23813029.340    23813025.640       -3629.929
     -2828.520          46.900          41.700
 126315475.257 8  98427664.932 6  24037026.360    24037024.500       -3195.422
     -2489.942          45.450          38.100
 128877967.495 8 100424373.936 7  24524659.940    24524656.740        2763.745
      2153.566          47.850          38.550
 134515396.359 7 104817184.579 5  25597428.600    25597423.200        3493.929
      2722.544          43.700          32.250
 136416282.923 7 106298373.078 5  25959155.640    25959150.120       -1791.296
     -1395.813          39.900          26.700
 16  9 14  0 32  0.0000000  0 11G13G15G20G28G24G18G05G30G17G19G21
 106287381.281 8  82821351.873 8  20225806.700    20225801.480        -773.371
      -602.627          50.150          47.800
 108315069.300 8  84401351.020 8  20611667.720    20611662.880        1093.159
       851.813          50.450          48.850
 113989208.877 8  88822746.311 7  21691419.860    21691415.260       -1530.984
     -1192.976          49.750          44.050
 114447857.153 8  89180142.675 7  21778698.880    21778693.560       -1578.104
     -1229.691          50.150          44.150
 118342795.839 8  92215162.712 7  22519882.300    22519880.880        2772.164
      2160.127          47.650          44.050
 124925174.639 8  97344286.925 6  23772470.740    23772465.420        2114.633
      1647.766          46.700          36.700
 125247305.859 8  97595307.875 7  23833765.960    23833762.380       -3634.401
     -2832.003          47.700          40.950
 126411385.551 8  98502400.171 6  24055277.320    24055275.700       -3198.063
     -2491.999          45.900          36.650
 128795157.777 8 100359846.854 6  24508901.960    24508898.360        2757.205
      2148.469          47.100          35.550
 134410565.001 7 104735497.774 5  25577480.160    25577474.060        3495.545
      2723.805          44.000          31.550
 136470159.799 7 106340354.948 4  25969408.100    25969401.400       -1799.874
     -1402.508          38.550          23.200
 16  9 14  0 32 30.0000000  0 11G13G15G20G28G24G18G05G30G17G19G21
 106310807.388 8  82839605.976 8  20230264.640    20230259.400        -788.908
      -614.733          49.850          48.400
 108282496.367 8  84375969.523 8  20605469.300    20605464.540        1077.948
       839.960          50.050          49.800
 114035399.369 8  88858738.882 8  21700209.660    21700205.100       -1548.935
     -1206.962          49.850          44.900
 114495419.835 8  89217204.518 8  21787749.800    21787744.480       -1593.200
     -1241.454          50.150          45.250
 118259734.347 8  92150439.510 7  22504076.100    22504074.720        2764.792
      2154.384          47.700          44.050
 124861925.686 8  97295002.030 6  23760434.900    23760429.840        2101.417
      1637.469          46.250          37.500
 125356387.040 8  97680306.184 7  23854523.520    23854519.740       -3638.188
     -2834.951          47.350          41.400
 126507354.929 8  98577181.455 6  24073539.640    24073538.480       -3200.282
     -2493.728          45.400          37.250
 128712527.623 8 100295459.742 6  24493177.740    24493174.280        2751.022
      2143.656          44.850          37.700
 134305675.345 7 104653765.580 6  25557520.320    25557514.580        3497.042
      2724.974          42.050          36.750
 136524263.815 7 106382513.955 6  25979703.720    25979699.020       -1807.759
     -1408.639          39.100          32.550
 16  9 14  0 33  0.0000000  0 11G13G15G20G28G24G18G05G30G17G19G21
 106334695.116 8  82858219.770 8  20234810.380    20234805.140        -804.526
      -626.903          50.150          48.850
 108250374.432 8  84350939.437 8  20599356.680    20599352.060        1062.585
       827.988          50.450          49.600
 114082124.998 8  88895148.444 8  21709101.360    21709096.600       -1567.027
     -1221.061          49.900          44.950
 114543429.942 9  89254614.989 8  21796885.900    21796880.620       -1608.438
     -1253.328          50.600          45.450
 118176891.587 8  92085886.768 8  22488311.500    22488310.400        2757.219
      2148.487          47.800          44.650
 124799072.388 8  97246025.436 6  23748474.360    23748469.060        2087.977
      1626.994          46.650          38.400
 125465579.406 8  97765391.132 7  23875302.200    23875298.540       -3642.207
     -2838.085          47.300          41.250
 126603386.262 8  98652011.012 6  24091813.900    24091812.620       -3202.797
     -2495.689          46.750          37.300
 128630084.101 8 100231218.049 6  24477488.700    24477485.860        2744.352
      2138.460          44.650          37.800
 134200734.039 7 104571993.099 6  25537550.620    25537544.980        3498.477
      2726.081          42.250          35.700
 136578596.297 7 106424850.833 5  25990042.860    25990036.880       -1815.195
     -1414.451          42.450          27.300
 16  9 14  0 33 30.0000000  0 11G13G15G20G28G24G18G05G30G17G19G21
 106359040.960 8  82877190.535 8  20239443.220    20239438.000        -818.847
      -638.063          49.700          48.900
 108218700.891 8  84326258.749 8  20593329.420    20593324.800        1048.585
       817.079          50.050          49.950
 114129379.972 8  88931970.487 8  21718093.840    21718088.960       -1583.581
     -1233.960          49.750          44.950
 114591881.847 8  89292369.724 8  21806106.080    21806100.660       -1622.005
     -1263.899          50.000          45.550
 118094265.395 8  92021502.718 8  22472588.440    22472586.840        2750.890
      2143.551          46.950          44.800
 124736613.138 8  97197355.893 6  23736588.940    23736583.400        2075.703
      1617.431          46.450          37.650
 125574876.083 8  97850557.364 7  23896100.480    23896096.480       -3644.617
     -2839.959          46.700          41.050
 126699474.693 8  98726885.075 6  24110099.000    24110097.460       -3203.401
     -2496.158          45.650          37.700
 128547826.256 8 100167121.076 7  24461835.240    24461833.060        2739.160
      2134.412          46.550          39.750
 134095740.175 7 104490179.695 6  25517570.940    25517564.980        3500.928
      2727.995          41.700          36.600
 136633150.943 7 106467360.998 5  26000424.540    26000418.640       -1822.145
     -1419.862          38.900          30.800
 16  9 14  0 34  0.0000000  0 11G13G15G20G28G24G18G05G30G17G19G21
 106383849.354 8  82896521.743 8  20244164.080    20244158.860        -834.678
      -650.398          49.950          48.950
 108187481.553 8  84301931.997 8  20587388.500    20587383.940        1033.023
       804.954          50.200          50.050
 114177166.676 8  88969206.858 8  21727187.420    21727182.520       -1601.715
     -1248.091          50.050          44.700
 114640778.362 8  89330470.915 8  21815410.660    21815405.280       -1637.271
     -1275.795          50.150          45.250
 118011860.299 8  91957290.977 8  22456907.520    22456905.620        2743.288
      2137.624          47.700          44.900
 124674554.015 8  97148998.153 6  23724779.400    23724773.840        2061.779
      1606.584          45.950          36.650
 125684278.901 8  97935806.292 7  23916918.880    23916914.980       -3648.342
     -2842.863          46.900          40.050
 126795623.668 8  98801806.328 6  24128395.580    24128394.040       -3205.996
     -2498.179          46.100          37.650
 128465761.617 8 100103174.622 7  24446219.280    24446216.500        2732.238
      2129.016          48.400          40.950
 133990701.375 7 104408331.271 6  25497582.640    25497576.920        3501.890
      2728.743          41.250          34.850
 136687930.037 7 106510045.920 6  26010848.760    26010843.420       -1829.643
     -1425.693          42.650          34.100
 16  9 14  0 34 30.0000000  0 11G13G15G20G28G24G18G05G30G17G19G21
 106409113.883 8  82916208.379 8  20248971.720    20248966.540        -849.092
      -661.629          49.300          49.200
 108156711.126 8  84277955.033 8  20581533.020    20581528.540        1018.841
       793.901          49.400          49.500
 114225476.955 8  89006851.219 8  21736380.560    21736375.820       -1618.390
     -1261.084          49.000          45.700
 114690110.841 8  89368911.811 8  21824798.320    21824793.140       -1650.997
     -1286.491          49.200          46.300
 117929670.882 8  91893247.317 8  22441267.580    22441265.560        2736.680
      2132.479          48.150          44.800
 124612890.181 8  97100948.421 6  23713045.140    23713039.360        2049.615
      1597.104          44.500          38.150
 125793779.186 8  98021131.176 7  23937756.100    23937752.440       -3650.888
     -2844.849          45.700          41.050
 126891825.495 7  98876768.743 7  24146702.020    24146700.860       -3206.943
     -2498.916          44.300          39.700
 128383885.979 8 100039375.454 7  24430639.140    24430636.140        2726.833
      2124.806          46.950          41.000
 133885613.969 7 104326444.974 6  25477584.980    25477579.180        3504.356
      2730.666          41.700          34.950
 136742924.606 6 106552898.804 5  26021313.980    26021308.080       -1835.840
     -1430.517          38.300          30.650
 16  9 14  0 35  0.0000000  0 11G13G15G20G28G24G18G05G30G17G19G21
 106434846.118 8  82936259.467 8  20253868.380    20253863.200        -867.402
      -675.896          49.600          49.100
 108126402.273 8  84254337.746 8  20575765.500    20575761.040        1000.761
       779.814          50.050          50.150
 114274320.003 8  89044910.725 8  21745675.020    21745670.200       -1638.934
     -1277.092          49.300          44.850
 114739888.935 8  89407699.946 8  21834270.580    21834265.840       -1668.520
     -1300.144          49.850          45.900
 117847709.066 8  91829380.987 8  22425670.820    22425668.460        2726.405
      2124.476          47.750          45.900
 124551634.960 8  97053217.086 6  23701388.560    23701382.900        2033.263
      1584.361          45.800          38.250
 125903385.232 8  98106538.504 7  23958613.380    23958609.700       -3657.050
     -2849.647          46.800          40.900
 126988090.553 8  98951780.415 7  24165020.560    24165019.540       -3211.773
     -2502.683          44.900          39.650
 128302214.372 8  99975735.276 7  24415097.660    24415094.400        2716.947
      2117.105          46.300          40.850
 133780492.208 7 104244531.906 6  25457580.960    25457575.200        3502.744
      2729.412          42.900          32.700
 136798144.227 6 106595931.011 5  26031821.880    26031815.500       -1847.136
     -1439.324          35.200          28.300
 16  9 14  0 35 30.0000000  0 10G13G15G20G28G24G18G05G30G17G19
 106461045.126 8  82956674.262 8  20258853.940    20258848.660        -881.024
      -686.513          49.950          48.650
 108096555.314 8  84231080.365 8  20570085.880    20570081.380         987.142
       769.201          50.300          50.000
 114323692.954 8  89083383.123 8  21755070.280    21755065.420       -1654.575
     -1289.281          49.600          44.600
 114790109.654 8  89446832.981 8  21843827.180    21843822.360       -1681.343
     -1310.136          49.850          45.800
 117765974.861 8  91765691.996 8  22410117.300    22410115.140        2720.793
      2120.101          47.550          45.700
 124490789.400 8  97005804.955 6  23689810.020    23689804.540        2021.355
      1575.083          46.200          37.600
 126013092.826 8  98192024.917 7  23979490.140    23979486.620       -3658.407
     -2850.707          46.650          41.400
 127084416.869 7  99026839.827 7  24183350.880    24183349.920       -3211.813
     -2502.712          44.150          39.200
 128220748.489 8  99912255.396 7  24399595.120    24399591.880        2711.884
      2113.159          45.650          40.150
 133675338.105 8 104162593.555 6  25437570.800    25437565.180        3505.593
      2731.626          44.650          36.350
 16  9 14  0 36  0.0000000  0 10G13G15G20G28G24G18G05G30G17G19
 106487696.362 8  82977441.446 8  20263925.520    20263920.180        -896.227
      -698.358          50.250          48.400
 108067157.137 8  84208172.697 8  20564491.600    20564487.040         972.133
       757.505          50.250          50.150
 114373579.765 8  89122255.963 7  21764563.420    21764558.540       -1671.655
     -1302.589          49.650          44.200
 114840757.137 8  89486298.556 8  21853464.980    21853460.200       -1695.618
     -1321.260          50.150          45.750
 117684454.599 8  91702169.711 8  22394604.500    22394602.320        2713.543
      2114.447          47.900          45.650
 124430340.740 8  96958702.107 6  23678307.020    23678301.520        2007.937
      1564.625          46.400          38.150
 126122885.649 8  98277577.753 7  24000383.000    24000379.440       -3661.366
     -2853.013          46.150          40.700
 127180789.072 8  99101934.985 7  24201690.080    24201689.080       -3213.460
     -2503.998          45.950          39.050
 128139476.754 8  99848926.804 7  24384128.880    24384126.160        2705.714
      2108.349          44.900          39.450
 133570140.503 8 104080621.363 6  25417552.320    25417547.120        3506.910
      2732.655          44.850          36.700
 16  9 14  0 36 30.0000000  0 10G13G15G20G28G24G18G05G30G17G19
 106514809.604 9  82998568.650 8  20269085.020    20269079.740        -911.590
      -710.329          50.600          48.050
 108038218.779 9  84185623.327 8  20558984.820    20558980.200         956.882
       745.621          50.650          50.100
 114423987.568 8  89161534.756 7  21774155.660    21774150.860       -1688.938
     -1316.057          49.850          43.900
 114891838.838 9  89526102.485 8  21863185.560    21863180.860       -1710.076
     -1332.526          50.650          45.200
 117603158.943 8  91638822.466 7  22379134.320    22379132.280        2706.008
      2108.575          49.300          43.750
 124370300.407 8  96911917.455 6  23666881.780    23666876.140        1994.369
      1554.054          47.300          37.550
 126232770.655 8  98363202.401 7  24021293.100    24021289.900       -3664.548
     -2855.492          46.100          39.900
 127277215.739 8  99177072.594 6  24220039.480    24220038.440       -3215.293
     -2505.424          45.850          37.900
 128058411.994 8  99785759.438 7  24368702.800    24368699.820        2698.648
      2102.841          47.850          38.850
 133464911.710 7 103998624.907 6  25397527.760    25397522.240        3508.003
      2733.508          42.700          35.100
 16  9 14  0 37  0.0000000  0 10G13G15G20G28G24G18G05G30G17G19
 106542382.079 8  83020053.687 8  20274331.900    20274326.700        -926.705
      -722.107          50.050          48.600
 108009738.087 8  84163430.574 8  20553565.120    20553560.520         941.577
       733.696          50.200          50.050
 114474911.289 8  89201215.545 7  21783846.040    21783841.400       -1706.126
     -1329.449          49.700          43.550
 114943349.828 8  89566240.919 8  21872987.760    21872982.920       -1724.073
     -1343.434          49.750          45.600
 117522085.407 8  91575648.327 8  22363706.480    22363704.740        2698.697
      2102.881          48.700          44.550
 124310667.318 8  96865450.123 6  23655534.060    23655528.460        1980.918
      1543.572          46.150          38.150
 126342741.779 8  98448894.182 7  24042219.920    24042216.260       -3667.236
     -2857.587          46.150          39.350
 127373692.751 8  99252249.440 6  24238398.840    24238397.220       -3216.956
     -2506.721          45.500          37.600
 127977553.722 8  99722753.013 7  24353316.240    24353313.100        2691.718
      2097.444          47.050          39.600
 133359652.036 7 103916604.456 7  25377497.180    25377493.000        3508.961
      2734.257          41.050          38.500
 16  9 14  0 37 30.0000000  0 10G13G15G20G28G24G18G05G30G17G19
 106570417.546 9  83041899.491 8  20279666.940    20279661.680        -942.186
      -734.170          50.750          47.850
 107981720.560 9  84141598.729 8  20548233.620    20548229.000         926.251
       721.755          51.000          49.650
 114526352.960 8  89241299.944 7  21793635.180    21793630.280       -1723.210
     -1342.762          50.200          42.900
 114995292.083 9  89606715.398 8  21882872.020    21882867.120       -1738.604
     -1354.757          50.700          44.900
 117441239.001 8  91512651.150 7  22348321.820    22348320.000        2691.153
      2097.006          49.200          43.700
 124251447.199 8  96819304.592 6  23644264.800    23644259.360        1967.080
      1532.789          47.300          37.600
 126452800.357 8  98534654.108 7  24063163.500    24063159.860       -3669.952
     -2859.704          47.250          39.350
 127470223.063 8  99327467.799 6  24256768.140    24256766.420       -3218.555
     -2507.966          46.250          36.550
 127896909.225 8  99659913.143 7  24337970.240    24337967.080        2684.604
      2091.898          48.050          38.550
 133254368.359 7 103834565.207 6  25357462.280    25357458.360        3509.895
      2734.984          43.250          35.300
 16  9 14  0 38  0.0000000  0 10G13G15G20G28G24G18G05G30G17G19
 106598912.973 8  83064103.700 8  20285089.480    20285084.200        -957.470
      -746.081          49.350          49.200
 107954164.266 8  84120126.279 8  20542989.900    20542985.220         910.819
       709.728          49.450          49.550
 114578307.473 8  89281783.946 8  21803521.700    21803516.800       -1740.292
     -1356.074          48.150          44.650
 115047660.753 8  89647522.151 8  21892837.540    21892832.740       -1752.673
     -1365.720          49.250          46.400
 117360617.195 8  91449828.974 8  22332979.860    22332978.420        2683.747
      2091.235          46.300          46.150
 124192638.946 8  96773479.977 7  23633073.920    23633068.340        1953.532
      1522.232          45.550          38.900
 126562940.319 8  98620477.476 7  24084122.620    24084118.960       -3672.533
     -2861.715          45.750          41.350
 127566802.658 7  99402724.581 7  24275146.640    24275145.080       -3220.073
     -2509.148          44.050          39.050
 127816477.901 8  99597239.417 7  24322664.920    24322661.500        2677.418
      2086.300          46.300          41.350
 133149060.664 7 103752507.222 6  25337422.840    25337418.640        3510.531
      2735.477          42.450          37.050
 16  9 14  0 38 30.0000000  0 10G13G15G20G28G24G18G05G30G17G19
 106627868.174 8  83086666.190 8  20290599.380    20290594.260        -972.917
      -758.116          49.300          49.100
 107927070.115 8  84099013.960 8  20537834.000    20537829.300         895.467
       697.767          49.400          49.350
 114630772.475 8  89322665.769 8  21813505.440    21813500.600       -1757.590
     -1369.551          48.450          44.850
 115100453.809 8  89688659.610 8  21902883.860    21902878.960       -1766.813
     -1376.736          49.550          45.950
 117280220.547 8  91387182.264 8  22317680.720    22317679.160        2676.140
      2085.308          46.550          46.000
 124134244.017 8  96727977.423 6  23621961.760    23621956.200        1939.525
      1511.318          45.250          38.250
 126673158.876 8  98706362.048 7  24105096.380    24105093.120       -3675.321
     -2863.889          44.950          42.300
 127663430.367 8  99478018.820 7  24293534.000    24293533.000       -3221.885
     -2510.563          44.750          38.550
 127736262.662 8  99534734.091 7  24307400.640    24307397.380        2670.007
      2080.527          45.700          42.200
 133043731.781 7 103670432.772 6  25317379.500    25317374.480        3511.112
      2735.935          40.100          35.300
 16  9 14  0 39  0.0000000  0 10G13G15G20G28G24G18G05G17G30G19
 106657284.326 9  83109587.860 8  20296197.020    20296192.060        -987.621
      -769.575          50.750          47.800
 107900440.659 9  84078263.728 8  20532766.400    20532761.840         880.494
       686.100          50.850          49.600
 114683747.381 9  89363944.894 7  21823586.240    21823581.480       -1773.507
     -1381.955          50.600          42.650
 115153670.213 9  89730126.933 8  21913010.800    21913005.620       -1780.548
     -1387.441          51.000          44.700
 117200051.053 8  91324712.535 7  22302424.820    22302423.540        2668.980
      2079.727          48.050          44.450
 124076265.255 8  96682799.163 6  23610928.680    23610923.200        1926.080
      1500.840          47.850          37.300
 126783454.874 8  98792306.948 7  24126085.160    24126082.060       -3677.221
     -2865.368          47.300          39.850
 127656267.906 8  99472400.543 7  24292178.140    24292174.760        2663.264
      2075.271          48.150          39.750
 127760106.303 8  99553350.673 6  24311930.980    24311929.880       -3222.926
     -2511.372          46.400          35.250
 132938385.959 7 103588345.140 6  25297333.200    25297328.060        3512.510
      2737.019          43.100          34.600
 16  9 14  0 39 30.0000000  0 10G13G15G20G28G24G18G05G17G30G19
 106687157.373 8  83132865.548 8  20301881.640    20301876.740       -1004.275
      -782.552          50.450          48.100
 107874272.952 9  84057873.308 8  20527786.860    20527782.280         863.779
       673.075          50.700          49.900
 114737225.867 8  89405616.439 7  21833763.080    21833758.100       -1791.854
     -1396.249          50.100          43.900
 115207303.930 9  89771919.461 8  21923217.100    21923211.640       -1795.471
     -1399.067          50.700          44.900
 117120105.252 8  91262417.118 8  22287211.580    22287210.140        2660.365
      2073.011          47.650          44.950
 124018700.238 8  96637943.299 6  23599974.320    23599969.060        1910.962
      1489.062          47.200          37.850
 126893821.412 8  98878306.809 7  24147087.200    24147084.000       -3680.860
     -2868.202          47.450          39.600
 127576492.263 8  99410237.719 7  24276997.620    24276993.880        2654.663
      2068.571          47.900          39.700
 127856825.373 8  99628716.157 6  24330336.240    24330334.200       -3225.514
     -2513.389          47.000          36.600
 132833022.398 8 103506243.678 6  25277283.600    25277278.180        3511.666
      2736.362          45.000          35.400
 16  9 14  0 40  0.0000000  0 10G13G15G20G28G24G18G05G17G30G19
 106717495.174 8  83156505.376 8  20307654.700    20307649.780       -1019.040
      -794.058          50.150          48.600
 107848576.357 8  84037849.976 8  20522897.040    20522892.420         848.691
       661.317          50.400          50.300
 114791213.579 8  89447684.768 7  21844036.820    21844031.660       -1808.133
     -1408.936          49.850          43.750
 115261361.489 8  89814042.240 8  21933504.060    21933498.520       -1808.991
     -1409.603          50.400          45.350
 117040392.279 8  91200303.127 8  22272042.760    22272041.160        2653.180
      2067.412          47.750          45.800
 123961559.247 8  96593417.858 7  23589100.680    23589095.540        1897.560
      1478.618          46.300          38.700
 127004263.913 8  98964365.915 7  24168103.960    24168100.640       -3682.735
     -2869.665          46.850          40.800
 127496946.686 8  99348254.165 7  24261860.740    24261856.660        2647.673
      2063.122          47.600          39.850
 127953594.759 8  99704120.833 6  24348751.140    24348748.960       -3226.543
     -2514.189          45.350          37.900
 132727652.095 8 103424136.920 6  25257232.600    25257226.600        3512.388
      2736.923          44.850          34.950
 16  9 14  0 40 30.0000000  0 10G13G15G20G28G24G18G05G17G30G19
 106748289.748 8  83180501.127 8  20313514.640    20313509.800       -1034.631
      -806.207          50.200          48.600
 107823343.826 8  84018188.260 8  20518095.380    20518090.860         832.805
       648.939          50.450          50.250
 114845700.459 8  89490142.054 8  21854405.480    21854400.220       -1825.134
     -1422.183          50.000          44.550
 115315832.712 8  89856487.357 8  21943869.540    21943864.020       -1823.043
     -1420.553          50.300          45.300
 116960904.962 8  91138364.980 8  22256916.880    22256915.100        2645.262
      2061.240          48.400          44.900
 123904835.391 8  96549217.448 6  23578306.460    23578301.440        1883.244
      1467.463          46.200          37.850
 127114771.189 8  99050475.485 7  24189132.980    24189129.460       -3685.161
     -2871.555          47.000          39.650
 127417625.707 8  99286445.657 7  24246766.220    24246762.440        2639.701
      2056.914          46.900          39.900
 128050405.453 8  99779557.686 6  24367173.500    24367171.260       -3228.266
     -2515.534          45.000          36.900
 132622270.312 8 103342021.225 6  25237179.140    25237172.140        3512.449
      2736.971          44.850          32.900
 16  9 14  0 41  0.0000000  0 10G13G15G20G28G24G18G05G17G30G19
 106779550.910 9  83204860.465 8  20319463.400    20319458.640       -1050.170
      -818.314          50.700          47.900
 107798586.413 9  83998896.772 8  20513384.160    20513379.660         817.006
       636.628          50.750          49.800
 114900694.232 8  89532994.328 7  21864870.440    21864865.380       -1842.195
     -1435.478          50.300          43.250
 115370725.391 9  89899260.877 8  21954315.020    21954309.760       -1836.980
     -1431.414          50.600          44.900
 116881653.520 8  91076610.628 8  22241835.880    22241833.960        2637.541
      2055.225          48.700          44.850
 123848540.671 8  96505351.420 6  23567593.860    23567589.100        1869.116
      1456.452          46.450          37.600
 127225350.675 8  99136641.316 7  24210175.520    24210171.580       -3687.544
     -2873.413          46.700          38.600
 127338542.597 8  99224822.462 7  24231716.980    24231713.700        2631.783
      2050.739          48.350          39.950
 128147266.285 8  99855033.588 6  24385604.960    24385603.620       -3230.044
     -2516.920          44.750          35.100
 132516889.777 7 103259906.504 6  25217125.680    25217119.560        3512.390
      2736.930          44.100          37.950
 16  9 14  0 41 30.0000000  0 10G13G15G20G28G24G18G17G05G30G19
 106811269.931 8  83229576.572 8  20325499.320    20325494.540       -1064.706
      -829.642          49.550          49.100
 107774296.940 8  83979969.897 8  20508762.080    20508757.500         802.076
       624.995          49.300          49.250
 114956184.049 8  89576233.136 8  21875429.720    21875424.720       -1857.813
     -1447.646          49.150          44.800
 115426028.985 8  89942354.587 8  21964838.840    21964833.940       -1849.949
     -1441.519          49.450          45.850
 116802630.708 8  91015034.440 8  22226798.360    22226796.240        2630.399
      2049.662          47.700          45.700
 123792668.351 8  96461814.560 7  23556961.520    23556956.580        1855.479
      1445.827          45.250          40.350
 127259691.157 8  99163379.833 7  24216711.920    24216708.920        2624.623
      2045.164          46.550          41.800
 127335991.682 8  99222855.063 7  24231229.660    24231226.420       -3688.891
     -2874.462          44.800          42.550
 128244167.655 7  99930541.112 6  24404044.780    24404043.460       -3230.515
     -2517.282          43.950          36.900
 132411505.044 7 103177788.550 7  25197071.340    25197066.040        3513.114
      2737.490          43.150          39.650
 16  9 14  0 42  0.0000000  0 10G13G15G20G28G24G18G17G05G30G19
 106843447.953 8  83254650.352 8  20331622.700    20331617.660       -1079.917
      -841.495          50.150          48.700
 107750477.433 8  83961409.238 8  20504229.420    20504224.860         786.487
       612.848          50.100          50.000
 115012169.039 8  89619857.784 8  21886083.280    21886078.360       -1874.030
     -1460.285          49.250          44.750
 115481742.744 8  89985767.906 8  21975440.780    21975435.740       -1863.604
     -1452.159          49.950          45.600
 116723838.007 8  90953637.540 8  22211804.740    22211802.580        2622.854
      2043.781          48.000          46.050
 123737221.121 8  96418608.912 6  23546410.400    23546405.420        1841.442
      1434.889          46.350          38.200
 127181075.798 8  99102121.110 7  24201751.940    24201748.380        2616.809
      2039.070          47.700          41.400
 127446692.038 8  99309115.069 7  24252295.260    24252291.940       -3690.724
     -2875.889          46.900          41.500
 128341109.945 8 100006080.514 6  24422492.820    24422490.280       -3231.861
     -2518.337          44.650          37.200
 132306120.583 7 103095670.803 6  25177017.120    25177012.180        3512.839
      2737.276          43.650          36.900
 16  9 14  0 42 30.0000000  0 10G13G15G20G28G24G18G17G05G30G19
 106876086.290 8  83280082.806 8  20337833.660    20337828.640       -1095.260
      -853.449          49.950          49.100
 107727130.151 8  83943216.551 8  20499786.500    20499782.000         770.820
       600.639          49.700          49.700
 115068648.458 8  89663867.710 8  21896830.880    21896826.140       -1890.197
     -1472.882          49.100          44.700
 115537865.935 8  90029500.268 8  21986120.660    21986115.520       -1877.221
     -1462.770          49.650          45.400
 116645277.925 8  90892421.937 8  22196855.320    22196853.060        2615.235
      2037.846          48.050          45.750
 123682202.014 8  96375736.876 6  23535940.800    23535935.300        1827.199
      1423.792          46.300          38.000
 127102700.880 8  99041049.774 7  24186837.700    24186834.140        2608.988
      2032.979          46.550          41.250
 127557450.800 8  99395420.569 7  24273371.960    24273368.740       -3692.465
     -2877.245          46.850          41.950
 128438093.391 7 100081651.999 6  24440948.400    24440945.300       -3232.954
     -2519.187          43.400          37.450
 132200740.926 7 103013556.795 6  25156963.920    25156959.080        3512.980
      2737.389          43.200          36.000
 16  9 14  0 43  0.0000000  0 11G13G15G20G28G24G18G17G05G30G19G10
 106909184.472 8  83305873.576 8  20344132.100    20344127.280       -1110.057
      -864.981          49.950          48.800
 107704256.264 8  83925392.729 8  20495433.620    20495429.240         755.516
       588.713          49.350          49.350
 115125619.771 8  89708260.909 7  21907672.180    21907667.340       -1906.398
     -1485.505          49.200          44.050
 115594396.435 8  90073550.002 8  21996877.980    21996872.920       -1890.212
     -1472.893          50.200          45.200
 116566950.794 8  90831387.815 8  22181950.220    22181948.040        2607.797
      2032.049          48.300          45.250
 123627612.198 8  96333199.360 6  23525552.960    23525547.020        1813.330
      1412.985          46.700          37.850
 127024569.031 8  98980167.844 7  24171969.520    24171965.920        2601.282
      2026.975          46.550          40.000
 127668265.102 8  99481769.359 7  24294459.280    24294455.860       -3693.733
     -2878.234          46.550          40.900
 128535116.890 7 100157254.691 6  24459411.000    24459408.600       -3233.820
     -2519.862          43.300          38.150
 132095368.923 7 102931448.757 6  25136912.340    25136907.480        3513.012
      2737.409          44.200          37.500
 134187361.177 6 104561561.787 6  25535006.000    25535001.540        3176.060
      2474.862          36.850          33.950
 16  9 14  0 43 30.0000000  0 11G13G15G20G28G24G18G17G05G30G19G10
 106942754.040 9  83332031.683 8  20350520.140    20350515.320       -1126.592
      -877.863          50.650          48.600
 107681868.468 9  83907947.695 8  20491173.240    20491168.940         738.378
       575.360          50.600          50.100
 115183091.753 8  89753044.263 7  21918608.820    21918603.800       -1923.898
     -1499.142          49.950          43.200
 115651343.439 9  90117924.301 8  22007714.680    22007709.620       -1904.885
     -1484.325          50.600          44.750
 116488868.463 8  90770544.461 8  22167091.620    22167089.400        2598.852
      2025.079          48.600          44.950
 123573464.846 8  96291006.620 6  23515249.280    23515243.100        1797.614
      1400.741          47.300          37.500
 126946694.182 8  98919486.203 7  24157150.060    24157147.060        2591.850
      2019.626          47.550          40.600
 127779143.221 8  99568167.899 7  24315558.780    24315555.260       -3696.593
     -2880.462          47.150          39.000
 128632190.806 8 100232896.650 6  24477883.260    24477881.660       -3236.542
     -2521.979          45.200          35.850
 131990018.875 8 102849357.839 6  25116865.040    25116859.980        3511.517
      2736.245          45.500          33.850
 134092243.958 7 104487444.469 5  25516905.120    25516902.760        3166.479
      2467.390          38.800          31.350
 16  9 14  0 44  0.0000000  0 11G13G15G20G28G24G18G17G05G30G19G10
 106976772.200 8  83358539.322 8  20356993.620    20356988.520       -1141.438
      -889.433          50.250          48.650
 107659945.251 8  83890864.664 8  20487001.360    20486997.100         722.977
       563.357          49.800          49.700
 115241039.676 8  89798198.460 7  21929635.860    21929631.060       -1939.596
     -1511.373          49.050          43.750
 115708682.896 8  90162604.388 8  22018626.060    22018621.000       -1917.897
     -1494.466          49.950          45.250
 116411009.829 8  90709875.430 8  22152275.480    22152273.560        2591.532
      2019.377          47.900          45.400
 123519739.339 8  96249142.578 6  23505025.820    23505019.400        1783.777
      1389.955          46.600          37.850
 126869057.116 8  98858989.820 7  24142376.300    24142373.480        2583.798
      2013.350          47.550          40.550
 127890060.395 8  99654596.826 7  24336665.420    24336661.940       -3697.886
     -2881.470          46.350          39.700
 128729291.835 7 100308559.749 7  24496360.920    24496359.620       -3237.105
     -2522.423          43.050          38.800
 131884671.815 8 102767269.192 6  25096818.420    25096813.540        3511.399
      2736.152          44.650          37.600
 133997377.632 6 104413522.643 6  25498852.980    25498851.720        3158.170
      2460.907          37.000          33.650
 16  9 14  0 44 30.0000000  0 11G13G15G20G28G24G18G17G05G30G19G10
 107011251.517 8  83385406.320 8  20363554.960    20363549.600       -1158.249
      -902.532          49.950          48.600
 107638500.709 8  83874154.632 8  20482920.660    20482916.340         705.705
       549.900          49.600          49.450
 115299474.561 8  89843732.127 7  21940755.520    21940750.800       -1957.072
     -1524.990          48.850          43.950
 115766425.578 8  90207598.698 8  22029614.240    22029608.900       -1932.571
     -1505.900          49.950          44.800
 116333388.249 8  90649391.080 8  22137504.420    22137502.760        2582.186
      2012.092          47.200          45.850
 123466450.369 8  96207618.715 6  23494885.320    23494878.940        1767.787
      1377.498          46.100          38.000
 126791673.663 8  98798691.040 7  24127650.820    24127647.520        2574.095
      2005.788          47.150          40.100
 128001026.531 8  99741063.948 7  24357781.740    24357778.120       -3700.716
     -2883.675          46.850          40.200
 128826432.106 7 100384253.405 6  24514846.140    24514845.020       -3239.921
     -2524.615          44.450          38.400
 131779343.797 8 102685195.416 6  25076775.280    25076769.660        3509.510
      2734.685          45.000          36.050
 133902777.845 7 104339808.592 5  25480851.240    25480849.460        3147.446
      2452.561          39.300          31.200
 16  9 14  0 45  0.0000000  0 11G13G15G20G28G24G18G17G05G30G19G10
 107046189.093 8  83412630.397 8  20370203.340    20370198.180       -1173.038
      -914.055          50.300          48.250
 107617532.403 8  83857815.684 8  20478930.580    20478926.240         690.152
       537.782          49.850          49.900
 115358390.966 8  89889641.005 7  21951967.020    21951962.100       -1972.692
     -1537.162          49.400          42.950
 115824565.667 8  90252902.669 8  22040678.120    22040672.540       -1945.418
     -1515.909          50.200          44.550
 116256001.249 8  90589089.558 8  22122777.980    22122776.440        2574.757
      2006.305          48.050          45.200
 123413596.131 8  96166433.601 6  23484827.320    23484821.120        1753.674
      1366.501          46.650          36.950
 126714543.203 8  98738589.418 7  24112973.360    24112969.760        2565.935
      1999.432          47.300          40.000
 128112036.338 8  99827565.085 7  24378906.060    24378902.720       -3701.796
     -2884.517          47.150          41.550
 128923607.082 7 100459974.141 6  24533338.000    24533336.220       -3240.848
     -2525.337          44.050          38.200
 131674034.665 7 102603136.350 6  25056735.660    25056729.780        3509.250
      2734.482          43.600          35.300
 133808443.710 7 104266301.532 5  25462900.140    25462898.640        3139.335
      2446.244          39.350          30.800
 16  9 14  0 45 30.0000000  0 11G13G15G20G28G24G18G17G05G30G19G10
 107081586.497 8  83440212.773 8  20376939.200    20376934.200       -1187.905
      -925.642          50.400          48.350
 107597043.832 8  83841850.561 8  20475031.740    20475027.460         674.612
       525.672          50.150          50.100
 115417788.125 8  89935924.505 7  21963270.020    21963264.840       -1988.224
     -1549.265          49.700          42.900
 115883103.622 8  90298516.664 7  22051817.480    22051812.020       -1958.232
     -1525.895          50.200          44.200
 116178851.671 8  90528973.008 8  22108096.820    22108095.380        2567.410
      2000.579          48.450          45.700
 123361180.662 8  96125590.377 6  23474852.780    23474846.980        1739.548
      1355.493          46.850          38.050
 126637670.631 8  98678688.721 7  24098344.900    24098340.880        2557.883
      1993.154          47.300          39.600
 128223088.911 8  99914099.553 7  24400038.880    24400035.400       -3702.836
     -2885.326          47.600          40.850
 129020818.065 8 100535722.909 6  24551836.580    24551835.300       -3241.189
     -2525.603          45.100          37.550
 131568749.619 8 102521096.057 6  25036700.660    25036694.900        3508.983
      2734.274          44.600          35.250
 133714379.933 7 104193005.050 5  25445000.560    25444998.360        3130.479
      2439.331          39.950          31.650
 16  9 14  0 46  0.0000000  0 11G13G15G20G28G24G18G17G05G30G19G10
 107117442.660 8  83468152.630 8  20383762.400    20383757.260       -1203.115
      -937.493          49.850          48.700
 107577035.040 8  83826259.297 8  20471224.220    20471220.000         658.682
       513.258          49.800          49.650
 115477663.066 8  89982580.290 7  21974663.860    21974658.820       -2004.035
     -1561.587          49.100          43.250
 115942036.509 8  90344438.411 8  22063031.940    22063026.340       -1971.290
     -1536.069          49.700          44.900
 116101939.421 8  90469041.406 8  22093460.880    22093459.460        2559.469
      1994.390          47.350          46.400
 123309204.305 8  96085089.305 7  23464961.920    23464956.540        1725.036
      1344.183          46.850          38.700
 126561057.955 8  98618990.567 7  24083765.740    24083761.740        2549.059
      1986.279          47.150          39.750
 128334180.464 8 100000664.370 7  24421179.100    24421175.580       -3703.976
     -2886.217          46.100          42.000
 129118063.389 7 100611498.434 7  24570341.660    24570340.240       -3242.292
     -2526.466          44.250          39.300
 131463491.146 7 102439076.436 6  25016670.420    25016664.280        3507.923
      2733.446          43.000          37.400
 133620588.428 7 104119920.817 6  25427152.660    25427150.560        3121.778
      2432.555          39.950          32.800
 16  9 14  0 46 30.0000000  0 11G13G15G20G28G24G18G17G05G30G19G10
 107153759.503 8  83496451.457 8  20390673.120    20390667.980       -1219.196
      -950.022          49.650          49.100
 107557508.847 8  83811044.073 8  20467508.580    20467504.280         641.780
       500.088          49.450          49.500
 115538015.522 8  90029608.151 7  21986148.640    21986143.560       -2020.639
     -1574.524          48.850          43.850
 116001364.443 8  90390667.962 8  22074321.460    22074316.100       -1985.214
     -1546.920          49.000          45.700
 116025267.384 8  90409296.980 8  22078870.700    22078869.200        2550.752
      1987.600          47.700          46.650
 123257670.350 8  96044932.978 7  23455155.320    23455149.880        1709.402
      1332.001          46.550          39.100
 126484710.206 8  98559498.847 7  24069237.240    24069233.460        2539.559
      1978.879          46.050          41.900
 128445310.748 8 100087259.367 7  24442326.240    24442322.860       -3705.810
     -2887.644          45.800          41.900
 129215343.978 7 100687301.474 7  24588853.660    24588852.540       -3244.174
     -2527.929          43.700          39.050
 131358264.447 7 102357081.653 6  24996646.460    24996640.560        3506.032
      2731.976          43.050          37.900
 133527073.811 7 104047052.284 6  25409357.460    25409354.540        3111.564
      2424.597          41.250          33.250
 16  9 14  0 47  0.0000000  0 11G13G15G20G24G28G18G17G05G30G19G10
 107190534.178 8  83525107.038 8  20397670.960    20397666.000       -1233.834
      -961.431          49.550          48.850
 107538463.920 8  83796203.865 8  20463884.480    20463880.160         626.529
       488.204          49.600          49.450
 115598840.521 8  90077004.254 7  21997723.400    21997718.020       -2035.595
     -1586.178          48.950          44.250
 115948833.579 8  90349738.187 8  22064325.980    22064324.300        2543.628
      1982.048          48.000          46.750
 116061082.771 8  90437201.728 8  22085685.160    22085680.280       -1997.394
     -1556.412          49.100          45.150
 123206578.475 8  96005121.126 7  23445432.840    23445427.320        1695.459
      1321.137          46.150          38.700
 126408627.792 8  98500213.894 7  24054759.140    24054755.720        2531.371
      1972.498          46.200          41.950
 128556474.129 8 100173880.170 7  24463480.020    24463476.540       -3706.179
     -2887.933          46.700          40.450
 129312656.586 7 100763129.402 6  24607371.480    24607370.820       -3244.551
     -2528.227          43.550          37.950
 131253070.187 7 102275112.131 7  24976628.600    24976623.040        3505.844
      2731.826          42.900          39.200
 133433836.276 7 103974399.690 5  25391614.760    25391611.880        3103.061
      2417.966          40.450          32.300
 16  9 14  0 47 30.0000000  0 11G13G15G20G24G28G18G17G05G30G19G10
 107227768.246 8  83554120.581 8  20404756.280    20404751.540       -1248.570
      -972.912          50.300          48.000
 107519902.954 9  83781740.778 8  20460352.540    20460348.120         610.771
       475.925          50.750          50.150
 115660137.430 8  90124768.061 7  22009387.800    22009382.380       -2050.838
     -1598.057          49.800          42.600
 115872640.720 8  90290367.144 8  22049827.160    22049825.160        2536.015
      1976.115          49.050          44.950
 116121190.997 8  90484039.317 7  22097123.260    22097118.760       -2009.829
     -1566.101          49.750          44.450
 123155931.781 8  95965656.159 6  23435794.960    23435789.540        1680.991
      1309.863          47.150          37.600
 126332814.523 8  98441138.656 7  24040332.140    24040329.100        2522.866
      1965.871          47.350          40.650
 128667670.351 8 100260526.592 7  24484640.060    24484636.360       -3706.770
     -2888.392          47.600          39.900
 129410001.774 8 100838982.765 6  24625895.720    24625894.520       -3245.147
     -2528.688          44.800          36.250
 131147913.081 8 102193171.528 6  24956617.480    24956611.940        3504.495
      2730.774          45.050          36.050
 133340879.959 7 103901966.235 5  25373925.560    25373922.200        3093.980
      2410.895          42.800          31.800
 16  9 14  0 48  0.0000000  0 11G13G15G20G24G28G18G17G05G30G19G10
 107265460.484 8  83583491.138 8  20411928.840    20411924.160       -1263.511
      -984.554          50.150          48.050
 107501826.081 8  83767654.909 8  20456912.700    20456908.240         595.108
       463.721          50.200          50.150
 115721902.716 8  90172896.826 7  22021141.300    22021136.260       -2066.115
     -1609.960          49.400          43.400
 115796688.345 8  90231183.496 8  22035374.000    22035371.860        2528.376
      1970.166          49.050          45.400
 116181686.151 8  90531178.395 8  22108635.060    22108630.420       -2022.359
     -1575.863          49.550          44.600
 123105730.932 8  95926538.610 6  23426242.000    23426236.920        1666.595
      1298.646          46.700          38.200
 126257273.341 8  98382275.424 7  24025957.300    24025954.060        2513.990
      1958.954          47.900          40.700
 128778895.581 8 100347195.594 7  24505805.460    24505801.980       -3707.322
     -2888.823          46.350          39.950
 129507377.745 7 100914860.103 6  24644425.940    24644424.560       -3245.744
     -2529.154          44.100          36.100
 131042795.456 8 102111261.660 6  24936614.460    24936609.200        3503.699
      2730.156          46.250          36.550
 133248206.575 7 103829753.221 6  25356290.000    25356286.980        3084.833
      2403.765          41.850          35.000
 16  9 14  0 48 30.0000000  0 11G13G15G24G20G28G18G17G05G30G19G10
 107303611.664 8  83613219.307 8  20419188.760    20419184.040       -1279.642
      -997.124          50.000          48.650
 107484235.207 8  83753947.729 8  20453565.280    20453560.760         578.015
       450.400          50.200          50.300
 115720978.481 8  90172188.813 8  22020966.940    22020964.640        2519.357
      1963.138          49.000          45.350
 115784135.216 8  90221389.669 7  22032983.780    22032979.080       -2082.486
     -1622.717          49.650          43.300
 116242567.281 8  90578618.233 7  22120220.340    22120215.720       -2036.147
     -1586.609          50.000          44.400
 123055978.192 8  95887770.229 6  23416774.420    23416769.060        1650.717
      1286.271          47.050          37.900
 126182007.312 8  98323626.579 7  24011635.120    24011631.260        2503.950
      1951.130          48.300          41.450
 128890147.806 8 100433885.635 7  24526976.020    24526972.520       -3709.250
     -2890.325          47.050          40.200
 129604784.759 8 100990761.640 6  24662962.240    24662960.640       -3247.741
     -2530.708          44.750          38.050
 130937721.699 8 102029385.993 6  24916619.800    24916614.440        3501.153
      2728.171          45.200          36.700
 133155819.899 7 103757763.611 6  25338709.040    25338706.480        3074.684
      2395.854          42.400          36.050
 16  9 14  0 49  0.0000000  0 11G13G15G24G20G28G18G17G05G30G19G10
 107342220.312 8  83643303.953 8  20426535.800    20426531.160       -1293.964
     -1008.283          50.250          48.700
 107467130.030 8  83740619.015 8  20450310.320    20450305.780         562.670
       438.444          50.250          50.200
 115645510.502 8  90113382.616 8  22006605.840    22006603.340        2512.277
      1957.620          48.400          46.400
 115846831.276 8  90270243.721 7  22044914.480    22044909.580       -2096.944
     -1633.982          49.650          43.600
 116303830.837 8  90626356.073 8  22131878.520    22131873.820       -2047.918
     -1595.779          49.650          45.050
 123006674.002 8  95849351.373 7  23407392.080    23407386.760        1636.667
      1275.326          46.400          38.900
 126107018.566 8  98265193.832 7  23997365.560    23997361.540        2495.450
      1944.509          47.850          41.200
 129001423.587 8 100520594.009 7  24548151.180    24548148.020       -3708.979
     -2890.114          46.300          41.200
 129702220.565 7 101066685.633 7  24681503.520    24681502.640       -3248.004
     -2530.911          43.250          38.600
 130832693.872 8 101947546.130 6  24896634.000    24896628.220        3500.420
      2727.600          45.600          36.850
 133063721.185 7 103685998.386 6  25321182.980    25321180.520        3065.608
      2388.787          42.550          35.000
 16  9 14  0 49 30.0000000  0 11G13G15G24G20G28G18G17G05G30G19G10
 107381288.366 8  83673746.585 8  20433970.280    20433965.760       -1310.360
     -1021.060          50.150          48.800
 107450513.666 8  83727671.201 8  20447148.400    20447143.860         545.217
       424.844          50.100          50.200
 115570286.971 8  90054766.879 8  21992291.220    21992288.740        2502.817
      1950.247          48.850          46.050
 115909990.304 8  90319458.526 7  22056933.100    22056928.080       -2113.578
     -1646.944          49.000          43.750
 116365476.796 8  90674391.888 8  22143609.480    22143604.420       -2061.760
     -1606.565          49.650          44.650
 122957822.288 8  95811285.087 7  23398095.860    23398090.740        1620.475
      1262.705          46.950          38.500
 126032311.746 8  98206980.755 7  23983149.500    23983145.180        2484.905
      1936.291          47.300          41.150
 129112722.058 8 100607320.064 7  24569330.500    24569327.300       -3710.830
     -2891.558          46.250          40.150
 129799686.384 7 101142632.950 6  24700050.440    24700049.560       -3250.062
     -2532.518          43.700          38.250
 130727717.252 8 101865746.148 6  24876657.660    24876651.560        3497.808
      2725.563          44.900          37.150
 132971915.153 7 103614461.263 6  25303712.680    25303710.900        3054.821
      2380.384          41.700          35.650
 16  9 14  0 50  0.0000000  0 11G13G15G24G20G28G18G17G05G30G19G10
 107420811.264 8  83704543.640 8  20441491.400    20441486.820       -1325.196
     -1032.620          50.350          48.550
 107434383.279 8  83715102.060 8  20444078.860    20444074.400         529.311
       412.450          50.350          50.400
 115495305.045 8  89996339.423 8  21978022.680    21978020.160        2495.074
      1944.215          49.200          45.900
 115973605.985 8  90369029.166 7  22069038.620    22069033.720       -2128.305
     -1658.420          49.650          42.900
 116427499.410 8  90722721.201 7  22155412.020    22155406.960       -2073.859
     -1615.993          49.750          44.150
 122909420.048 8  95773569.052 7  23388885.240    23388880.280        1605.688
      1251.185          47.400          38.950
 125957885.601 8  98148986.383 7  23968986.640    23968982.720        2476.026
      1929.372          47.550          40.650
 129224037.102 8 100694059.047 7  24590513.160    24590509.800       -3710.877
     -2891.591          47.700          38.800
 129897177.405 7 101218599.928 6  24718602.760    24718602.000       -3250.290
     -2532.696          44.350          37.850
 130622791.008 8 101783985.428 6  24856690.820    24856685.020        3496.641
      2724.654          45.100          36.300
 132880400.634 7 103543151.242 6  25286298.220    25286296.120        3045.243
      2372.915          43.250          34.400
 16  9 14  0 50 30.0000000  0 11G15G13G24G20G28G18G17G05G30G19G10
 107418742.404 8  83702914.362 8  20441102.440    20441098.000         512.653
       399.471          50.100          50.200
 107460791.708 8  83735697.225 8  20449099.600    20449094.880       -1340.865
     -1044.829          50.400          48.750
 115420568.154 8  89938102.885 8  21963800.780    21963798.320        2486.537
      1937.561          48.600          46.900
 116037678.809 8  90418956.019 7  22081231.300    22081226.620       -2143.929
     -1670.594          49.100          43.250
 116489899.315 8  90771344.497 8  22167286.260    22167281.480       -2086.847
     -1626.114          49.700          44.600
 122861471.520 8  95736206.552 7  23379761.060    23379756.020        1590.277
      1239.178          46.950          38.500
 125883745.874 8  98091215.206 7  23954878.100    23954874.480        2466.092
      1921.631          47.150          41.500
 129335368.702 8 100780810.959 7  24611698.980    24611695.500       -3712.023
     -2892.484          46.800          39.150
 129994695.542 7 101294588.063 6  24737160.220    24737158.640       -3251.857
     -2533.913          43.600          34.600
 130517921.202 8 101702268.696 6  24836734.840    24836728.900        3494.017
      2722.611          45.400          37.600
 132789182.919 7 103472072.507 6  25268940.340    25268938.420        3034.972
      2364.915          42.700          36.300
 16  9 14  0 51  0.0000000  0 11G15G13G24G20G28G18G17G05G30G19G10
 107403591.769 8  83691108.674 8  20438219.340    20438214.860         496.648
       386.999          50.250          50.250
 107501229.325 8  83767207.041 8  20456794.780    20456789.900       -1355.694
     -1056.385          50.400          48.650
 115346076.970 8  89880057.839 8  21949625.500    21949623.360        2478.759
      1931.502          48.950          45.800
 116102205.996 8  90469236.924 7  22093510.380    22093506.000       -2158.663
     -1682.075          48.800          43.650
 116552674.200 8  90820260.003 7  22179231.960    22179227.040       -2098.858
     -1635.474          49.600          44.300
 122813978.549 8  95699199.044 6  23370723.520    23370718.280        1575.348
      1227.545          47.400          38.050
 125809895.195 8  98033669.259 7  23940824.600    23940821.000        2456.587
      1914.225          47.550          41.250
 129446713.510 8 100867573.115 7  24632887.020    24632883.540       -3711.781
     -2892.297          46.950          38.700
 130092239.723 7 101370596.487 6  24755722.480    24755720.580       -3251.966
     -2533.998          43.600          34.600
 130413110.951 8 101620598.445 6  24816790.340    24816784.100        3492.677
      2721.569          44.900          37.600
 132698264.554 7 103401227.051 6  25251639.300    25251637.280        3025.464
      2357.509          41.900          35.450
 16  9 14  0 51 30.0000000  0 11G15G13G24G20G28G18G17G05G30G19G10
 107388932.640 8  83679685.974 8  20435429.820    20435425.300         480.245
       374.218          50.100          50.150
 107542123.766 8  83799072.823 8  20464576.700    20464571.760       -1370.893
     -1068.228          50.100          48.750
 115271832.405 8  89822204.950 8  21935497.100    21935495.120        2470.718
      1925.237          48.600          46.150
 116167185.274 8  90519870.113 7  22105875.640    22105871.040       -2173.625
     -1693.733          49.050          43.600
 116615822.117 8  90869466.173 8  22191248.680    22191243.540       -2111.313
     -1645.178          49.300          44.650
 122766942.458 8  95662547.524 7  23361772.900    23361767.560        1559.971
      1215.562          47.150          39.100
 125736335.920 8  97976350.364 7  23926826.740    23926822.860        2446.838
      1906.629          48.400          41.400
 129558069.624 8 100954344.134 7  24654077.580    24654073.800       -3712.240
     -2892.653          46.600          39.550
 130189809.297 7 101446624.681 6  24774289.220    24774288.200       -3252.779
     -2534.634          42.850          35.300
 130308363.859 8 101538977.350 6  24796857.740    24796851.680        3490.249
      2719.675          46.400          38.000
 132607648.341 7 103330617.011 6  25234395.560    25234393.780        3015.439
      2349.694          41.850          34.350
 16  9 14  0 52  0.0000000  0 11G15G13G24G20G28G18G17G05G19G30G10
 107374765.015 9  83668646.262 8  20432733.800    20432729.300         464.321
       361.809          50.850          50.150
 107583473.969 9  83831293.749 8  20472445.260    20472440.380       -1385.569
     -1079.665          50.900          47.950
 115197834.240 8  89764544.057 8  21921415.600    21921413.700        2462.791
      1919.059          49.400          44.800
 116232613.288 8  90570852.952 7  22118326.320    22118321.400       -2188.051
     -1704.975          49.750          42.050
 116679339.996 8  90918960.621 7  22203335.760    22203330.660       -2123.083
     -1654.351          50.350          43.600
 122720363.978 8  95626252.617 6  23352909.260    23352903.860        1545.264
      1204.101          48.650          36.700
 125663071.067 8  97919260.878 7  23912884.960    23912880.780        2437.493
      1899.345          48.850          40.300
 129669433.411 8 101041121.100 6  24675269.500    24675265.800       -3711.871
     -2892.366          47.650          38.100
 130203682.186 8 101457407.246 6  24776937.440    24776931.340        3488.718
      2718.483          46.700          36.750
 130287402.578 7 101522671.338 6  24792860.540    24792859.360       -3253.086
     -2534.877          43.650          34.100
 132517336.153 7 103260243.875 6  25217209.620    25217207.980        3005.533
      2341.972          42.750          33.000
 16  9 14  0 52 30.0000000  0 11G15G13G24G20G28G18G17G05G19G30G10
 107361088.879 8  83657989.529 8  20430131.280    20430126.840         448.174
       349.226          49.800          49.600
 107625278.370 8  83863868.600 8  20480400.340    20480395.540       -1400.523
     -1091.317          49.750          48.850
 115124082.067 8  89707074.847 8  21907381.020    21907379.000        2454.672
      1912.731          48.100          46.450
 116298486.461 8  90622182.675 8  22130861.460    22130856.760       -2202.774
     -1716.449          47.950          44.700
 116743224.655 8  90968740.889 8  22215492.780    22215487.520       -2135.080
     -1663.699          49.300          45.650
 122674243.519 8  95590314.584 7  23344133.000    23344127.460        1530.304
      1192.443          46.800          39.650
 125590102.298 8  97862402.149 7  23898999.400    23898995.460        2427.946
      1891.907          46.750          43.100
 129780801.970 8 101127901.758 7  24696462.060    24696458.360       -3711.758
     -2892.280          45.800          41.750
 130099068.206 8 101375889.836 6  24757030.040    24757023.440        3486.498
      2716.753          45.150          38.000
 130385017.584 7 101598734.969 6  24811436.660    24811434.900       -3253.510
     -2535.202          43.100          35.000
 132427329.445 7 103190108.790 6  25200081.920    25200080.400        2995.351
      2334.038          41.250          36.950
 16  9 14  0 53  0.0000000  0 12G15G13G24G20G28G18G17G05G19G30G10G12
 107347910.154 9  83647720.392 8  20427623.440    20427618.960         430.375
       335.357          50.900          50.250
 107667542.174 9  83896801.410 8  20488442.720    20488438.040       -1417.079
     -1104.218          50.900          47.600
 115050581.995 8  89649802.078 8  21893394.320    21893392.200        2445.142
      1905.307          49.050          45.450
 116364807.875 8  90673861.689 7  22143482.020    22143477.280       -2218.801
     -1728.936          49.650          42.450
 116807479.390 8  91018809.506 7  22227720.140    22227714.880       -2148.629
     -1674.257          50.200          44.050
 122628587.603 8  95554738.554 6  23335445.080    23335439.340        1513.552
      1179.392          48.400          36.850
 125517437.003 8  97805779.871 7  23885171.320    23885167.460        2416.517
      1883.000          48.050          40.650
 129892177.493 8 101214687.866 6  24717656.240    24717652.480       -3713.301
     -2893.481          47.800          38.200
 129994530.560 8 101294431.970 6  24737137.000    24737131.700        3482.626
      2713.736          46.550          37.400
 130482658.792 7 101674818.957 5  24830017.380    24830016.080       -3255.716
     -2536.924          43.550          31.200
 132337636.008 7 103120217.827 5  25183013.780    25183012.060        2983.990
      2325.190          42.950          32.250
 133199885.767 6                  25347095.800                        4046.057
                        37.900
 16  9 14  0 53 30.0000000  0 12G15G13G24G20G28G18G17G19G05G30G10G12
 107335226.538 8  83637837.051 8  20425209.800    20425205.340         415.454
       323.731          50.200          49.950
 107710261.632 8  83930089.285 8  20496571.880    20496567.240       -1430.721
     -1114.847          50.250          47.900
 114977331.659 8  89592723.911 8  21879455.080    21879453.200        2438.396
      1900.051          48.300          46.150
 116431570.920 8  90725884.836 7  22156186.700    22156181.680       -2231.854
     -1739.106          49.000          42.600
 116872098.751 8  91069162.264 7  22240016.820    22240011.440       -2159.224
     -1682.510          49.600          44.150
 122583394.232 8  95519522.938 6  23326844.940    23326839.080        1499.549
      1168.480          47.400          36.650
 125445074.833 8  97749393.814 7  23871400.900    23871397.240        2407.818
      1876.226          46.850          41.300
 129890069.150 7 101213033.445 6  24717258.180    24717252.620        3481.800
      2713.094          44.100          36.550
 130003553.682 8 101301474.531 7  24738850.500    24738846.400       -3711.573
     -2892.135          46.700          40.150
 130580322.047 7 101750920.154 6  24848601.620    24848600.360       -3254.930
     -2536.310          41.300          33.800
 132248255.351 7 103050570.540 6  25166005.460    25166003.520        2974.930
      2318.128          42.750          33.450
 133078499.057 6                  25323995.920                        4047.456
                        36.950
 16  9 14  0 54  0.0000000  0 12G15G13G24G20G28G18G17G19G05G30G10G12
 107323035.407 9  83628337.468 8  20422890.020    20422885.520         398.145
       310.243          50.700          50.450
 107753432.728 9  83963729.108 8  20504787.000    20504782.300       -1446.530
     -1127.166          50.600          47.550
 114904328.580 8  89535838.415 8  21865562.920    21865561.220        2429.357
      1893.005          48.950          45.750
 116498770.051 8  90778247.785 7  22168974.240    22168969.260       -2247.033
     -1750.936          48.950          41.950
 116937077.328 8  91119794.924 7  22252381.720    22252376.380       -2171.980
     -1692.453          49.550          43.500
 122538661.662 8  95484666.395 6  23318332.520    23318326.680        1483.270
      1155.795          47.550          38.000
 125373015.196 8  97693243.478 7  23857688.380    23857684.680        2396.882
      1867.701          47.900          39.350
 129785683.953 8 101131694.372 6  24697393.960    24697388.980        3478.106
      2710.212          44.750          37.550
 130114925.036 8 101388257.368 7  24760043.800    24760039.860       -3712.320
     -2892.719          46.850          38.650
 130678003.208 7 101827035.323 5  24867189.440    24867187.620       -3256.566
     -2537.587          41.050          28.900
 132159186.589 7 102981166.311 6  25149056.420    25149054.440        2963.733
      2309.402          42.900          32.500
 132957113.618 6 103602932.186 4  25300896.620    25300890.520        4046.329
      3152.985          37.650          25.800
 16  9 14  0 54 30.0000000  0 12G15G13G24G20G28G18G17G19G05G30G10G12
 107311340.271 9  83619224.361 8  20420664.700    20420660.100         380.887
       296.795          51.350          50.100
 107797058.078 9  83997722.861 8  20513088.580    20513083.860       -1462.319
     -1139.471          51.000          47.350
 114831575.518 8  89479147.723 8  21851718.500    21851716.920        2420.188
      1885.860          49.750          45.550
 116566405.426 8  90830950.649 7  22181844.620    22181840.240       -2262.287
     -1762.823          50.000          42.000
 117002415.404 8  91170707.696 7  22264815.040    22264809.480       -2184.399
     -1702.130          50.150          43.150
 122494393.987 8  95450172.094 6  23309908.620    23309902.820        1467.207
      1143.279          48.600          37.100
 125301263.494 8  97637333.092 7  23844034.420    23844030.680        2385.877
      1859.126          48.800          38.900
 129681380.811 8 101050419.200 6  24677545.280    24677540.760        3474.973
      2707.771          46.050          35.700
 130226291.532 8 101475036.468 6  24781236.400    24781232.040       -3712.713
     -2893.023          47.600          37.550
 130775703.882 7 101903165.638 5  24885781.440    24885779.500       -3257.459
     -2538.281          42.550          30.600
 132070435.049 7 102912009.222 5  25132167.840    25132165.100        2952.572
      2300.703          44.450          32.150
 132835740.045 7 103508355.474 5  25277800.160    25277795.460        4045.258
      3152.159          40.600          31.400
 16  9 14  0 55  0.0000000  0 12G15G13G24G20G28G18G17G19G05G30G10G12
 107300143.033 9  83610499.248 9  20418534.000    20418529.320         364.511
       284.035          50.900          50.600
 107841138.314 9  84032071.086 8  20521476.920    20521472.140       -1477.372
     -1151.200          51.050          47.700
 114759074.607 8  89422653.532 8  21837922.120    21837920.500        2412.156
      1879.604          49.100          46.300
 116634475.312 8  90883992.104 7  22194797.980    22194793.480       -2276.648
     -1774.012          49.400          41.950
 117068112.192 8  91221899.998 7  22277316.620    22277311.440       -2196.214
     -1711.336          49.750          43.750
 122450593.416 8  95416041.773 7  23301573.660    23301567.980        1451.701
      1131.196          47.950          39.000
 125229823.919 8  97581665.895 7  23830440.160    23830435.900        2375.692
      1851.188          49.100          40.100
 129577164.124 8 100969211.413 6  24657713.520    24657709.000        3471.774
      2705.282          45.950          38.100
 130337650.902 8 101561809.992 6  24802427.400    24802423.460       -3712.206
     -2892.629          46.600          37.850
 130873424.433 7 101979311.484 5  24904377.700    24904375.100       -3258.559
     -2539.138          41.600          28.700
 131982004.276 8 102843102.155 6  25115340.420    25115337.780        2942.096
      2292.544          44.700          33.700
 132714381.094 7 103413790.037 5  25254706.520    25254702.200        4044.291
      3151.398          40.700          27.900
 16  9 14  0 55 30.0000000  0 12G15G13G24G20G28G18G17G19G05G30G10G12
 107289446.873 8  83602164.579 8  20416498.500    20416493.760         347.999
       271.167          50.300          50.250
 107885675.141 8  84066775.098 8  20529952.180    20529947.340       -1492.339
     -1162.862          50.350          48.350
 114686829.339 8  89366358.540 8  21824174.320    21824172.700        2403.604
      1872.940          48.350          46.900
 116702979.744 8  90937372.168 7  22207834.040    22207829.080       -2290.927
     -1785.139          48.900          42.350
 117134167.288 8  91273371.494 7  22289886.480    22289881.280       -2207.982
     -1720.506          49.050          43.750
 122407263.802 8  95382278.447 7  23293328.180    23293322.860        1436.250
      1119.155          47.250          39.000
 125158700.963 8  97526245.422 7  23816906.180    23816901.700        2365.252
      1843.055          48.350          41.400
 129473039.861 8 100888075.677 7  24637899.500    24637895.360        3469.059
      2703.164          44.950          39.600
 130449004.034 8 101648578.648 7  24823617.040    24823613.040       -3712.027
     -2892.490          45.400          39.800
 130971166.471 6 102055474.052 5  24922977.420    24922974.840       -3258.432
     -2539.043          38.000          32.300
 131893899.544 7 102774449.115 6  25098574.500    25098572.260        2931.093
      2283.970          42.950          34.000
 132593041.542 7 103319239.784 6  25231616.260    25231612.180        4043.919
      3151.110          38.600          33.700
 16  9 14  0 56  0.0000000  0 12G15G13G24G20G28G18G17G19G05G30G10G12
 107279246.500 8  83594216.223 8  20414557.380    20414552.620         331.271
       258.133          49.750          49.550
 107930662.073 8  84101829.835 8  20538512.960    20538508.100       -1507.562
     -1174.725          49.850          48.850
 114614833.380 8  89310257.797 8  21810473.860    21810472.420        2395.106
      1866.315          47.900          46.950
 116771909.737 8  90991083.849 7  22220951.080    22220945.760       -2305.168
     -1796.235          48.000          43.450
 117200573.240 8  91325116.402 8  22302523.220    22302517.700       -2219.794
     -1729.709          48.400          45.350
 122364400.049 8  95348878.126 7  23285171.460    23285166.280        1420.592
      1106.954          46.750          40.050
 125087891.484 8  97471069.228 7  23803431.580    23803427.400        2354.586
      1834.744          47.550          42.100
 129369004.849 7 100807009.426 7  24618102.360    24618097.120        3465.816
      2700.637          44.000          38.700
 130560341.853 8 101735335.374 7  24844803.740    24844799.840       -3711.443
     -2892.034          44.600          41.050
 131068922.827 6 102131647.863 5  24941579.520    24941578.440       -3259.150
     -2539.592          35.500          32.150
 131806117.049 7 102706047.154 6  25081870.000    25081867.500        2920.218
      2275.497          42.650          36.700
 132471717.208 7 103224701.344 6  25208528.820    25208524.160        4043.744
      3150.972          38.700          34.550
 16  9 14  0 56 30.0000000  0 12G15G13G24G20G28G18G17G19G05G30G10G12
 107269547.136 8  83586658.280 8  20412711.660    20412706.940         314.961
       245.425          50.300          50.350
 107976103.453 8  84137238.694 8  20547160.180    20547155.340       -1522.319
     -1186.224          50.350          48.350
 114543093.191 8  89254356.382 8  21796822.140    21796820.540        2387.015
      1860.010          47.850          47.050
 116841267.818 8  91045129.089 7  22234149.520    22234144.440       -2318.962
     -1806.983          48.500          42.800
 117267332.481 8  91377136.589 7  22315226.980    22315221.780       -2231.190
     -1738.590          49.000          44.250
 122322008.742 8  95315845.935 7  23277104.840    23277099.700        1405.123
      1094.901          47.300          39.750
 125017403.336 8  97416143.422 7  23790018.180    23790013.940        2344.225
      1826.670          47.450          41.550
 129265067.452 7 100726019.265 7  24598323.880    24598318.440        3463.116
      2698.532          44.100          40.100
 130671666.818 8 101822082.086 7  24865988.160    24865984.360       -3710.609
     -2891.384          45.850          39.400
 131166697.873 6 102207836.177 6  24960184.880    24960183.000       -3259.618
     -2539.949          36.300          33.450
 131718664.359 7 102637902.181 6  25065228.080    25065225.860        2909.554
      2267.187          43.700          36.950
 132350415.417 7 103130180.535 6  25185445.800    25185441.260        4042.763
      3150.208          40.550          33.750
 16  9 14  0 57  0.0000000  0 12G15G13G24G20G28G18G17G19G05G30G10G12
 107260347.682 8  83579489.882 8  20410960.980    20410956.460         297.563
       231.867          50.300          50.200
 108021996.303 9  84172999.353 8  20555893.420    20555888.480       -1537.978
     -1198.424          50.550          48.400
 114471606.621 8  89198652.589 8  21783218.820    21783217.080        2378.046
      1853.023          48.050          47.600
 116911048.425 8  91099503.573 7  22247428.440    22247423.400       -2333.784
     -1818.534          48.650          42.350
 117334439.922 8  91429428.110 7  22327997.200    22327992.120       -2243.387
     -1748.092          49.250          44.300
 122280088.288 8  95283180.657 7  23269127.720    23269122.500        1388.807
      1082.186          48.000          39.800
 124947236.436 8  97361467.944 7  23776665.840    23776661.800        2332.815
      1817.778          47.750          42.250
 129161228.322 8 100645105.691 7  24578564.080    24578558.720        3458.841
      2695.205          45.000          38.550
 130782973.480 8 101908814.556 7  24887169.200    24887165.000       -3710.589
     -2891.368          44.950          38.650
 131264487.887 6 102284036.051 6  24978794.100    24978793.180       -3260.504
     -2540.652          36.650          34.250
 131631541.413 7 102570014.195 6  25048648.760    25048647.460        2897.896
      2258.101          42.400          37.800
 132229135.120 7 103035676.386 6  25162366.900    25162362.460        4041.700
      3149.376          41.650          36.100
 16  9 14  0 57 30.0000000  0 12G15G13G24G20G28G18G17G19G05G30G10G12
 107251649.560 8  83572712.117 8  20409305.720    20409301.220         281.496
       219.347          49.650          49.450
 108068341.089 8  84209112.169 8  20564712.500    20564707.720       -1552.500
     -1209.741          49.700          49.000
 114400375.235 8  89143147.632 8  21769664.040    21769662.080        2370.139
      1846.862          48.550          46.950
 116981249.826 8  91154205.950 7  22260787.240    22260782.220       -2347.090
     -1828.903          47.700          43.000
 117401894.627 8  91481990.224 8  22340833.300    22340828.460       -2254.306
     -1756.602          48.350          44.550
 122238640.865 8  95250883.963 7  23261240.780    23261235.220        1373.459
      1070.229          47.600          39.800
 124877394.550 8  97307045.743 7  23763375.440    23763371.800        2322.447
      1809.701          47.500          42.900
 129057491.767 8 100564272.016 7  24558823.720    24558818.200        3456.128
      2693.085          45.400          38.500
 130894260.288 8 101995531.531 7  24908346.420    24908342.460       -3709.252
     -2890.326          45.150          39.250
 131362292.941 6 102360247.815 4  24997406.420    24997404.880       -3260.483
     -2540.631          36.050          23.200
 131544751.643 7 102502385.760 6  25032133.080    25032131.140        2887.380
      2249.902          42.200          37.000
 132107879.536 7 102941191.521 6  25139292.740    25139288.940        4041.367
      3149.114          41.600          34.500
 16  9 14  0 58  0.0000000  0 12G15G13G24G20G28G18G17G19G05G10G30G12
 107243455.817 9  83566327.374 9  20407746.520    20407741.960         264.571
       206.160          50.600          50.600
 108115139.936 8  84245578.778 8  20573617.760    20573613.480       -1567.557
     -1221.473          50.400          48.250
 114329402.289 8  89087844.036 8  21756158.340    21756156.360        2361.198
      1839.894          48.950          46.950
 117051871.959 8  91209236.158 7  22274226.100    22274221.160       -2361.189
     -1839.889          48.400          41.950
 117469696.631 8  91534822.957 7  22353735.520    22353730.880       -2265.992
     -1765.708          49.250          43.900
 122197670.065 8  95218958.687 7  23253444.260    23253438.840        1357.585
      1057.859          48.150          39.600
 124807882.513 8  97252880.547 7  23750147.940    23750143.980        2311.238
      1800.966          48.650          42.450
 128953863.508 8 100483522.707 6  24539103.940    24539098.300        3452.046
      2689.906          46.200          38.000
 131005526.875 8 102082232.786 6  24929519.920    24929515.660       -3708.768
     -2889.948          46.150          37.900
 131458300.082 7 102435020.906 6  25015682.020    25015680.320        2875.799
      2240.883          43.350          35.850
 131460114.896 6                  25016021.620                       -3261.300
                        36.350
 131986652.886 7 102846729.206 6  25116224.040    25116220.380        4040.216
      3148.218          42.750          34.700
 16  9 14  0 58 30.0000000  0 12G15G13G24G20G28G18G17G19G05G10G30G12
 107235760.848 8  83560331.295 8  20406282.220    20406277.620         247.684
       193.001          50.300          49.550
 108162385.726 8  84282393.661 8  20582608.200    20582604.040       -1582.866
     -1233.403          50.300          48.600
 114258681.987 8  89032737.323 8  21742700.680    21742698.760        2352.640
      1833.227          48.700          46.950
 117122905.805 8  91264587.191 7  22287743.300    22287738.540       -2375.098
     -1850.727          48.250          42.850
 117537837.746 8  91587919.925 8  22366702.320    22366697.520       -2277.471
     -1774.653          48.400          44.750
 122157171.017 8  95187400.979 7  23245737.480    23245731.880        1341.556
      1045.368          47.700          39.250
 124738696.502 8  97198969.386 7  23736982.280    23736978.420        2300.217
      1792.377          47.300          42.900
 128850340.544 8 100402855.455 7  24519404.420    24519398.740        3448.487
      2687.134          46.050          39.450
 131116764.407 8 102168911.354 7  24950687.560    24950683.660       -3707.825
     -2889.216          45.200          38.850
 131372183.094 7 102367916.796 6  24999294.860    24999292.360        2864.392
      2231.997          42.400          37.100
 131557946.498 6 102512642.033 5  25034638.100    25034636.740       -3261.297
     -2541.267          34.200          29.650
 131865451.486 7 102752286.594 6  25093160.100    25093156.100        4039.285
      3147.497          42.250          36.950
 16  9 14  0 59  0.0000000  0 11G15G13G24G20G28G18G17G19G05G10G12
 107228571.867 8  83554729.490 8  20404914.240    20404909.680         230.555
       179.653          50.000          50.050
 108210084.551 8  84319561.571 8  20591684.860    20591680.620       -1598.025
     -1245.215          49.750          48.400
 114188221.547 8  88977833.113 8  21729292.520    21729290.540        2343.818
      1826.353          48.850          46.900
 117194355.314 8  91320262.121 7  22301339.740    22301334.980       -2389.111
     -1861.645          48.600          41.850
 117606322.280 8  91641284.501 7  22379734.460    22379729.720       -2289.122
     -1783.731          48.900          43.650
 122117151.891 8  95156217.261 7  23238121.980    23238116.200        1325.428
      1032.802          47.300          38.700
 124669846.265 8  97145319.892 7  23723880.100    23723876.340        2288.743
      1783.437          46.900          42.250
 128746932.889 7 100322278.092 7  24499726.140    24499720.760        3444.391
      2683.940          44.200          39.450
 131227977.206 7 102255570.688 7  24971850.540    24971846.920       -3707.127
     -2888.670          44.450          39.250
 131286409.725 7 102301080.406 6  24982972.740    24982970.240        2852.795
      2222.955          41.900          37.800
 131744283.887 7 102657870.293 6  25070102.760    25070098.300        4037.825
      3146.358          42.750          37.950
 16  9 14  0 59 30.0000000  0 12G15G13G24G20G28G18G17G19G10G05G12G30
 107221887.733 8  83549521.064 8  20403642.340    20403637.780         214.507
       167.147          50.400          50.400
 108258234.173 8  84357080.749 8  20600847.400    20600843.020       -1612.380
     -1256.400          50.000          48.300
 114118020.495 8  88923131.009 8  21715933.660    21715931.680        2335.895
      1820.177          48.350          47.150
 117266215.959 8  91376257.412 7  22315014.540    22315009.620       -2401.996
     -1871.687          48.250          42.000
 117675145.874 8  91694913.270 7  22392831.240    22392826.340       -2299.661
     -1791.944          48.350          44.350
 122077611.635 8  95125406.668 7  23230597.600    23230591.980        1310.164
      1020.907          47.300          39.550
 124601332.784 8  97091932.768 7  23710842.400    23710838.020        2278.279
      1775.281          47.850          41.750
 128643641.877 7 100241791.638 7  24480070.440    24480064.960        3441.180
      2681.440          43.750          38.750
 131200980.815 7 102234512.441 6  24966716.180    24966714.060        2841.961
      2214.516          42.200          37.400
 131339161.187 8 102342207.529 7  24993008.120    24993004.280       -3705.589
     -2887.474          44.650          38.700
 131623150.004 7 102563480.273 6  25047051.720    25047047.400        4037.359
      3145.995          44.150          36.800
 131753619.455 6 102665145.871 5  25071879.240    25071879.200       -3262.111
     -2541.899          36.200          30.150
                            4  1
other post-header comments skipped                          COMMENT
 16  9 14  1  0  0.0000000  0 12G15G13G24G20G28G18G17G19G10G05G12G30
 107215706.350 8  83544704.398 8  20402466.100    20402461.480         197.759
       154.098          50.300          50.250
 108306830.976 8  84394948.366 8  20610095.140    20610090.680       -1627.313
     -1268.034          50.200          48.500
 114048075.800 8  88868628.657 8  21702623.560    21702621.640        2327.232
      1813.430          48.350          47.250
 117338481.985 8  91432568.574 7  22328766.280    22328761.560       -2415.507
     -1882.214          47.700          42.950
 117744303.718 8  91748802.492 7  22405991.560    22405986.600       -2310.724
     -1800.563          48.700          44.300
 122038548.397 8  95094967.771 7  23223164.020    23223158.580        1294.228
      1008.489          47.300          39.750
 124533155.139 8  97038807.336 7  23697868.460    23697864.440        2267.014
      1766.505          47.400          42.450
 128540467.974 8 100161396.393 7  24460437.200    24460431.700        3437.379
      2678.475          45.650          38.900
 131115895.892 7 102168212.488 6  24950524.900    24950522.820        2830.620
      2205.677          42.550          36.700
 131450310.384 8 102428817.285 7  25014159.160    25014155.340       -3704.117
     -2886.323          44.900          39.250
 131502049.306 7 102469116.113 6  25024007.040    25024002.920        4036.011
      3144.947          43.800          37.250
 131851488.368 6 102741407.291 5  25090502.500    25090503.060       -3263.080
     -2542.662          32.950          32.100
 16  9 14  1  0 30.0000000  0 12G15G13G24G20G28G18G17G19G10G12G05G30
 107210034.362 9  83540284.663 9  20401386.700    20401382.120         181.109
       141.124          50.700          50.650
 108355880.250 9  84433168.566 8  20619429.220    20619424.460       -1641.925
     -1279.422          50.800          47.850
 113978394.505 8  88814331.552 8  21689363.580    21689361.820        2318.904
      1806.938          48.950          46.700
 117411156.254 8  91489197.842 7  22342595.660    22342590.960       -2428.732
     -1892.520          48.600          41.700
 117813799.531 8  91802955.067 7  22419216.260    22419211.180       -2321.542
     -1808.993          48.900          43.400
 121999969.251 8  95064906.080 6  23215822.600    23215817.040        1278.412
       996.165          47.800          37.850
 124465322.245 8  96985950.540 7  23684960.320    23684956.700        2255.798
      1757.766          48.400          42.150
 128437420.749 8 100081099.856 6  24440828.080    24440822.460        3433.266
      2675.271          46.750          37.550
 131031163.411 7 102102187.172 6  24934400.520    24934398.760        2818.935
      2196.571          42.950          36.200
 131380989.884 8 102374784.078 6  25000969.960    25000966.080        4035.179
      3144.296          45.050          36.300
 131561428.285 8 102515402.677 6  25035304.280    25035299.940       -3702.845
     -2885.332          45.400          38.050
 131949371.431 6                  25109128.320                       -3262.252
                        33.050
 16  9 14  1  1  0.0000000  0 11G15G13G24G20G28G18G17G19G10G12G05
 107204865.438 9  83536256.922 9  20400403.060    20400398.540         164.537
       128.211          50.600          50.600
 108405374.846 9  84471735.759 8  20628847.880    20628843.060       -1656.534
     -1290.806          50.650          48.100
 113908970.691 8  88760235.096 8  21676152.660    21676151.000        2310.481
      1800.376          48.800          47.850
 117484229.795 8  91546138.247 7  22356501.100    22356496.200       -2441.767
     -1902.676          48.400          41.650
 117883624.364 8  91857364.037 7  22432503.420    22432498.300       -2332.226
     -1817.319          49.000          43.650
 121961868.827 8  95035217.441 7  23208572.300    23208566.980        1262.705
       983.927          47.700          38.850
 124397829.925 8  96933359.150 7  23672116.800    23672113.400        2244.646
      1749.076          46.850          43.200
 128334496.641 8 100000899.244 6  24421242.480    24421236.800        3429.377
      2672.242          46.350          38.250
 130946779.231 7 102036433.227 6  24918342.040    24918341.440        2807.751
      2187.859          41.500          36.950
 131259966.862 8 102280480.412 6  24977940.000    24977935.860        4034.151
      3143.493          46.150          36.850
 131672505.326 8 102601956.192 7  25056441.440    25056437.360       -3701.178
     -2884.034          45.400          38.900
 16  9 14  1  1 30.0000000  0 11G15G13G24G20G28G18G17G19G10G12G05
 107200205.879 9  83532626.097 9  20399516.480    20399511.960         147.376
       114.839          50.900          50.900
 108455319.759 9  84510653.863 8  20638352.160    20638347.340       -1671.701
     -1302.624          50.850          47.950
 113839810.110 8  88706343.755 8  21662991.900    21662990.260        2301.323
      1793.240          49.600          47.000
 117557705.017 8  91603391.657 7  22370483.040    22370477.960       -2455.362
     -1913.269          49.150          41.550
 117953781.323 8  91912031.795 7  22445854.040    22445848.580       -2343.622
     -1826.197          49.650          42.950
 121924253.638 8  95005906.906 7  23201414.640    23201409.020        1246.169
       971.040          48.900          38.600
 124330686.426 8  96881039.575 7  23659339.640    23659336.180        2232.756
      1739.812          47.850          42.350
 128231704.227 8  99920801.259 6  24401681.620    24401675.820        3424.687
      2668.589          45.900          37.800
 130862751.245 7 101970956.881 6  24902351.920    24902351.100        2795.412
      2178.245          42.100          37.150
 131138987.847 8 102186211.048 6  24954918.440    24954914.100        4032.159
      3141.941          46.450          37.550
 131783544.866 8 102688480.493 6  25077571.440    25077567.720       -3700.210
     -2883.282          45.300          37.400
 16  9 14  1  2  0.0000000  0 12G15G13G24G20G28G18G17G19G10G12G05G30
 107196052.667 9  83529389.828 9  20398726.160    20398721.660         129.841
       101.175          50.650          50.650
 108505710.660 9  84549919.491 8  20647941.360    20647936.380       -1687.220
     -1314.717          50.750          48.250
 113770910.102 8  88652655.458 8  21649880.620    21649878.900        2292.228
      1786.154          49.250          46.850
 117631575.742 8  91660953.250 7  22384540.260    22384535.200       -2469.037
     -1923.925          48.900          41.500
 118024264.789 8  91966953.980 7  22459266.560    22459261.180       -2355.008
     -1835.070          48.900          43.600
 121887121.003 8  94976972.395 7  23194348.780    23194342.820        1229.739
       958.239          48.800          39.400
 124263890.731 8  96828991.032 7  23646628.640    23646625.760        2220.587
      1730.329          48.250          43.400
 128129043.593 8  99840805.979 7  24382145.560    24382140.460        3419.770
      2664.757          44.700          39.850
 130779078.503 7 101905757.339 6  24886429.580    24886428.300        2783.087
      2168.642          42.750          36.100
 131018051.756 8 102091975.143 7  24931905.080    24931901.160        4030.434
      3140.599          45.500          39.550
 131894540.404 8 102774970.494 7  25098693.060    25098689.260       -3699.232
     -2882.519          45.050          39.000
 132243059.172 6 103046538.784 5  25165017.680    25165016.920       -3263.516
     -2543.014          32.600          32.200
 16  9 14  1  2 30.0000000  0 12G15G13G24G20G28G18G17G19G10G12G05G30
 107192403.360 8  83526546.208 8  20398031.660    20398027.220         113.794
        88.671          50.250          50.250
 108556544.215 8  84589530.036 8  20657614.480    20657609.640       -1701.220
     -1325.626          49.900          48.700
 113702268.732 8  88599168.671 8  21636818.640    21636816.760        2284.365
      1780.025          48.650          47.700
 117705836.335 8  91718818.619 7  22398671.560    22398666.820       -2481.272
     -1933.460          48.400          42.800
 118095069.933 8  92022126.804 7  22472740.340    22472735.060       -2364.886
     -1842.768          48.650          43.650
 121850469.763 8  94948412.985 7  23187374.340    23187368.660        1214.220
       946.146          47.700          40.250
 124197442.164 8  96777212.953 7  23633984.000    23633980.800        2209.661
      1721.814          47.550          43.750
 128026514.995 8  99760913.626 7  24362634.860    24362630.280        3415.986
      2661.811          45.950          40.650
 130695760.804 7 101840834.453 6  24870575.160    24870573.380        2771.653
      2159.729          41.500          37.500
 130897157.768 7 101997772.051 7  24908899.740    24908895.620        4029.734
      3140.054          43.350          40.050
 132005486.954 8 102861422.345 6  25119805.620    25119801.960       -3696.807
     -2880.628          45.000          37.650
 132340970.786 5 103122820.454 5  25183649.680    25183648.600       -3263.241
     -2542.785          31.650          30.650
 16  9 14  1  3  0.0000000  0 12G15G13G24G20G28G18G17G19G10G12G05G30
 107189264.585 8  83524100.399 8  20397434.400    20397429.880          96.503
        75.197          50.150          50.150
 108607825.671 8  84629489.585 8  20667372.880    20667368.300       -1716.387
     -1337.446          50.100          48.000
 113633892.349 8  88545888.381 8  21623807.060    21623805.040        2275.177
      1772.863          48.350          47.950
 117780489.897 8  91776990.201 7  22412877.720    22412873.280       -2494.571
     -1943.823          48.500          41.900
 118166200.070 8  92077552.888 7  22486275.900    22486270.760       -2375.916
     -1851.365          47.950          43.650
 121814306.504 8  94920233.824 7  23180492.600    23180486.740        1197.646
       933.230          47.550          39.250
 124131349.943 8  96725712.548 7  23621407.160    23621404.140        2197.498
      1712.337          47.650          43.350
 127924128.086 8  99681131.623 7  24343151.500    24343146.720        3410.992
      2657.917          45.900          40.700
 130612806.409 7 101776194.658 6  24854789.820    24854787.140        2759.479
      2150.242          42.700          36.750
 130776313.674 7 101903607.824 7  24885903.920    24885899.900        4027.569
      3138.364          43.600          39.350
 132116388.169 8 102947838.856 7  25140909.320    25140905.440       -3695.506
     -2879.617          44.600          38.800
 132438890.791 6                  25202284.280                       -3263.167
                        32.650
 16  9 14  1  3 30.0000000  0 12G15G13G24G20G28G18G17G19G10G12G05G30
 107186638.762 9  83522054.305 9  20396934.760    20396930.200          79.325
        61.812          51.150          50.800
 108659556.040 9  84669798.953 8  20677216.660    20677212.420       -1731.396
     -1349.140          50.950          47.600
 113565783.314 8  88492816.418 8  21610846.300    21610844.300        2266.037
      1765.743          49.900          47.250
 117855535.653 8  91835467.399 7  22427158.520    22427153.820       -2507.772
     -1954.108          49.700          41.200
 118237655.058 8  92133232.085 7  22499873.300    22499868.180       -2386.864
     -1859.894          49.950          42.700
 121778634.380 8  94892437.372 7  23173704.180    23173698.600        1181.095
       920.334          48.800          39.450
 124065618.364 8  96674493.167 7  23608898.980    23608895.220        2185.340
      1702.863          49.200          41.500
 127821887.834 8  99601463.917 7  24323695.940    24323691.260        3405.703
      2653.795          47.700          39.250
 130530219.748 7 101711841.451 6  24839074.380    24839071.500        2746.961
      2140.491          44.350          35.250
 130655523.667 8 101809485.751 6  24862918.420    24862914.240        4025.731
      3136.935          44.850          35.000
 132227243.336 8 103034219.497 6  25162004.520    25162001.000       -3694.074
     -2878.500          46.350          36.650
 132536820.555 6 103275452.492 5  25220920.140    25220919.600       -3264.118
     -2543.469          36.000          28.200
 16  9 14  1  4  0.0000000  0 12G15G13G24G20G28G18G17G19G10G12G05G30
 107184519.005 8  83520402.540 8  20396531.400    20396526.820          62.126
        48.409          50.350          50.300
 108711727.344 8  84710451.895 8  20687144.400    20687140.380       -1746.504
     -1360.913          50.200          48.200
 113497935.254 8  88439947.810 8  21597935.220    21597933.280        2257.391
      1759.007          49.050          47.600
 117930963.095 8  91894242.021 7  22441512.040    22441506.740       -2520.640
     -1964.136          48.900          42.050
 118309425.085 8  92189156.792 7  22513530.780    22513525.560       -2397.553
     -1868.223          48.100          43.900
 121743446.549 8  94865018.275 7  23167008.180    23167002.740        1164.807
       907.642          48.100          39.700
 124000242.349 8  96623550.842 7  23596458.380    23596454.600        2173.065
      1693.300          48.150          42.550
 127719790.196 8  99521907.338 6  24304267.260    24304262.840        3400.814
      2649.987          45.650          38.200
 130447995.711 7 101647770.764 6  24823427.900    24823424.800        2734.894
      2131.087          43.400          36.600
 130534782.251 7 101715401.543 7  24839941.900    24839938.160        4023.938
      3135.536          41.850          39.150
 132338042.020 7 103120556.155 7  25183088.940    25183085.100       -3692.259
     -2877.085          43.900          38.600
 132634751.575 6                  25239556.560                       -3264.380
                        33.850
 16  9 14  1  4 30.0000000  0 12G15G13G24G20G28G18G17G19G10G12G05G30
 107182913.189 9  83519151.249 9  20396225.840    20396221.240          45.803
        35.690          50.550          50.600
 108764346.369 8  84751453.724 8  20697157.420    20697153.480       -1760.614
     -1371.906          50.300          48.400
 113430355.979 8  88387288.647 8  21585075.320    21585073.480        2249.107
      1752.552          49.050          47.350
 118006776.727 8  91953317.575 7  22455938.800    22455933.840       -2532.646
     -1973.491          48.500          41.750
 118381515.466 8  92245331.107 7  22527249.040    22527243.840       -2407.531
     -1875.999          48.750          43.200
 121708751.807 8  94837983.411 7  23160406.060    23160400.400        1149.247
       895.518          48.300          39.950
 123935231.696 8  96572893.200 7  23584087.100    23584083.480        2161.791
      1684.512          47.800          41.950
 127617845.801 8  99442470.136 7  24284867.540    24284863.320        3396.448
      2646.585          44.900          38.950
 130366144.274 7 101583990.424 6  24807852.380    24807849.560        2722.935
      2121.770          43.750          37.200
 130414098.874 7 101621362.553 7  24816976.480    24816972.860        4022.457
      3134.381          42.250          39.300
 132448789.060 8 103206852.525 6  25204163.560    25204159.520       -3689.890
     -2875.239          44.550          36.650
 132732690.602 6 103428072.613 5  25258194.000    25258192.700       -3263.604
     -2543.047          35.900          26.600
 16  9 14  1  5  0.0000000  0 12G15G13G24G20G28G18G17G19G10G12G05G30
 107181814.674 9  83518295.257 8  20396016.900    20396012.100          28.730
        22.387          51.600          50.200
 108817405.135 9  84792798.203 8  20707254.260    20707250.060       -1775.368
     -1383.403          51.600          47.200
 113363039.529 8  88334834.283 8  21572265.460    21572263.540        2240.054
      1745.496          50.100          46.350
 118082966.819 8  92012686.461 7  22470437.020    22470432.640       -2545.365
     -1983.402          49.550          40.700
 118453916.807 8  92301747.746 7  22541026.780    22541021.560       -2417.968
     -1884.130          50.150          41.500
 121674543.933 8  94811327.939 7  23153896.500    23153890.880        1132.722
       882.642          49.450          39.050
 123870582.034 8  96522516.872 7  23571784.700    23571780.900        2149.665
      1675.065          49.550          40.400
 127516051.094 8  99363149.619 6  24265496.660    24265491.780        3391.239
      2642.525          47.250          37.150
 130284660.832 8 101520496.829 6  24792346.700    24792343.800        2710.492
      2112.070          44.900          35.000
 130293468.621 8 101527364.955 6  24794021.280    24794017.600        4020.828
      3133.111          44.800          33.350
 132559475.063 8 103293101.340 6  25225226.760    25225222.580       -3688.050
     -2873.806          46.050          35.800
 132830629.870 7 103504392.746 5  25276831.240    25276829.380       -3264.380
     -2543.678          38.550          31.000
 16  9 14  1  5 30.0000000  0 12G15G13G24G20G28G18G17G19G12G10G05G30
 107181232.222 8  83517841.387 8  20395906.080    20395901.180          11.340
         8.835          50.200          49.900
 108870911.039 9  84834491.105 8  20717436.360    20717431.820       -1790.547
     -1395.232          50.550          48.050
 113295994.302 8  88282591.255 8  21559507.080    21559505.160        2230.907
      1738.369          48.350          47.600
 118159538.514 8  92072352.701 7  22485008.060    22485003.580       -2558.190
     -1993.396          48.450          41.700
 118526634.921 8  92358411.207 7  22554864.520    22554859.100       -2428.623
     -1892.433          48.700          43.400
 121640831.897 8  94785058.814 7  23147481.380    23147475.760        1115.944
       869.567          48.050          40.050
 123806303.589 8  96472429.792 7  23559552.880    23559548.980        2137.005
      1665.198          47.550          42.550
 127414417.587 8  99283954.676 7  24246156.400    24246151.680        3385.765
      2638.256          45.350          41.000
 130172901.706 7 101433416.707 6  24771078.360    24771073.940        4018.217
      3131.076          43.050          35.750
 130203555.891 7 101457298.180 6  24776913.080    24776910.320        2697.641
      2102.059          43.000          36.800
 132670105.166 7 103379306.584 6  25246278.960    25246274.920       -3686.077
     -2872.269          44.300          37.850
 132928576.429 6                  25295470.000                       -3264.372
                        33.900
 16  9 14  1  6  0.0000000  0 12G15G13G24G20G28G18G17G19G12G10G05G30
 107181160.044 9  83517785.145 9  20395892.180    20395887.440          -6.494
        -5.061          51.100          50.650
 108924857.333 9  84876527.156 8  20727702.080    20727697.520       -1805.970
     -1407.250          51.300          47.400
 113229214.690 8  88230555.214 8  21546799.300    21546797.300        2221.138
      1730.757          49.850          46.800
 118236482.843 8  92132309.304 7  22499650.340    22499645.460       -2571.432
     -2003.713          49.600          40.900
 118599661.185 8  92415314.796 7  22568760.960    22568755.480       -2439.735
     -1901.093          49.350          43.000
 121607610.740 8  94759172.213 7  23141159.620    23141154.060        1098.713
       856.141          49.050          38.550
 123742393.298 8  96422629.602 7  23547391.140    23547387.400        2123.795
      1654.906          48.950          42.100
 127312942.323 8  99204883.059 7  24226846.140    24226841.340        3379.522
      2633.393          47.150          38.650
 130052394.026 8 101339514.625 6  24748146.560    24748142.220        4015.609
      3129.046          44.650          34.750
 130122825.808 8 101394391.603 6  24761550.740    24761548.060        2684.319
      2091.676          46.050          36.000
 132780671.611 8 103465462.247 6  25267319.000    25267314.680       -3684.920
     -2871.367          45.600          36.250
 133026523.435 6                  25314109.100                       -3265.368
                        34.100
 16  9 14  1  6 30.0000000  0 11G15G13G24G20G28G18G17G19G12G10G05
 107181601.976 9  83518129.506 9  20395976.160    20395971.580         -23.825
       -18.565          50.650          50.650
 108979246.606 9  84918908.395 8  20738052.160    20738047.460       -1820.839
     -1418.837          50.850          47.700
 113162704.965 8  88178729.454 8  21534142.960    21534140.800        2211.991
      1723.629          49.600          47.100
 118313800.256 8  92192556.623 7  22514363.420    22514358.360       -2583.941
     -2013.463          48.100          41.600
 118672996.999 8  92472459.580 7  22582716.260    22582710.740       -2450.218
     -1909.261          48.650          43.400
 121574884.586 8  94733671.312 7  23134932.040    23134926.480        1082.037
       843.146          48.600          39.600
 123678856.992 8  96373120.819 7  23535300.640    23535296.780        2111.180
      1645.075          48.600          42.650
 127211632.124 8  99125940.062 7  24207567.740    24207562.500        3373.650
      2628.818          46.650          39.050
 129931951.215 7 101245663.080 6  24725227.140    24725222.760        4013.219
      3127.187          41.900          36.000
 130042476.345 7 101331781.650 6  24746260.820    24746258.080        2671.384
      2081.600          44.400          37.750
 132891174.649 8 103551568.503 7  25288346.840    25288343.060       -3682.918
     -2869.806          45.500          38.550
 16  9 14  1  7  0.0000000  0 11G15G13G24G20G28G18G17G19G12G10G05
 107182553.303 8  83518870.794 8  20396157.180    20396152.620         -40.492
       -31.553          50.450          50.400
 109034072.749 9  84961630.054 8  20748485.320    20748480.520       -1835.196
     -1430.023          50.700          47.900
 113096460.408 8  88127110.325 8  21521537.080    21521534.740        2203.479
      1716.997          49.250          47.400
 118391482.555 8  92253088.254 7  22529145.700    22529140.920       -2595.803
     -2022.705          48.000          41.100
 118746634.852 8  92529839.721 7  22596728.880    22596723.720       -2459.872
     -1916.783          48.750          42.950
 121542649.027 8  94708552.682 7  23128797.860    23128792.080        1065.993
       830.644          48.000          39.050
 123615691.542 8  96323901.022 7  23523280.720    23523276.700        2098.928
      1635.528          48.150          43.100
 127110484.954 8  99047124.085 7  24188320.120    24188314.740        3368.485
      2624.793          46.450          39.850
 129811569.955 7 101151859.536 6  24702319.200    24702314.800        4011.342
      3125.722          43.150          36.050
 129962504.616 7 101269466.050 6  24731042.420    24731039.200        2658.917
      2071.885          43.800          37.600
 133001606.508 8 103637619.294 7  25309361.020    25309357.180       -3680.255
     -2867.733          45.000          38.900
 16  9 14  1  7 30.0000000  0 11G15G13G24G20G28G18G17G19G12G10G05
 107184023.788 9  83520016.618 9  20396436.940    20396432.340         -57.335
       -44.677          50.800          50.650
 109089344.933 9  85004699.273 8  20759003.280    20758998.400       -1849.439
     -1441.122          51.100          47.700
 113030491.118 8  88075705.698 8  21508983.520    21508981.240        2194.880
      1710.297          49.600          47.350
 118469536.764 8  92313909.684 7  22543998.920    22543994.300       -2607.600
     -2031.898          48.600          41.550
 118820582.030 8  92587460.899 7  22610800.440    22610795.260       -2469.598
     -1924.361          49.150          42.500
 121510914.653 8  94683824.604 7  23122758.760    23122753.000        1049.812
       818.036          48.150          38.800
 123552909.328 8  96274979.858 7  23511333.580    23511329.640        2086.854
      1626.123          48.700          42.650
 127009513.893 8  98968445.349 7  24169105.920    24169100.620        3363.287
      2620.742          47.100          39.550
 129691262.061 7 101058113.131 6  24679425.340    24679421.180        4009.399
      3124.208          43.700          38.100
 129882922.808 7 101207454.256 6  24715898.100    24715895.200        2646.454
      2062.174          44.050          36.750
 133111974.728 8 103723620.533 6  25330363.360    25330359.560       -3677.394
     -2865.499          45.100          38.100
 16  9 14  1  8  0.0000000  0 11G15G13G24G20G28G18G17G19G12G10G05
 107186007.661 8  83521562.499 8  20396814.360    20396809.900         -74.805
       -58.289          49.950          49.750
 109145055.837 8  85048110.352 8  20769604.600    20769599.740       -1864.611
     -1452.945          49.850          48.650
 112964791.666 8  88024511.340 8  21496481.320    21496479.120        2185.358
      1702.877          48.550          47.800
 118547953.409 8  92375013.545 7  22558921.420    22558916.560       -2620.092
     -2041.631          47.850          42.800
 118894830.158 8  92645316.581 8  22624929.280    22624924.400       -2480.130
     -1932.568          47.750          44.500
 121479676.439 8  94659483.131 7  23116814.060    23116808.560        1032.837
       804.807          47.000          40.100
 123490506.297 8  96226354.146 7  23499458.700    23499454.480        2073.678
      1615.854          47.150          44.100
 126908716.049 8  98889901.605 7  24149924.720    24149919.600        3356.727
      2615.634          44.950          41.600
 129571023.077 7 100964420.414 6  24656544.700    24656540.360        4006.648
      3122.061          43.200          38.250
 129803726.883 7 101145743.149 7  24700826.940    24700824.720        2633.256
      2051.887          42.000          39.350
 133222270.048 7 103809564.926 6  25351351.860    25351348.240       -3675.353
     -2863.912          43.950          37.650
 16  9 14  1  8 30.0000000  0 11G15G13G24G20G28G18G17G19G12G10G05
 107188505.955 9  83523509.211 9  20397289.860    20397285.440         -92.494
       -72.073          50.750          50.750
 109201205.620 9  85091863.412 8  20780289.440    20780284.780       -1879.547
     -1464.581          50.700          47.700
 112899363.663 8  87973528.483 8  21484030.880    21484028.600        2175.806
      1695.434          49.550          47.600
 118626730.259 8  92436398.089 7  22573912.180    22573907.360       -2632.499
     -2051.298          48.650          41.250
 118969377.658 8  92703405.535 7  22639115.200    22639110.520       -2490.506
     -1940.654          48.650          42.900
 121448935.743 8  94635529.329 7  23110964.220    23110959.080        1015.710
       791.463          47.800          40.000
 123428485.869 8  96178026.552 7  23487656.520    23487652.280        2060.303
      1605.431          48.300          42.400
 126808095.588 8  98811496.072 7  24130777.080    24130772.280        3350.397
      2610.700          46.150          40.100
 129450856.328 7 100870783.951 5  24633677.680    24633673.480        4003.718
      3119.782          43.250          32.300
 129724920.227 7 101084335.376 6  24685829.980    24685828.360        2619.757
      2041.370          43.900          36.950
 133332491.143 7 103895451.518 6  25372326.240    25372322.660       -3673.507
     -2862.473          43.400          36.050
 16  9 14  1  9  0.0000000  0 11G15G13G24G20G28G18G17G19G12G10G05
 107191516.147 9  83525854.812 9  20397862.800    20397858.360        -108.537
       -84.573          50.600          50.550
 109257789.906 8  85135955.042 8  20791056.980    20791052.460       -1893.046
     -1475.103          50.400          47.850
 112834204.037 8  87922754.763 8  21471631.560    21471629.220        2168.004
      1689.354          49.700          48.000
 118705861.248 8  92498058.577 7  22588970.180    22588965.460       -2643.291
     -2059.708          48.400          41.150
 119044218.759 8  92761723.268 7  22653356.780    22653352.420       -2499.193
     -1947.424          48.250          43.650
 121418689.632 8  94611960.927 7  23105208.580    23105203.340        1000.251
       779.416          47.900          39.800
 123366847.033 8  96129996.323 7  23475927.020    23475922.860        2048.572
      1596.292          48.200          42.550
 126707652.314 8  98733228.623 7  24111663.380    24111658.540        3345.455
      2606.852          45.750          39.350
 129330760.128 7 100777202.546 6  24610823.820    24610819.800        4002.417
      3118.771          42.950          36.850
 129646501.700 8 101023230.004 6  24670907.440    24670906.180        2607.795
      2032.045          44.600          36.250
 133442631.579 7 103981275.244 6  25393284.900    25393281.440       -3669.441
     -2859.303          42.500          35.500
 16  9 14  1  9 30.0000000  0 11G15G13G24G20G28G18G17G19G12G10G05
 107195045.645 9  83528605.069 9  20398534.460    20398529.960        -125.492
       -97.785          50.550          50.500
 109314815.275 9  85180390.377 8  20801908.560    20801904.180       -1907.440
     -1486.317          50.750          47.700
 112769321.010 8  87872196.574 8  21459284.680    21459282.420        2158.948
      1682.298          49.450          47.650
 118785350.727 8  92559998.417 7  22604096.500    22604091.660       -2654.857
     -2068.720          48.600          41.700
 119119358.651 8  92820273.833 7  22667655.600    22667651.080       -2508.874
     -1954.966          48.800          42.650
 121388946.576 8  94588784.515 7  23099548.820    23099543.440         983.949
       766.714          48.400          39.650
 123305599.663 8  96082271.130 7  23464272.120    23464267.900        2035.760
      1586.310          48.400          42.650
 126607397.302 8  98655107.844 7  24092585.280    24092580.540        3339.394
      2602.126          45.150          39.600
 129210744.235 7 100683683.646 6  24587985.700    24587981.640        4000.136
      3116.989          44.100          36.600
 129568481.142 7 100962434.760 6  24656060.720    24656059.400        2594.882
      2021.988          44.250          36.950
 133552697.156 7 104067040.625 6  25414229.600    25414226.920       -3666.867
     -2857.301          42.750          36.000
 16  9 14  1 10  0.0000000  0 11G15G13G24G20G28G18G17G19G12G10G05
 107199088.480 9  83531755.320 9  20399303.780    20399299.260        -143.114
      -111.519          50.700          50.700
 109372274.989 9  85225164.168 8  20812842.920    20812838.580       -1922.324
     -1497.915          50.950          47.900
 112704709.327 8  87821849.818 8  21446989.440    21446987.160        2149.349
      1674.816          49.550          47.600
 118865189.485 8  92622210.426 7  22619289.440    22619284.380       -2666.946
     -2078.141          48.900          41.350
 119194789.017 8  92879050.747 7  22682009.560    22682004.940       -2518.950
     -1962.818          48.650          43.350
 121359701.607 8  94565996.236 7  23093984.020    23093978.360         966.797
       753.349          49.000          40.600
 123244740.025 8  96034848.064 7  23452690.900    23452686.580        2022.289
      1575.812          48.650          42.950
 126507327.658 8  98577131.505 7  24073542.460    24073537.840        3332.659
      2596.876          46.550          40.650
 129090804.504 8 100590224.129 6  24565162.000    24565157.960        3996.840
      3114.422          45.300          36.050
 129490854.773 8 100901946.640 6  24641289.140    24641287.820        2581.194
      2011.321          44.800          37.950
 133662678.475 7 104152740.339 6  25435158.480    25435155.580       -3664.437
     -2855.404          42.400          35.050
 16  9 14  1 10 30.0000000  0 11G15G13G24G20G28G18G17G19G12G10G05
 107203646.827 9  83535307.283 9  20400171.340    20400166.680        -160.155
      -124.796          50.600          50.650
 109430169.689 9  85270276.908 8  20823860.080    20823855.600       -1936.576
     -1509.020          50.750          47.600
 112640370.698 8  87771715.846 8  21434746.040    21434743.800        2140.485
      1667.912          49.300          47.350
 118945376.589 8  92684693.879 7  22634548.640    22634543.900       -2678.292
     -2086.981          48.350          41.350
 119270509.632 8  92938053.813 7  22696418.780    22696414.360       -2528.445
     -1970.217          48.650          43.050
 121330956.823 8  94543597.701 7  23088514.380    23088508.460         950.032
       740.286          48.600          40.250
 123184271.972 8  95987730.121 7  23441184.220    23441180.200        2009.349
      1565.728          48.850          43.650
 126407448.221 8  98499303.378 7  24054536.340    24054531.720        3326.535
      2592.105          46.850          41.850
 128970944.683 8 100496826.850 6  24542353.560    24542349.300        3994.167
      3112.341          44.700          37.750
 129413626.677 8 100841768.907 6  24626593.240    24626591.760        2568.057
      2001.084          44.950          37.650
 133772575.116 7 104238374.102 5  25456071.220    25456067.780       -3661.221
     -2852.899          40.550          28.750
 16  9 14  1 11  0.0000000  0 11G15G13G24G20G28G18G17G19G12G10G05
 107208722.600 8  83539262.426 8  20401137.260    20401132.580        -177.810
      -138.553          49.650          49.700
 109488499.876 8  85315728.985 8  20834960.140    20834955.440       -1951.523
     -1520.668          49.750          48.650
 112576307.898 8  87721796.784 8  21422555.220    21422552.960        2130.724
      1660.305          47.950          48.000
 119025910.591 8  92747447.625 7  22649873.620    22649868.760       -2690.283
     -2096.324          46.950          42.200
 119346519.498 8  92997282.282 7  22710883.180    22710878.420       -2538.454
     -1978.016          47.350          44.100
 121302714.528 8  94521590.718 7  23083140.060    23083134.220         933.045
       727.049          47.200          40.950
 123124199.704 8  95940920.594 8  23429752.940    23429749.200        1995.743
      1555.125          47.150          44.750
 126307764.250 8  98421627.574 7  24035567.280    24035562.600        3319.452
      2586.586          44.950          42.300
 128851168.617 8 100403494.836 6  24519561.020    24519556.320        3991.244
      3110.062          44.900          36.000
 129336800.783 7 100781904.566 7  24611973.980    24611971.600        2554.008
      1990.138          43.950          39.300
 133882386.478 6 104323941.449 5  25476967.340    25476963.820       -3659.006
     -2851.169          37.750          32.300
 16  9 14  1 11 30.0000000  0 11G15G13G24G20G28G18G17G19G12G10G05
 107214317.904 8  83543622.394 8  20402201.940    20402197.340        -195.505
      -152.342          49.900          50.000
 109547266.743 8  85361521.327 8  20846143.080    20846138.240       -1966.533
     -1532.363          50.150          48.250
 112512523.016 8  87672094.290 8  21410417.280    21410415.120        2121.206
      1652.890          49.000          47.750
 119106790.361 8  92810470.804 7  22665264.440    22665259.600       -2702.085
     -2105.521          47.300          42.150
 119422818.086 8  93056735.721 7  22725402.340    22725397.060       -2548.350
     -1985.728          47.850          43.000
 121274977.729 8  94499977.623 7  23077861.780    23077855.900         915.780
       713.595          47.200          40.550
 123064527.449 8  95894422.766 7  23418397.520    23418393.720        1981.970
      1544.393          47.500          44.150
 126208281.042 8  98344108.245 7  24016635.740    24016631.820        3312.480
      2581.155          44.600          41.950
 128731480.163 8 100310231.087 6  24496785.120    24496780.280        3987.888
      3107.444          45.450          36.050
 129260381.335 8 100722356.946 7  24597432.120    24597429.300        2540.021
      1979.236          44.650          38.750
 133992112.297 6 104409442.062 6  25497847.560    25497844.720       -3656.073
     -2848.890          38.300          36.800
 16  9 14  1 12  0.0000000  0 11G15G13G24G20G28G18G17G19G12G10G05
 107220426.097 9  83548382.018 9  20403364.320    20403359.600        -211.869
      -165.093          50.750          50.700
 109606462.831 9  85407648.130 8  20857407.700    20857402.680       -1980.064
     -1542.908          50.600          47.900
 112449010.013 8  87622603.639 8  21398331.120    21398329.000        2112.810
      1646.345          49.450          47.700
 119188006.091 8  92873755.774 7  22680719.300    22680714.160       -2712.514
     -2113.648          48.200          41.400
 119499396.150 8  93116406.952 7  22739974.760    22739969.440       -2556.866
     -1992.363          48.600          43.100
 121247739.813 8  94478753.276 7  23072678.180    23072672.800         899.885
       701.211          47.800          39.650
 123005250.428 8  95848232.909 7  23407117.140    23407113.400        1969.539
      1534.708          48.050          43.700
 126108994.840 8  98266742.410 7  23997741.960    23997738.380        3306.531
      2576.521          46.200          40.200
 128611874.397 8 100217031.795 6  24474025.080    24474020.340        3985.608
      3105.668          47.150          36.200
 129184363.702 8 100663122.436 6  24582966.780    24582963.620        2527.667
      1969.610          46.700          37.000
 134101742.453 6 104494868.137 6  25518709.860    25518706.920       -3652.008
     -2845.723          37.950          35.800
 16  9 14  1 12 30.0000000  0 11G15G13G24G20G28G18G17G19G12G10G05
 107227054.836 9  83553547.267 9  20404625.860    20404620.980        -229.435
      -178.779          50.650          50.600
 109666094.461 9  85454114.313 8  20868755.080    20868750.180       -1994.740
     -1554.345          50.600          47.300
 112385777.160 8  87573331.306 8  21386298.180    21386296.240        2103.280
      1638.920          49.250          48.100
 119269561.984 8  92937305.802 7  22696238.960    22696234.360       -2724.060
     -2122.645          47.950          41.500
 119576259.136 8  93176300.180 7  22754601.260    22754596.280       -2566.680
     -2000.010          48.600          43.150
 121221009.155 8  94457924.186 7  23067591.280    23067586.400         882.536
       687.689          47.750          39.650
 122946378.755 8  95802358.912 7  23395914.300    23395910.580        1955.801
      1524.001          48.600          43.750
 126009916.514 8  98189538.510 7  23978888.300    23978884.180        3299.331
      2570.907          46.750          39.800
 128492360.870 8 100123904.341 6  24451282.540    24451277.720        3982.288
      3103.081          46.800          36.100
 129108757.694 8 100604208.653 6  24568579.860    24568576.480        2513.471
      1958.548          46.200          38.150
 134211282.172 6 104580223.750 6  25539554.480    25539551.300       -3649.837
     -2844.033          37.900          34.800
 16  9 14  1 13  0.0000000  0 11G15G13G24G20G28G18G17G19G12G10G05
 107234199.382 9  83559114.432 9  20405985.520    20405980.600        -247.002
      -192.469          50.850          50.750
 109726155.302 9  85500914.942 8  20880184.060    20880179.460       -2009.429
     -1565.788          50.800          47.100
 112322819.701 8  87524273.558 8  21374317.700    21374316.000        2093.769
      1631.510          49.700          48.000
 119351449.983 8  93001114.603 7  22711821.680    22711817.160       -2735.418
     -2131.496          48.050          41.100
 119653399.315 8  93236409.404 7  22769280.520    22769275.560       -2576.212
     -2007.437          49.000          42.300
 121194781.394 8  94437486.959 7  23062600.200    23062595.360         865.579
       674.477          47.800          40.350
 122887909.472 8  95756798.467 7  23384788.160    23384784.220        1942.032
      1513.273          49.050          42.950
 125911044.139 8  98112495.094 7  23960073.760    23960069.180        3292.003
      2565.196          47.600          40.050
 128372936.708 8 100030846.544 6  24428556.800    24428551.980        3979.075
      3100.578          47.150          36.900
 129033560.430 8 100545613.362 6  24554270.480    24554267.080        2499.450
      1947.623          46.300          38.250
 134320724.179 6 104665503.334 5  25560380.780    25560376.880       -3646.505
     -2841.423          38.300          30.500
 16  9 14  1 13 30.0000000  0 11G15G13G24G20G28G18G17G19G12G10G05
 107241864.587 8  83565087.311 8  20407444.120    20407439.340        -263.398
      -205.246          50.200          50.200
 109786649.263 8  85548053.079 8  20891695.660    20891691.260       -2022.941
     -1576.318          50.200          47.950
 112260142.762 8  87475434.389 8  21362390.720    21362389.000        2085.273
      1624.889          49.000          48.450
 119433671.676 8  93065183.433 7  22727468.060    22727463.380       -2745.484
     -2139.339          47.250          41.500
 119730819.188 8  93296736.566 7  22784013.000    22784007.820       -2584.590
     -2013.968          48.100          42.250
 121169061.435 8  94417445.440 7  23057705.860    23057701.060         849.694
       662.100          47.550          40.550
 122829849.397 8  95711556.870 7  23373739.660    23373735.520        1929.301
      1503.353          48.300          43.100
 125812385.958 8  98035618.584 7  23941300.080    23941294.820        3285.630
      2560.232          46.200          41.300
 128253608.392 8  99937863.428 6  24405849.220    24405844.680        3976.750
      3098.767          46.750          37.650
 128958778.834 7 100487341.970 7  24540040.000    24540036.800        2486.626
      1937.630          44.400          40.300
 134430069.767 6 104750707.650 5  25581188.700    25581185.900       -3642.308
     -2838.161          34.550          28.950
 16  9 14  1 14  0.0000000  0 11G15G13G24G20G28G18G17G19G12G10G05
 107250047.815 9  83571463.854 9  20409001.300    20408996.620        -281.916
      -219.675          51.000          50.750
 109847572.608 9  85595525.795 8  20903289.160    20903284.720       -2038.451
     -1588.404          51.100          47.150
 112197744.697 8  87426812.532 8  21350516.840    21350514.900        2074.772
      1616.707          49.950          47.450
 119516221.706 8  93129508.118 7  22743176.940    22743171.880       -2757.569
     -2148.756          48.400          41.200
 119808514.029 8  93357277.995 7  22798797.780    22798792.760       -2594.869
     -2021.977          49.350          41.450
 121143847.449 8  94397798.181 7  23052908.040    23052902.800         831.553
       647.965          48.900          39.750
 122772198.423 8  95666634.056 7  23362769.360    23362764.920        1914.292
      1491.656          49.750          42.750
 125713942.780 8  97958909.646 7  23922567.140    23922561.720        3277.291
      2553.733          47.250          40.350
 128134375.620 8  99844954.781 6  24383159.880    24383155.620        3972.200
      3095.221          48.000          37.300
 128884412.718 8 100429394.343 6  24525888.160    24525885.840        2471.264
      1925.661          45.350          37.200
 134539314.245 6 104835833.289 5  25601977.120    25601973.000       -3640.479
     -2836.739          35.700          29.500
 16  9 14  1 14 30.0000000  0 11G15G13G24G20G28G18G17G19G12G10G05
 107258752.792 9  83578246.949 9  20410657.840    20410653.080        -301.100
      -234.623          50.650          50.650
 109908928.502 9  85643335.578 8  20914964.980    20914960.400       -2054.501
     -1600.911          51.050          47.350
 112135629.292 8  87378410.920 8  21338696.760    21338694.740        2063.619
      1608.015          49.900          47.750
 119599100.615 8  93194089.055 7  22758948.200    22758943.520       -2770.240
     -2158.631          48.000          40.800
 119886485.150 8  93418034.715 7  22813635.360    22813629.900       -2605.811
     -2030.502          48.950          41.300
 121119143.745 8  94378548.529 7  23048207.380    23048201.680         812.769
       633.324          48.850          39.100
 122714962.303 8  95622034.509 7  23351877.820    23351873.160        1898.617
      1479.443          48.800          42.750
 125615721.553 8  97882373.654 7  23903876.420    23903871.020        3268.068
      2546.545          47.700          41.300
 128015244.019 8  99752124.956 6  24360490.100    24360485.740        3967.243
      3091.357          48.000          37.600
 128810467.863 8 100371774.963 7  24511816.560    24511814.620        2455.565
      1913.427          45.800          38.600
 134648459.456 6 104920854.405 5  25622746.820    25622744.580       -3638.685
     -2835.351          37.750          29.950
 16  9 14  1 15  0.0000000  0 11G15G13G24G20G28G18G17G19G12G10G05
 107267967.239 9  83585427.019 9  20412411.260    20412406.460        -317.045
      -247.049          50.750          50.750
 109970702.800 9  85691471.389 8  20926720.380    20926715.660       -2067.546
     -1611.075          50.900          47.350
 112073784.787 8  87330220.415 8  21326928.280    21326926.260        2055.618
      1601.780          49.700          48.150
 119682292.283 8  93258913.713 7  22774778.980    22774774.460       -2779.459
     -2165.813          48.000          41.400
 119964717.338 8  93478994.874 7  22828522.640    22828516.840       -2613.445
     -2036.451          49.100          41.850
 121094938.224 8  94359687.084 7  23043601.500    23043595.240         797.145
       621.152          48.800          39.350
 122658130.590 8  95577750.087 7  23341062.860    23341058.260        1886.302
      1469.848          48.850          43.050
 125517712.690 8  97806003.144 7  23885226.100    23885220.540        3262.014
      2541.829          47.250          41.100
 127896202.691 8  99659365.479 6  24337837.400    24337832.620        3965.309
      3089.852          47.650          38.250
 128736933.771 8 100314475.664 7  24497823.640    24497821.040        2442.901
      1903.561          45.850          38.750
 134757490.228 6 105005808.479 5  25643494.720    25643492.440       -3632.898
     -2830.838          33.750          31.200
 16  9 14  1 15 30.0000000  0 10G15G13G24G20G28G18G17G19G12G10
 107277707.946 8  83593017.181 8  20414264.740    20414260.100        -332.649
      -259.208          50.400          50.400
 110032911.773 9  85739945.891 8  20938558.320    20938553.680       -2079.959
     -1620.748          50.650          47.350
 112012228.534 8  87282254.514 8  21315214.560    21315212.560        2047.970
      1595.821          49.600          48.350
 119765810.840 8  93323993.077 7  22790672.040    22790667.820       -2788.478
     -2172.840          47.950          41.550
 120043225.377 8  93540169.949 7  22843462.300    22843456.620       -2620.583
     -2042.014          48.850          41.900
 121071248.658 8  94341227.678 7  23039093.480    23039087.500         781.938
       609.303          47.800          39.850
 122601722.692 8  95533795.898 7  23330328.820    23330324.120        1873.935
      1460.209          49.250          43.200
 125419936.593 8  97729814.021 7  23866619.840    23866614.000        3256.118
      2537.235          47.100          39.800
 127777270.775 8  99566691.262 7  24315205.300    24315200.660        3963.435
      3088.389          47.100          39.050
 128663829.824 8 100257511.519 7  24483912.340    24483909.840        2430.409
      1893.824          45.350          39.600
 16  9 14  1 16  0.0000000  0 10G15G13G24G20G28G18G17G19G12G10
 107287970.048 9  83601013.615 9  20416217.460    20416212.980        -350.404
      -273.043          50.700          50.650
 110095549.074 9  85788754.146 8  20950477.580    20950473.100       -2094.644
     -1632.190          50.700          47.100
 111950956.297 8  87234509.918 8  21303554.860    21303552.740        2038.099
      1588.129          49.650          48.350
 119849648.155 8  93389320.844 7  22806625.700    22806621.160       -2799.520
     -2181.443          48.050          41.350
 120122001.898 8  93601554.257 7  22858453.160    22858447.360       -2629.919
     -2049.287          49.300          41.450
 121048069.950 8  94323166.339 7  23034682.560    23034676.800         764.406
       595.641          48.600          39.450
 122545735.421 8  95490169.465 7  23319674.880    23319669.980        1859.502
      1448.964          48.850          43.250
 125322391.695 8  97653805.009 7  23848057.440    23848050.940        3248.004
      2530.912          47.150          40.200
 127658445.401 8  99474100.071 7  24292593.400    24292589.260        3959.391
      3085.239          47.350          39.300
 128591152.944 8 100200880.180 7  24470082.260    24470080.060        2415.711
      1882.371          44.650          38.650
 16  9 14  1 16 30.0000000  0 10G15G13G24G20G28G18G17G19G12G10
 107298747.994 8  83609412.007 8  20418268.460    20418263.960        -368.710
      -287.308          50.450          50.450
 110158607.726 8  85837890.740 8  20962477.060    20962472.660       -2109.796
     -1643.997          50.400          47.150
 111889962.958 8  87186982.659 8  21291948.140    21291945.940        2027.654
      1579.991          49.800          48.050
 119933795.756 8  93454890.377 7  22822638.340    22822633.960       -2810.861
     -2190.283          47.800          41.150
 120201038.879 8  93663141.522 7  22873493.460    22873487.320       -2639.648
     -2056.868          48.750          41.800
 121025397.131 8  94305499.199 7  23030367.860    23030362.340         746.564
       581.737          47.700          39.750
 122490165.391 8  95446868.168 7  23309100.100    23309095.360        1844.517
      1437.287          48.850          43.400
 125225075.390 8  97577974.090 7  23829538.460    23829532.020        3239.229
      2524.073          47.650          38.850
 127539722.883 8  99381589.008 7  24270001.340    24269997.080        3954.760
      3081.631          46.600          40.150
 128518899.819 7 100144579.021 7  24456332.740    24456330.960        2400.475
      1870.498          43.900          38.750
 16  9 14  1 17  0.0000000  0 10G15G13G24G20G28G18G17G19G12G10
 107310053.636 8  83618221.585 8  20420419.880    20420415.320        -384.665
      -299.739          50.350          50.350
 110222098.754 9  85887364.244 8  20974558.940    20974554.580       -2122.625
     -1653.994          50.550          46.850
 111829260.577 8  87139682.092 8  21280396.920    21280394.680        2019.493
      1573.630          49.600          48.250
 120018262.069 8  93520708.269 7  22838711.740    22838707.360       -2819.810
     -2197.254          48.250          41.000
 120280345.849 8  93724939.158 7  22888584.960    22888579.140       -2646.951
     -2062.560          48.450          42.100
 121003242.498 8  94288235.844 7  23026151.940    23026146.360         730.880
       569.516          47.900          39.200
 122435026.800 8  95403903.055 7  23298607.420    23298603.100        1831.706
      1427.303          48.650          43.750
 125128002.993 8  97502333.285 7  23811066.180    23811060.320        3232.652
      2518.952          47.000          40.600
 127421116.666 8  99289168.608 7  24247431.380    24247427.160        3952.528
      3079.894          46.700          40.600
 128447084.346 7 100088618.906 7  24442666.420    24442664.840        2387.399
      1860.311          44.100          41.050
 16  9 14  1 17 30.0000000  0 10G15G13G24G20G28G18G17G19G12G10
 107321873.101 9  83627431.552 9  20422669.040    20422664.460        -402.397
      -313.556          50.600          50.600
 110286007.261 9  85937163.058 8  20986720.420    20986715.900       -2137.033
     -1665.222          50.650          46.850
 111768835.772 8  87092597.841 8  21268898.320    21268896.340        2009.791
      1566.071          49.700          48.550
 120103029.890 8  93586761.100 7  22854842.900    22854838.100       -2830.443
     -2205.541          48.600          41.100
 120359906.476 8  93786934.434 7  22903724.680    22903719.340       -2655.979
     -2069.595          48.900          41.750
 120981592.567 8  94271365.764 7  23022032.100    23022026.440         713.529
       555.997          47.950          39.750
 122380307.603 8  95361264.750 7  23288194.460    23288190.480        1817.083
      1415.910          48.600          44.450
 125031163.849 8  97426874.230 7  23792638.040    23792632.860        3224.165
      2512.339          45.850          41.950
 127302615.359 8  99196829.913 7  24224881.460    24224877.240        3948.500
      3076.754          46.000          40.500
 128375694.747 8 100032990.633 7  24429081.440    24429080.520        2372.711
      1848.865          45.100          40.600
 16  9 14  1 18  0.0000000  0 10G15G13G24G20G28G18G17G19G12G10
 107334216.260 8  83637049.588 8  20425017.760    20425013.320        -419.307
      -326.731          50.000          49.950
 110350341.775 8  85987293.832 8  20998963.000    20998958.400       -2150.813
     -1675.958          50.200          47.700
 111708699.427 8  87045738.372 8  21257454.620    21257452.720        2000.545
      1558.866          48.950          48.950
 120188106.331 8  93653054.417 7  22871032.560    22871027.740       -2840.204
     -2213.146          47.800          41.050
 120439728.381 8  93849133.325 7  22918914.240    22918908.660       -2664.249
     -2076.038          48.050          42.450
 120960457.986 8  94254897.251 7  23018010.340    23018004.520         696.683
       542.871          47.150          40.850
 122326019.876 8  95318962.641 8  23277863.620    23277860.200        1803.341
      1405.202          47.800          44.900
 124934571.191 8  97351607.261 7  23774256.960    23774252.120        3216.434
      2506.313          46.400          41.800
 127184230.498 8  99104581.977 7  24202353.500    24202349.180        3945.246
      3074.216          45.950          41.150
 128304743.140 7  99977703.658 7  24415579.900    24415578.860        2358.707
      1837.953          44.050          40.450
 16  9 14  1 18 30.0000000  0 10G15G13G24G20G28G18G17G19G12G10
 107347077.620 9  83647071.419 9  20427465.140    20427460.820        -438.422
      -341.628          50.600          50.600
 110415095.852 9  86037751.546 8  21011285.380    21011280.780       -2166.540
     -1688.213          50.850          46.800
 111648846.060 8  86999099.391 8  21246064.900    21246062.820        1989.291
      1550.098          50.000          48.050
 120273482.478 8  93719581.278 7  22887279.020    22887274.060       -2851.879
     -2222.244          47.650          40.200
 120519803.534 8  93911529.554 7  22934151.960    22934146.420       -2674.475
     -2084.006          49.150          41.700
 120939833.291 8  94238826.056 7  23014085.580    23014080.040         677.929
       528.256          47.900          39.800
 122272160.153 8  95276994.046 7  23267614.260    23267610.920        1787.125
      1392.564          48.750          44.000
 124838222.857 8  97276530.649 7  23755922.420    23755917.720        3206.361
      2498.462          47.550          41.200
 127065958.633 8  99012422.105 7  24179846.920    24179842.800        3939.409
      3069.671          45.250          39.600
 128234225.942 7  99922755.201 7  24402160.900    24402159.640        2342.221
      1825.108          44.250          39.300
 16  9 14  1 19  0.0000000  0 10G15G13G24G20G28G18G17G19G12G10
 107360460.800 8  83657499.863 8  20430011.900    20430007.640        -454.173
      -353.900          50.200          50.200
 110480272.330 8  86088538.398 8  21023688.120    21023683.440       -2179.045
     -1697.958          50.300          47.250
 111589280.454 8  86952684.647 8  21234729.940    21234727.840        1981.209
      1543.801          49.450          48.750
 120359159.284 8  93786342.393 7  22903582.680    22903577.860       -2860.333
     -2228.830          48.100          39.850
 120600133.791 8  93974124.553 7  22949437.960    22949433.020       -2681.382
     -2089.390          47.950          42.050
 120919722.698 8  94223155.473 7  23010258.800    23010253.180         662.236
       516.029          47.900          40.700
 122218734.441 8  95235363.660 7  23257447.640    23257444.200        1774.096
      1382.413          48.250          44.200
 124742125.833 8  97201649.886 7  23737635.960    23737630.940        3199.660
      2493.243          47.850          41.600
 126947806.103 8  98920355.200 7  24157363.160    24157358.960        3936.831
      3067.660          45.000          40.800
 128164149.374 8  99868150.107 7  24388825.840    24388823.820        2328.962
      1814.775          44.650          38.950
 16  9 14  1 19 30.0000000  0 10G15G13G24G20G28G18G17G19G12G10
 107374359.305 9  83668329.856 9  20432656.820    20432652.440        -472.736
      -368.365          50.550          50.500
 110545863.691 9  86139648.527 8  21036169.820    21036165.080       -2194.061
     -1709.657          50.750          47.200
 111529996.828 8  86906489.609 8  21223448.700    21223446.580        1970.561
      1535.502          49.650          48.550
 120445127.276 8  93853330.430 7  22919942.040    22919936.720       -2871.339
     -2237.407          48.100          40.550
 120680710.379 8  94036911.505 7  22964771.240    22964766.200       -2690.773
     -2096.705          48.700          41.850
 120900120.467 8  94207880.999 7  23006528.740    23006523.120         644.062
       501.866          48.100          41.100
 122165738.714 8  95194068.323 8  23247362.960    23247359.460        1758.573
      1370.318          48.950          44.500
 124646277.276 8  97126962.705 7  23719397.000    23719391.560        3190.001
      2485.717          47.800          41.750
 126829768.137 7  98828377.614 7  24134901.120    24134897.340        3931.734
      3063.691          44.200          41.550
 128094509.187 8  99813885.020 7  24375573.840    24375571.560        2313.248
      1802.530          45.250          39.450
 16  9 14  1 20  0.0000000  0 10G15G13G24G20G28G18G17G19G12G10
 107388785.352 9  83679570.928 8  20435402.100    20435397.540        -489.561
      -381.477          51.100          50.150
 110611880.645 9  86191090.288 8  21048732.500    21048727.680       -2207.552
     -1720.171          51.300          46.350
 111471007.680 8  86860524.059 8  21212223.380    21212221.480        1961.546
      1528.478          50.350          47.550
 120531395.357 8  93920552.289 7  22936358.360    22936353.260       -2880.443
     -2244.501          48.750          39.100
 120761542.872 8  94099897.866 7  22980153.080    22980147.780       -2698.393
     -2102.644          49.550          40.600
 120881038.919 8  94193012.260 7  23002897.620    23002892.020         627.533
       488.987          49.250          38.750
 122113186.930 8  95153118.906 7  23237362.780    23237359.120        1744.434
      1359.299          49.800          42.850
 124550692.340 8  97052480.949 7  23701208.060    23701202.220        3181.773
      2479.304          48.400          39.900
 126711859.025 8  98736500.371 7  24112463.880    24112459.780        3928.335
      3061.040          45.400          40.000
 128025319.422 8  99759970.922 6  24362407.440    24362405.300        2298.951
      1791.391          46.750          38.150
 16  9 14  1 20 30.0000000  0 10G15G13G24G20G28G18G17G19G12G10
 107403725.812 8  83691212.838 8  20438245.080    20438240.520        -506.467
      -394.650          50.300          50.300
 110678309.333 9  86242852.871 8  21061373.360    21061368.780       -2220.931
     -1730.596          50.550          46.850
 111412300.573 8  86814778.275 8  21201051.680    21201049.960        1952.347
      1521.310          49.200          48.700
 120617947.468 8  93987995.476 7  22952828.320    22952823.660       -2889.641
     -2251.669          46.550          40.250
 120842616.133 8  94163071.831 7  22995580.960    22995575.380       -2706.281
     -2108.790          49.000          41.100
 120862465.555 8  94178539.497 7  22999363.180    22999357.680         610.715
       475.881          48.350          39.800
 122061068.379 8  95112507.062 7  23227445.140    23227441.080        1730.186
      1348.196          49.200          43.250
 124455361.590 8  96978197.279 7  23683067.080    23683061.420        3173.536
      2472.888          46.750          40.400
 126594067.891 7  98644715.119 7  24090048.700    24090044.940        3924.644
      3058.167          44.450          40.250
 127956569.433 8  99706399.485 7  24349324.920    24349322.380        2284.558
      1780.174          45.650          39.600
 16  9 14  1 21  0.0000000  0 10G15G13G24G20G18G28G17G19G12G10
 107419191.358 8  83703263.909 8  20441188.000    20441183.480        -523.506
      -407.926          50.000          49.850
 110745158.854 8  86294943.383 8  21074094.300    21074089.840       -2234.609
     -1741.255          50.150          47.700
 111353886.469 8  86769260.808 8  21189935.840    21189934.120        1943.068
      1514.081          49.250          48.650
 120704790.833 8  94055665.614 7  22969353.840    22969349.640       -2898.845
     -2258.840          46.900          41.100
 120844410.848 8  94164470.896 7  22995927.500    22995921.820         593.905
       462.784          47.400          41.100
 120923938.285 8  94226439.741 7  23011056.140    23011050.680       -2714.211
     -2114.970          48.300          41.700
 122009395.216 8  95072242.301 7  23217612.320    23217607.660        1715.779
      1336.972          49.150          44.000
 124360298.687 8  96904122.302 7  23664977.120    23664971.300        3165.091
      2466.306          46.250          41.400
 126476406.901 7  98553031.235 7  24067658.520    24067654.780        3920.685
      3055.078          43.850          40.300
 127888271.741 8  99653180.523 7  24336328.540    24336326.220        2269.912
      1768.764          45.350          39.850
 16  9 14  1 21 30.0000000  0 10G15G13G24G20G18G28G17G19G12G10
 107435179.162 8  83715721.926 8  20444230.440    20444225.860        -541.677
      -422.085          50.350          50.350
 110812425.444 9  86347358.885 8  21086894.820    21086890.180       -2249.224
     -1752.643          50.700          46.800
 111295763.690 8  86723970.327 8  21178875.520    21178873.740        1932.502
      1505.846          49.350          48.450
 120791919.734 8  94123558.236 7  22985934.040    22985929.520       -2909.005
     -2266.761          47.000          40.600
 120826872.541 8  94150804.651 7  22992590.180    22992584.460         575.854
       448.715          47.950          39.850
 121005504.315 8  94289997.669 7  23026577.660    23026572.300       -2723.055
     -2121.861          48.350          41.350
 121958167.012 8  95032324.245 7  23207863.900    23207859.240        1700.104
      1324.758          49.300          43.750
 124265504.485 8  96830256.708 7  23646938.120    23646932.400        3155.175
      2458.578          47.250          40.650
 126358875.255 7  98461448.159 7  24045292.980    24045289.300        3915.470
      3051.018          44.300          40.150
 127820425.395 8  99600313.248 7  24323417.900    24323415.520        2253.995
      1756.358          46.650          39.600
 16  9 14  1 22  0.0000000  0 10G15G13G24G18G20G28G17G19G12G10
 107451683.536 8  83728582.469 8  20447371.120    20447366.660        -558.106
      -434.889          50.400          50.450
 110880102.319 9  86400094.092 8  21099773.480    21099768.640       -2261.966
     -1762.571          51.250          46.600
 111237926.757 8  86678902.586 8  21167869.580    21167867.580        1923.782
      1499.052          49.950          47.950
 120809845.487 8  94137536.826 7  22989349.960    22989344.280         559.651
       436.094          47.900          40.250
 120879325.512 8  94191666.638 7  23002567.020    23002562.200       -2917.370
     -2273.276          47.250          39.700
 121087306.851 8  94353739.909 7  23042144.240    23042138.680       -2730.043
     -2127.307          48.900          41.550
 121907380.268 8  94992750.171 7  23198199.580    23198194.400        1686.011
      1313.775          49.550          43.400
 124170976.846 8  96756598.836 7  23628950.040    23628944.560        3146.920
      2452.146          48.400          41.500
 126241469.738 8  98369963.353 7  24022951.440    24022947.560        3912.353
      3048.589          45.150          39.750
 127753027.392 8  99547795.299 7  24310592.600    24310589.980        2239.818
      1745.312          47.100          38.950
 16  9 14  1 22 30.0000000  0 10G15G13G24G18G20G28G17G19G12G10
 107468711.722 8  83741851.183 8  20450611.360    20450607.060        -576.109
      -448.916          49.250          49.200
 110948196.204 8  86453154.256 8  21112731.580    21112726.480       -2276.611
     -1773.982          49.900          47.250
 111180384.076 8  86634064.154 8  21156919.600    21156917.540        1913.291
      1490.877          48.350          48.150
 120793337.185 8  94124673.203 7  22986208.540    22986202.860         541.696
       422.102          46.550          41.200
 120967012.599 8  94259994.194 7  23019253.020    23019248.720       -2927.538
     -2281.200          45.250          40.600
 121169350.670 8  94417670.161 7  23057756.600    23057751.320       -2738.607
     -2133.979          46.950          42.400
 121857044.646 8  94953527.626 8  23188621.040    23188616.060        1670.479
      1301.675          47.700          44.700
 124076726.261 8  96683156.846 7  23611014.920    23611009.860        3137.111
      2444.502          46.600          44.000
 126124199.983 7  98278584.368 7  24000635.580    24000632.200        3906.727
      3044.205          43.350          41.000
 127686087.095 8  99495634.043 7  24297854.120    24297851.700        2223.815
      1732.844          44.650          41.250
 16  9 14  1 23  0.0000000  0 10G15G13G24G18G20G28G17G19G12G10
 107486259.410 9  83755524.692 9  20453950.500    20453946.260        -593.454
      -462.433          50.850          50.550
 111016701.487 9  86506534.980 8  21125767.860    21125762.660       -2290.261
     -1784.620          51.300          46.150
 111123131.826 8  86589452.017 8  21146024.800    21146022.860        1903.691
      1483.397          50.250          47.700
 120777344.165 8  94112211.093 7  22983165.060    22983159.720         524.656
       408.822          48.350          39.250
 121054973.601 8  94328535.207 7  23035991.500    23035987.080       -2936.351
     -2288.066          48.300          39.600
 121251629.256 8  94481783.329 7  23073413.700    23073408.540       -2746.357
     -2140.020          49.050          40.650
 121807157.719 8  94914654.713 7  23179127.560    23179123.220        1655.555
      1290.043          49.600          42.950
 123982752.022 8  96609930.194 7  23593132.320    23593127.340        3127.960
      2437.372          48.850          41.850
 126007063.787 8  98187309.373 7  23978345.540    23978341.480        3902.503
      3040.911          46.450          39.150
 127619602.354 8  99443827.756 7  24285202.540    24285199.980        2208.610
      1720.995          47.300          38.600
 16  9 14  1 23 30.0000000  0 10G15G24G13G18G20G28G17G19G12G10
 107504329.146 8  83769604.998 8  20457389.200    20457384.760        -611.969
      -476.859          49.450          49.450
 111066173.103 8  86545068.610 8  21135185.960    21135183.940        1892.884
      1474.975          48.600          48.500
 111085619.465 8  86560237.269 8  21138882.420    21138877.480       -2305.005
     -1796.109          49.800          47.200
 120761868.976 8  94100152.503 7  22980220.140    22980214.920         506.396
       394.594          46.900          41.350
 121143208.190 8  94397289.432 7  23052782.220    23052777.560       -2946.575
     -2296.032          46.200          41.050
 121334143.224 8  94546079.919 7  23089115.540    23089110.260       -2755.226
     -2146.929          47.200          42.350
 121757724.391 8  94876135.263 8  23169720.680    23169716.060        1639.337
      1277.405          47.850          45.150
 123889060.019 8  96536923.468 7  23575303.260    23575298.160        3117.353
      2429.107          45.800          43.200
 125890065.806 7  98096142.137 7  23956081.540    23956077.680        3896.791
      3036.462          44.050          41.600
 127553577.836 8  99392380.086 7  24272638.600    24272636.160        2192.335
      1708.313          45.000          40.450
 16  9 14  1 24  0.0000000  0 10G15G24G13G18G20G28G17G19G12G10
 107522919.607 8  83784091.067 8  20460927.020    20460922.440        -628.663
      -489.867          50.250          50.150
 111009507.423 8  86500913.540 8  21124402.780    21124400.700        1883.739
      1467.850          49.150          48.650
 111154947.794 9  86614259.338 8  21152075.140    21152070.300       -2317.964
     -1806.205          50.600          46.350
 120746910.923 8  94088496.868 7  22977373.760    22977368.580         489.600
       381.506          47.850          39.700
 121231711.868 8  94466253.327 7  23069623.980    23069619.280       -2954.903
     -2302.521          47.100          40.450
 121416888.860 8  94610557.052 7  23104861.560    23104856.240       -2762.364
     -2152.490          48.600          39.950
 121708745.156 8  94837969.650 7  23160400.180    23160395.880        1624.612
      1265.935          48.650          44.300
 123795652.457 8  96464138.388 7  23557528.180    23557523.020        3108.354
      2422.094          47.000          41.050
 125773206.644 8  98005083.063 7  23933844.140    23933840.140        3892.463
      3033.088          46.950          38.650
 127488014.455 8  99341291.717 7  24260162.340    24260159.460        2177.512
      1696.761          46.050          39.750
 16  9 14  1 24 30.0000000  0 10G15G24G13G18G20G28G17G19G12G10
 107542030.416 8  83798982.592 8  20464563.680    20464559.160        -645.807
      -503.227          50.300          50.200
 110953135.065 8  86456987.036 8  21113675.500    21113673.340        1874.108
      1460.345          49.850          48.750
 111224684.997 9  86668599.977 8  21165345.500    21165340.900       -2331.510
     -1816.762          50.650          46.700
 120732469.586 8  94077243.864 7  22974625.560    22974620.380         472.644
       368.293          47.800          39.950
 121320481.044 8  94535424.087 7  23086515.860    23086511.460       -2963.514
     -2309.232          47.050          40.700
 121499863.837 8  94675212.874 7  23120651.240    23120645.860       -2769.727
     -2158.228          48.350          41.650
 121660221.972 8  94800159.399 8  23151166.460    23151162.420        1609.683
      1254.299          49.050          44.650
 123702532.616 8  96391577.483 7  23539808.120    23539802.000        3099.090
      2414.873          48.050          40.150
 125656488.423 8  97914133.796 7  23911633.540    23911629.200        3888.148
      3029.726          46.800          38.950
 127422913.994 8  99290564.057 7  24247774.040    24247771.340        2162.317
      1684.921          46.200          39.750
 16  9 14  1 25  0.0000000  0 10G15G24G13G18G20G28G17G19G12G10
 107561663.607 8  83814281.176 8  20468299.780    20468295.300        -664.025
      -517.423          49.950          49.950
 110897058.747 8  86413291.207 8  21103004.600    21103002.320        1863.352
      1451.962          49.100          49.050
 111294832.296 8  86723260.180 8  21178694.080    21178689.640       -2346.018
     -1828.067          50.350          46.950
 120718547.701 8  94066395.633 7  22971976.360    22971970.760         454.504
       354.159          47.200          40.750
 121409515.315 8  94604801.429 7  23103458.480    23103454.240       -2973.120
     -2316.717          46.750          40.150
 121583067.914 8  94740047.208 7  23136484.320    23136479.300       -2778.200
     -2164.833          47.700          41.250
 121612158.853 8  94762707.661 8  23142020.320    23142016.440        1593.609
      1241.775          48.400          45.050
 123609706.167 8  96319245.175 7  23522144.020    23522137.400        3088.372
      2406.524          47.800          41.300
 125539915.372 8  97823297.668 7  23889450.580    23889446.260        3882.489
      3025.317          46.200          39.300
 127358280.804 8  99240200.535 7  24235474.400    24235472.380        2145.851
      1672.090          45.550          40.350
 16  9 14  1 25 30.0000000  0 10G15G24G13G18G20G17G28G19G12G10
 107581815.601 9  83829984.024 8  20472134.640    20472130.040        -680.892
      -530.564          50.700          50.350
 110841276.364 8  86369824.436 8  21092389.580    21092387.200        1854.098
      1444.753          50.050          48.750
 111365384.943 9  86778236.255 8  21192120.020    21192115.340       -2358.979
     -1838.166          51.300          46.700
 120705142.306 8  94055949.853 7  22969425.480    22969419.860         437.695
       341.061          48.750          40.050
 121498807.929 8  94674380.087 7  23120450.460    23120445.980       -2981.299
     -2323.090          47.800          40.000
 121564554.374 8  94725613.280 7  23132961.400    23132957.200        1578.725
      1230.177          49.450          44.050
 121666495.730 8  94805055.906 7  23152360.220    23152354.900       -2785.201
     -2170.286          49.150          40.950
 123517172.612 8  96247141.116 7  23504535.660    23504529.160        3079.057
      2399.267          49.050          41.250
 125423486.094 8  97732573.576 7  23867294.900    23867290.480        3877.955
      3021.785          47.400          38.550
 127294113.408 8  99190199.969 7  24223263.600    24223261.640        2130.629
      1660.230          47.450          40.150
 16  9 14  1 26  0.0000000  0 10G15G24G13G18G17G20G28G19G12G10
 107602488.198 8  83846092.526 8  20476068.460    20476063.900        -696.953
      -543.081          50.150          50.150
 110785789.622 8  86326588.007 8  21081830.700    21081828.420        1845.496
      1438.049          49.550          48.300
 111436343.798 9  86833528.844 8  21205623.140    21205618.340       -2371.251
     -1847.729          50.850          46.450
 120692255.240 8  94045907.972 7  22966973.200    22966967.600         421.651
       328.558          47.850          40.100
 121517412.912 8  94688879.694 7  23123990.720    23123986.360        1564.465
      1219.063          48.600          44.400
 121588357.507 8  94744158.965 7  23137491.280    23137486.840       -2988.466
     -2328.675          46.750          39.900
 121750146.882 8  94870238.620 7  23168278.600    23168273.160       -2791.322
     -2175.056          48.550          40.300
 123424937.380 8  96175269.515 7  23486983.920    23486977.560        3070.266
      2392.414          47.600          42.400
 125307204.732 8  97641964.724 7  23845167.240    23845162.780        3874.183
      3018.845          46.700          39.950
 127230415.925 8  99140565.542 7  24211142.500    24211140.360        2116.368
      1649.116          46.850          39.350
 16  9 14  1 26 30.0000000  0 10G15G24G13G18G17G20G28G19G12G10
 107623681.236 8  83862606.579 8  20480101.340    20480096.780        -715.539
      -557.563          50.300          50.300
 110730600.154 8  86283583.248 8  21071328.320    21071326.260        1834.182
      1429.232          49.300          48.750
 111507707.708 9  86889137.071 8  21219203.300    21219198.520       -2386.058
     -1859.266          50.950          46.150
 120679886.823 8  94036270.250 7  22964619.600    22964614.180         403.137
       314.133          48.000          40.450
 121470736.034 8  94652508.130 7  23115108.520    23115104.060        1547.688
      1205.992          49.450          44.100
 121678162.311 8  94814136.734 7  23154580.680    23154576.000       -2998.218
     -2336.272          47.000          39.100
 121834019.369 8  94935593.802 7  23184239.100    23184233.880       -2799.911
     -2181.749          48.850          41.350
 123333004.229 8  96103633.351 7  23469489.280    23469483.720        3058.979
      2383.623          47.100          42.600
 125191073.432 8  97551472.798 7  23823068.060    23823063.740        3867.995
      3014.022          46.050          39.000
 127167190.418 8  99091298.907 7  24199111.240    24199109.100        2099.137
      1635.689          46.750          38.950
 16  9 14  1 27  0.0000000  0 10G15G24G13G18G17G20G28G19G12G10
 107645395.308 8  83879526.625 8  20484233.340    20484228.760        -732.145
      -570.502          50.350          50.350
 110675708.668 8  86240810.667 8  21060882.820    21060880.920        1825.188
      1422.225          49.900          48.850
 111579476.139 9  86945060.515 8  21232860.360    21232855.480       -2398.563
     -1869.011          50.700          46.400
 120668037.872 8  94027037.295 7  22962364.940    22962359.260         386.752
       301.366          48.100          40.000
 121424526.726 8  94616500.899 7  23106315.260    23106310.520        1532.868
      1194.443          49.050          44.150
 121768218.639 8  94884310.460 7  23171717.840    23171713.020       -3005.710
     -2342.113          47.050          39.950
 121918111.878 8  95001120.421 7  23200241.540    23200235.940       -2806.358
     -2186.772          48.450          40.500
 123241377.163 8  96032235.670 7  23452052.960    23452047.680        3049.494
      2376.231          47.600          42.600
 125075094.852 8  97461099.897 7  23800998.120    23800993.820        3863.683
      3010.662          46.200          39.950
 127104439.661 8  99042402.217 7  24187170.180    24187168.100        2084.184
      1624.040          46.900          39.550
 16  9 14  1 27 30.0000000  0 10G15G24G13G18G17G20G28G19G12G10
 107667628.974 8  83896851.549 8  20488464.260    20488459.700        -750.350
      -584.687          50.300          50.400
 110621114.861 8  86198270.051 8  21050494.000    21050492.220        1814.169
      1413.640          49.800          49.100
 111651646.666 8  87001297.262 8  21246593.740    21246589.040       -2413.022
     -1880.277          50.450          46.300
 120656707.201 8  94018208.195 7  22960208.900    22960203.260         368.439
       287.096          48.150          40.600
 121378785.507 8  94580858.413 8  23097610.760    23097606.400        1516.371
      1181.590          48.600          44.700
 121858522.375 8  94954676.984 7  23188902.400    23188897.760       -3014.833
     -2349.221          46.850          40.000
 122002420.748 8  95066815.644 7  23216285.000    23216279.160       -2814.416
     -2193.051          48.700          40.350
 123150058.191 8  95961078.035 7  23434675.520    23434669.980        3038.162
      2367.398          47.250          42.700
 124959269.792 8  97370846.618 6  23778957.040    23778952.840        3857.729
      3006.023          46.050          38.100
 127042164.316 8  98993875.977 7  24175319.600    24175317.220        2067.347
      1610.918          46.650          39.450
 16  9 14  1 28  0.0000000  0 10G15G24G13G18G17G20G28G19G12G10
 107690384.071 8  83914582.790 8  20492794.420    20492789.960        -766.601
      -597.351          50.350          50.350
 110566821.220 8  86155963.323 8  21040162.320    21040160.440        1805.464
      1406.855          49.950          48.700
 111724220.513 8  87057848.285 8  21260403.820    21260399.340       -2425.137
     -1889.718          50.300          46.450
 120645897.346 8  94009784.919 7  22958151.900    22958146.300         352.244
       274.477          47.900          40.350
 121333516.559 8  94545583.930 7  23088996.280    23088992.020        1501.635
      1170.106          49.250          44.250
 121949072.908 8  95025235.829 7  23206133.520    23206128.740       -3021.836
     -2354.678          46.650          39.450
 122086946.044 8  95132679.509 7  23232369.620    23232364.180       -2820.416
     -2197.728          48.050          41.550
 123059053.063 8  95890164.988 7  23417357.640    23417352.140        3028.919
      2360.196          48.350          40.650
 124843602.849 8  97280716.565 7  23756946.480    23756942.240        3853.593
      3002.800          46.950          39.550
 126980368.659 8  98945723.509 7  24163560.260    24163557.560        2052.441
      1599.305          46.550          39.450
 16  9 14  1 28 30.0000000  0 10G15G24G13G18G17G20G28G19G12G10
 107713653.852 9  83932715.078 9  20497222.600    20497218.120        -784.035
      -610.937          50.650          50.600
 110512822.220 8  86113886.187 8  21029886.560    21029884.600        1795.085
      1398.769          49.400          48.900
 111797190.073 9  87114707.656 8  21274289.380    21274285.280       -2438.771
     -1900.341          50.700          46.000
 120635602.201 8  94001762.724 7  22956192.800    22956187.260         334.819
       260.898          47.950          40.500
 121288715.526 8  94510674.064 8  23080470.960    23080467.040        1485.698
      1157.688          49.150          44.900
 122039861.037 8  95095979.793 7  23223409.820    23223405.340       -3030.069
     -2361.093          47.250          39.050
 122171679.471 8  95198705.541 7  23248493.700    23248488.400       -2827.772
     -2203.458          48.150          40.700
 122968358.755 8  95819494.088 7  23400099.280    23400093.020        3018.204
      2351.847          48.450          41.300
 124728089.770 8  97190706.362 6  23734965.060    23734960.320        3847.970
      2998.418          46.300          37.250
 126919048.426 8  98897941.486 7  24151891.580    24151889.060        2036.151
      1586.610          46.850          39.300
 16  9 14  1 29  0.0000000  0 10G15G24G13G18G17G20G28G19G12G10
 107737449.270 9  83951256.954 9  20501750.840    20501746.320        -801.467
      -624.520          50.700          50.700
 110459129.504 8  86072047.720 8  21019669.120    21019667.240        1785.063
      1390.959          50.000          48.750
 111870564.315 9  87171882.365 8  21288252.100    21288248.000       -2452.014
     -1910.660          50.800          46.450
 120625832.362 8  93994149.848 7  22954333.500    22954328.160         317.451
       247.365          47.750          40.650
 121244394.972 8  94476138.581 8  23072037.020    23072033.180        1469.747
      1145.259          49.000          44.700
 122130894.150 8  95166914.668 7  23240732.780    23240728.520       -3037.903
     -2367.199          46.800          39.250
 122256629.261 8  95264900.183 7  23264658.900    23264653.500       -2834.756
     -2208.900          48.300          40.900
 122877989.521 8  95749076.519 7  23382902.740    23382896.640        3007.413
      2343.441          48.400          41.850
 124612743.231 8  97100825.946 7  23713015.440    23713010.960        3842.603
      2994.233          46.300          39.050
 126858216.251 8  98850539.793 7  24140315.520    24140313.000        2020.216
      1574.193          46.750          38.750
 16  9 14  1 29 30.0000000  0 10G15G24G13G18G17G20G28G19G12G10
 107761761.670 8  83970201.669 8  20506377.360    20506372.740        -818.703
      -637.951          50.350          50.350
 110405735.044 8  86030441.644 8  21009508.660    21009506.600        1775.288
      1383.341          50.100          49.250
 111944333.783 9  87229365.051 8  21302290.040    21302285.780       -2465.045
     -1920.815          50.700          46.350
 120616579.889 8  93986940.106 7  22952572.560    22952567.300         300.179
       233.904          47.750          40.050
 121200548.273 8  94441972.359 8  23063693.020    23063689.320        1454.161
      1133.114          48.900          45.200
 122222160.905 8  95238031.618 7  23258100.120    23258095.800       -3045.604
     -2373.196          47.550          39.200
 122341784.835 8  95331255.170 7  23280863.440    23280857.940       -2841.450
     -2214.117          48.000          40.550
 122787940.103 8  95678908.160 7  23365766.960    23365761.060        2996.688
      2335.083          47.650          42.850
 124497556.716 8  97011070.234 7  23691096.180    23691091.820        3837.374
      2990.161          46.600          38.650
 126797865.647 8  98803513.369 7  24128831.040    24128828.460        2004.160
      1561.684          46.350          39.950
 16  9 14  1 30  0.0000000  0 10G15G24G13G18G17G20G28G19G12G10
 107786592.919 9  83989550.682 9  20511102.560    20511097.880        -837.305
      -652.446          50.650          50.550
 110352641.629 8  85989070.154 8  20999405.440    20999403.300        1763.590
      1374.226          50.350          48.750
 112018500.101 9  87287156.975 8  21316403.540    21316399.140       -2479.993
     -1932.461          50.800          46.050
 120607846.638 8  93980134.949 7  22950910.580    22950905.440         281.378
       219.253          48.050          39.550
 121157179.726 8  94408178.723 7  23055440.160    23055436.380        1436.617
      1119.442          49.650          44.150
 122313660.224 8  95309329.770 7  23275511.880    23275507.620       -3054.841
     -2380.395          47.500          39.000
 122427146.649 8  95397770.852 7  23297107.000    23297102.000       -2849.795
     -2220.620          48.600          39.950
 122698216.318 8  95608993.535 7  23348693.020    23348687.220        2984.319
      2325.442          48.450          42.200
 124382534.406 8  96921442.462 7  23669207.980    23669203.580        3830.409
      2984.735          46.100          38.750
 126738000.937 8  98756865.552 7  24117439.080    24117436.780        1986.153
      1547.652          46.350          39.800
 16  9 14  1 30 30.0000000  0 10G15G24G13G18G17G20G28G19G12G10
 107811944.393 8  84009305.067 8  20515926.740    20515922.080        -853.716
      -665.233          50.300          50.200
 110299852.404 8  85947935.699 8  20989359.960    20989357.760        1754.550
      1367.182          49.950          48.800
 112093063.541 8  87345258.324 8  21330592.400    21330588.120       -2492.046
     -1941.855          50.300          45.750
 120599634.620 8  93973735.966 7  22949347.920    22949342.620         265.104
       206.574          47.800          40.000
 121114293.140 8  94374760.622 7  23047279.200    23047275.160        1421.541
      1107.695          48.800          44.000
 122405391.220 8  95380808.443 6  23292967.800    23292963.620       -3061.536
     -2385.614          47.400          38.300
 122512714.276 8  95464446.933 7  23313390.020    23313384.840       -2855.755
     -2225.264          48.300          40.050
 122608823.288 8  95539336.665 7  23331682.080    23331676.440        2974.250
      2317.599          48.100          42.250
 124267680.550 8  96831945.973 7  23647351.960    23647347.620        3825.742
      2981.099          46.300          39.250
 126678625.866 8  98710599.286 7  24106140.160    24106138.340        1970.912
      1535.777          46.000          40.000
 16  9 14  1 31  0.0000000  0 10G15G24G13G18G17G20G19G28G12G10
 107837809.882 8  84029459.994 8  20520848.680    20520844.180        -870.049
      -677.960          49.900          49.900
 110247361.412 8  85907033.636 8  20979371.160    20979368.960        1745.579
      1360.191          49.550          49.200
 112168016.900 8  87403663.521 8  21344855.480    21344851.000       -2504.230
     -1951.349          50.050          45.750
 120591938.119 8  93967738.680 7  22947883.460    22947878.000         248.747
       193.828          47.700          40.750
 121071884.447 8  94341714.908 8  23039209.060    23039205.100        1406.446
      1095.934          48.650          45.050
 122497344.955 8  95452460.704 7  23310466.360    23310461.680       -3068.090
     -2390.719          46.900          39.550
 122519758.601 8  95469935.631 7  23314733.860    23314728.000        2963.986
      2309.603          48.350          42.750
 122598479.776 8  95531277.207 7  23329710.720    23329705.500       -2861.400
     -2229.662          47.950          40.350
 124152992.068 8  96742578.337 7  23625527.600    23625522.900        3820.937
      2977.353          46.450          39.750
 126619736.585 8  98664711.525 7  24094934.140    24094932.000        1955.735
      1523.950          46.700          41.200
 16  9 14  1 31 30.0000000  0 10G15G24G13G18G17G19G20G28G12G10
 107864193.939 8  84050018.978 8  20525869.280    20525864.900        -888.657
      -692.461          50.100          50.150
 110195174.288 8  85866368.359 8  20969440.260    20969438.000        1733.852
      1351.054          50.000          49.000
 112243363.675 9  87462375.263 8  21359193.560    21359188.860       -2518.679
     -1962.607          50.650          46.100
 120584761.800 8  93962146.737 7  22946518.080    22946512.520         229.996
       179.218          48.050          40.150
 121029959.974 8  94309046.518 8  23031231.040    23031227.340        1388.974
      1082.317          48.850          45.100
 122431030.330 8  95400796.723 7  23297849.620    23297843.440        2951.459
      2299.839          48.350          42.750
 122589522.936 8  95524287.688 7  23328007.260    23328002.520       -3076.941
     -2397.618          46.900          39.950
 122684445.666 8  95598263.572 7  23346069.180    23346064.700       -2869.275
     -2235.801          47.850          40.350
 124038475.247 8  96653344.438 7  23603735.940    23603731.060        3813.799
      2971.790          47.450          39.550
 126561339.641 8  98619207.406 7  24083821.760    24083819.460        1937.732
      1509.921          47.100          39.800
 16  9 14  1 32  0.0000000  0 10G15G24G13G18G17G19G20G28G12G10
 107891098.987 8  84070983.941 8  20530989.020    20530984.800        -905.789
      -705.810          49.850          49.750
 110143294.752 8  85825942.734 8  20959568.000    20959565.760        1723.919
      1343.313          50.100          48.900
 112319105.200 8  87521394.623 8  21373606.840    21373602.140       -2531.517
     -1972.610          50.350          45.750
 120578108.563 8  93956962.370 7  22945252.120    22945246.480         212.910
       165.903          48.100          39.950
 120988524.594 8  94276759.242 8  23023346.160    23023342.660        1372.786
      1069.706          48.850          44.900
 122342644.951 8  95331925.015 7  23281030.400    23281023.980        2940.136
      2291.016          48.350          42.350
 122681925.125 8  95596289.382 7  23345590.780    23345586.180       -3084.070
     -2403.170          47.000          39.200
 122770612.735 8  95665406.741 7  23362466.420    23362461.640       -2875.749
     -2240.843          48.300          39.750
 123924135.055 8  96564248.212 7  23581977.740    23581972.920        3808.089
      2967.343          47.400          39.250
 126503439.886 8  98574090.712 7  24072803.720    24072801.700        1921.535
      1497.301          46.950          40.500
 16  9 14  1 32 30.0000000  0 10G15G24G13G18G17G19G20G28G12G10
 107918519.239 8  84092350.359 8  20536206.880    20536202.700        -922.521
      -718.848          49.950          50.000
 110091717.480 8  85785752.671 8  20949753.100    20949751.060        1714.210
      1335.749          49.550          49.300
 112395234.878 9  87580716.425 8  21388093.880    21388089.120       -2544.009
     -1982.344          50.600          45.900
 120571972.726 8  93952181.196 7  22944084.440    22944079.040         196.021
       152.744          47.800          40.050
 120947574.294 8  94244849.938 8  23015553.560    23015550.040        1356.957
      1057.371          49.250          44.700
 122254599.790 8  95263318.412 7  23264276.080    23264269.580        2929.260
      2282.541          48.700          41.950
 122774542.547 8  95668458.788 7  23363215.420    23363210.620       -3090.763
     -2408.386          47.350          38.600
 122856973.052 8  95732700.503 7  23378900.360    23378895.020       -2881.879
     -2245.619          48.300          39.900
 123809967.849 8  96475286.769 7  23560252.460    23560247.560        3802.777
      2963.205          47.350          38.800
 126446033.403 8  98529358.392 7  24061879.660    24061877.820        1905.308
      1484.654          46.750          40.950
 16  9 14  1 33  0.0000000  0 10G15G24G13G18G17G19G20G28G12G10
 107946460.828 9  84114123.017 8  20541524.040    20541519.800        -939.458
      -732.045          50.600          50.200
 110040450.027 8  85745804.000 8  20939997.260    20939995.140        1704.461
      1328.152          50.150          48.900
 112471757.822 9  87640344.672 8  21402655.840    21402650.980       -2556.647
     -1992.192          51.000          45.500
 120566360.789 8  93947808.244 7  22943016.500    22943011.120         178.947
       139.438          48.250          39.650
 120907117.558 8  94213325.226 7  23007855.200    23007850.940        1340.960
      1044.904          49.650          43.700
 122166904.948 8  95194984.784 7  23247588.180    23247582.080        2917.894
      2273.686          48.150          41.250
 122867378.745 8  95740798.669 7  23380881.560    23380877.020       -3097.501
     -2413.638          47.050          38.850
 122943531.104 8  95800148.335 7  23395371.880    23395366.740       -2887.915
     -2250.322          48.700          39.400
 123695982.272 8  96386466.839 7  23538561.860    23538556.740        3797.118
      2958.795          47.700          39.400
 126389128.752 8  98485017.100 7  24051051.080    24051048.800        1889.163
      1472.075          46.900          39.600
 16  9 14  1 33 30.0000000  0 10G15G24G13G18G17G19G20G28G12G10
 107974916.443 9  84136296.213 8  20546939.100    20546934.660        -957.421
      -746.042          50.950          49.850
 109989486.133 8  85706091.887 8  20930299.100    20930296.980        1693.408
      1319.540          50.300          48.300
 112548665.918 9  87700273.046 8  21417291.100    21417286.120       -2570.263
     -2002.802          51.250          45.200
 120561265.959 8  93943838.238 7  22942046.940    22942041.660         160.822
       125.317          48.650          39.000
 120867149.290 8  94182181.142 7  23000249.620    23000244.580        1323.860
      1031.581          49.950          43.600
 122079556.931 8  95126921.414 7  23230965.820    23230960.300        2905.566
      2264.077          48.650          40.750
 122960424.201 8  95813301.616 6  23398587.400    23398582.820       -3105.397
     -2419.789          47.400          37.300
 123030278.066 8  95867743.348 7  23411879.380    23411874.400       -2895.063
     -2255.894          48.350          39.400
 123582173.533 8  96297784.723 7  23516904.760    23516899.760        3790.250
      2953.443          47.950          39.600
 126332720.967 8  98441062.992 7  24040317.040    24040314.900        1871.695
      1458.465          47.800          40.400
 16  9 14  1 34  0.0000000  0 10G15G24G13G18G17G19G20G28G12G10
 108003889.689 8  84158872.757 8  20552452.600    20552448.080        -974.526
      -759.371          50.050          50.050
 109938830.137 8  85666619.684 8  20920659.560    20920657.440        1683.383
      1311.728          49.900          48.950
 112625961.751 8  87760503.543 8  21431999.980    21431995.260       -2583.025
     -2012.747          50.450          45.650
 120556691.687 8  93940273.868 7  22941176.300    22941171.060         143.740
       112.007          47.400          39.600
 120827674.985 8  94151421.968 8  22992737.860    22992732.780        1307.462
      1018.803          49.250          44.600
 121992562.985 8  95059133.942 7  23214411.220    23214405.840        2893.709
      2254.838          47.650          43.800
 123053679.503 8  95885968.069 7  23416333.080    23416328.560       -3112.105
     -2425.017          46.750          38.550
 123117215.622 8  95935486.886 7  23428423.000    23428417.660       -2901.163
     -2260.646          47.850          40.000
 123468547.464 8  96209244.937 7  23495282.460    23495277.720        3784.341
      2948.838          47.000          40.950
 126276815.725 8  98397500.455 7  24029678.800    24029676.520        1855.073
      1445.510          47.000          40.800
 16  9 14  1 34 30.0000000  0 10G15G24G13G18G17G19G20G28G12G10
 108033377.241 8  84181850.068 8  20558063.960    20558059.420        -991.437
      -772.548          50.200          50.250
 109888479.601 8  85627385.502 8  20911078.160    20911076.080        1673.176
      1303.774          50.000          49.000
 112703641.225 8  87821032.985 8  21446781.820    21446777.180       -2595.794
     -2022.697          50.400          45.700
 120552635.338 8  93937113.063 7  22940404.380    22940399.160         126.509
        98.577          48.100          39.100
 120788693.773 8  94121047.024 8  22985320.200    22985315.540        1291.184
      1006.118          49.450          44.900
 121905923.693 8  94991622.837 7  23197924.260    23197919.300        2882.054
      2245.757          48.200          43.300
 123147138.635 8  95958793.356 6  23434117.800    23434113.160       -3118.552
     -2430.040          47.350          37.700
 123204338.876 8  96003375.146 7  23445002.240    23444996.700       -2907.267
     -2265.403          48.100          39.550
 123355103.716 8  96120847.221 7  23473694.860    23473690.100        3778.353
      2944.170          48.400          40.850
 126221412.085 8  98354328.798 7  24019135.820    24019133.140        1838.367
      1432.494          47.100          39.900
 16  9 14  1 35  0.0000000  0 10G15G24G13G18G17G19G20G12G28G10
 108063381.171 8  84205229.751 8  20563773.560    20563769.040       -1008.358
      -785.733          50.400          50.300
 109838438.639 8  85588392.547 8  20901555.660    20901553.700        1663.287
      1296.067          49.850          49.050
 112781705.534 9  87881862.284 8  21461636.740    21461632.300       -2608.085
     -2032.275          50.600          45.050
 120549099.282 8  93934357.693 7  22939731.620    22939726.140         109.554
        85.367          47.900          39.400
 120750209.850 8  94091059.564 8  22977996.960    22977992.740        1274.993
       993.502          49.300          44.800
 121819644.876 8  94924392.616 7  23181505.760    23181500.880        2870.525
      2236.774          47.500          43.750
 123240801.024 8  96031777.038 7  23451941.260    23451936.360       -3125.168
     -2435.194          47.550          39.000
 123241846.789 8  96032595.100 7  23452142.760    23452137.820        3772.548
      2939.648          48.300          40.900
 123291648.230 8  96071408.401 7  23461616.700    23461611.640       -2912.921
     -2269.809          48.250          40.000
 126166514.346 8  98311551.337 7  24008689.020    24008686.000        1821.940
      1419.694          47.000          40.300
 16  9 14  1 35 30.0000000  0 10G15G24G13G18G17G19G12G20G28G10
 108093902.028 8  84229012.223 8  20569581.500    20569577.020       -1025.035
      -798.729          50.350          50.250
 109788708.341 8  85549641.680 8  20892092.240    20892090.260        1653.522
      1288.460          49.450          49.400
 112860154.206 8  87942991.107 8  21476564.980    21476560.500       -2620.402
     -2041.872          50.400          45.500
 120546084.829 8  93932008.761 7  22939157.960    22939152.620          92.713
        72.243          47.600          39.750
 120712225.481 8  94061461.371 8  22970768.480    22970764.100        1258.741
       980.838          48.850          45.200
 121733730.869 8  94857446.663 7  23165156.800    23165151.900        2858.727
      2227.581          47.700          43.150
 123128779.987 8  95944491.100 7  23430626.880    23430622.200        3766.677
      2935.074          48.000          41.550
 123334664.931 8  96104917.716 7  23469802.860    23469798.560       -3131.363
     -2440.024          47.300          38.550
 123379142.760 8  96139585.938 6  23478266.380    23478260.720       -2918.550
     -2274.195          48.000          38.400
 126112125.414 8  98269170.347 7  23998339.200    23998336.120        1805.586
      1406.950          47.100          40.300
 16  9 14  1 36  0.0000000  0 10G15G24G13G18G17G19G12G20G28G10
 108124936.257 8  84253194.719 8  20575487.100    20575482.680       -1043.480
      -813.103          50.100          50.050
 109739286.393 8  85511131.065 8  20882687.520    20882685.500        1641.868
      1279.378          49.600          49.450
 112938982.647 9  88004415.846 8  21491565.640    21491561.120       -2634.421
     -2052.796          50.750          45.400
 120543587.609 8  93930062.862 7  22938682.820    22938677.420          74.136
        57.768          47.950          39.650
 120674739.487 8  94032251.528 8  22963635.000    22963630.660        1240.694
       966.776          49.450          44.700
 121648181.798 8  94790785.049 7  23148877.400    23148872.000        2845.138
      2216.991          47.700          43.500
 123015901.636 8  95856533.958 7  23409146.680    23409142.020        3758.988
      2929.084          48.300          41.100
 123428724.075 8  96178210.535 7  23487701.800    23487697.360       -3139.097
     -2446.050          47.850          40.350
 123466816.983 8  96207903.523 7  23494950.200    23494944.580       -2925.934
     -2279.949          47.600          39.550
 126058243.765 8  98227184.654 7  23988085.780    23988083.100        1787.104
      1392.552          46.550          40.150
 16  9 14  1 36 30.0000000  0 10G15G24G13G18G17G19G12G20G28G10
 108156484.088 8  84277777.440 8  20581490.420    20581486.080       -1060.302
      -826.209          50.250          50.200
 109690173.830 8  85472861.545 8  20873341.740    20873339.640        1631.851
      1271.571          50.000          49.200
 113018190.651 9  88066136.368 8  21506638.680    21506633.860       -2646.850
     -2062.480          50.500          45.350
 120541608.970 8  93928521.053 7  22938306.400    22938300.900          57.009
        44.423          47.900          40.150
 120637754.808 8  94003432.328 7  22956597.000    22956592.620        1224.259
       953.970          49.300          44.350
 121563002.058 8  94724411.259 7  23132668.240    23132662.640        2832.994
      2207.529          47.600          42.700
 122903215.065 8  95768726.246 7  23387703.160    23387698.500        3752.774
      2924.240          48.500          41.400
 123522976.249 8  96251653.786 7  23505637.580    23505632.840       -3145.199
     -2450.804          47.750          39.350
 123554669.925 8  96276360.341 7  23511667.900    23511662.880       -2931.510
     -2284.293          47.950          39.700
 126004872.179 8  98185596.385 7  23977929.320    23977926.720        1770.275
      1379.434          46.300          40.200
 16  9 14  1 37  0.0000000  0 10G15G24G13G18G17G19G12G20G28G10
 108188547.077 8  84302761.577 8  20587591.800    20587587.440       -1078.298
      -840.232          49.850          49.900
 109641373.216 8  85434835.097 8  20864055.400    20864053.260        1620.403
      1262.652          49.300          49.200
 113097778.447 8  88128152.812 8  21521783.700    21521778.920       -2660.201
     -2072.885          50.200          45.650
 120540150.485 8  93927384.567 7  22938028.740    22938023.300          38.941
        30.344          46.850          39.700
 120601274.509 8  93975006.144 8  22949654.780    22949650.960        1206.521
       940.146          48.600          45.100
 121478196.592 8  94658329.094 7  23116530.080    23116525.040        2819.591
      2197.084          46.700          43.800
 122790724.320 8  95681071.139 7  23366296.960    23366292.480        3745.443
      2918.527          47.850          42.650
 123617420.162 8  96325246.433 7  23523609.740    23523605.040       -3152.211
     -2456.269          47.350          38.650
 123642701.250 8  96344956.169 7  23528419.800    23528414.540       -2938.292
     -2289.578          47.300          39.350
 125952014.048 8  98144408.241 7  23967870.540    23967868.620        1752.305
      1365.432          45.750          41.200
 16  9 14  1 37 30.0000000  0 10G15G24G13G18G17G19G12G20G28G10
 108221122.974 8  84328145.376 8  20593790.800    20593786.300       -1094.265
      -852.674          50.150          50.150
 109592883.937 8  85397051.243 8  20854828.300    20854826.040        1611.173
      1255.460          50.000          49.300
 113177742.832 8  88190462.700 8  21537000.400    21536995.840       -2671.657
     -2081.813          50.250          45.500
 120539210.057 8  93926651.741 7  22937849.820    22937844.440          22.886
        17.832          47.800          39.650
 120565298.323 8  93946972.771 8  22942808.580    22942804.900        1190.945
       928.011          48.850          44.750
 121393766.862 8  94592539.704 7  23100463.520    23100458.440        2808.173
      2188.188          47.850          42.500
 122678429.139 8  95593568.404 7  23344927.880    23344923.320        3739.977
      2914.270          48.400          41.200
 123712050.815 8  96398984.587 7  23541617.200    23541612.440       -3157.207
     -2460.161          47.350          39.050
 123730907.122 8  96413688.016 7  23545204.860    23545199.600       -2942.888
     -2293.158          47.900          38.800
 125899669.380 8  98103620.185 7  23957909.780    23957907.980        1736.486
      1353.105          46.650          40.800
 16  9 14  1 38  0.0000000  0 10G15G24G13G17G18G19G12G20G28G10
 108254211.530 9  84353928.657 8  20600087.300    20600082.820       -1112.082
      -866.557          50.550          50.100
 109544706.482 8  85359510.375 8  20845660.480    20845658.220        1600.052
      1246.794          50.200          49.200
 113258082.941 9  88253065.360 8  21552288.580    21552284.240       -2684.738
     -2092.003          50.800          45.300
 120529828.203 8  93919333.737 8  22936058.680    22936054.820        1173.405
       914.341          49.000          44.550
 120538787.710 8  93926322.615 7  22937769.500    22937764.380           4.816
         3.752          48.100          40.550
 121309716.561 8  94527045.994 7  23084469.360    23084464.200        2794.667
      2177.666          48.600          42.800
 122566332.401 8  95506220.307 7  23323596.340    23323591.780        3732.603
      2908.523          48.450          41.000
 123806865.533 8  96472866.166 7  23559659.700    23559655.240       -3164.178
     -2465.593          47.800          39.550
 123819285.739 8  96482554.464 7  23562022.720    23562017.460       -2949.500
     -2298.311          48.350          38.900
 125847840.237 8  98063233.843 7  23948047.160    23948045.240        1718.463
      1339.062          47.400          41.000
 16  9 14  1 38 30.0000000  0 10G15G24G13G17G18G19G12G20G28G10
 108287812.324 9  84380111.084 8  20606481.260    20606476.900       -1128.791
      -879.577          50.550          50.300
 109496842.257 8  85322213.581 8  20836552.140    20836550.060        1589.956
      1238.927          50.200          48.950
 113338797.724 9  88315959.968 8  21567647.880    21567643.760       -2697.072
     -2101.616          50.550          45.250
 120494866.386 8  93892090.789 7  22929405.640    22929401.660        1156.662
       901.296          49.700          44.000
 120538883.654 8  93926397.368 7  22937787.780    22937782.660         -11.997
        -9.349          48.350          40.000
 121226049.770 8  94461851.095 7  23068548.220    23068542.860        2782.229
      2167.973          48.950          43.150
 122454436.647 8  95419028.825 7  23302303.200    23302298.540        3726.180
      2903.517          48.700          40.700
 123901861.826 8  96546889.235 7  23577737.180    23577732.460       -3169.757
     -2469.940          47.950          38.950
 123907835.349 8  96551554.160 7  23578873.260    23578867.760       -2954.600
     -2302.286          47.850          39.300
 125796528.918 8  98023250.985 7  23938282.920    23938281.000        1701.533
      1325.870          47.150          40.300
 16  9 14  1 39  0.0000000  0 10G15G24G13G17G18G19G12G28G20G10
 108321925.492 9  84406692.752 8  20612972.740    20612968.480       -1146.164
      -893.116          50.550          50.200
 109449292.300 8  85285161.670 8  20827503.560    20827501.560        1579.289
      1230.615          49.950          49.250
 113419886.009 9  88379145.630 8  21583078.340    21583074.360       -2709.644
     -2111.411          50.600          45.100
 120460414.542 8  93865245.221 8  22922849.720    22922845.780        1139.341
       887.798          49.550          44.700
 120539498.025 8  93926876.079 7  22937904.840    22937899.680         -29.497
       -22.986          48.400          39.950
 121142769.636 8  94396957.501 7  23052700.680    23052695.340        2769.066
      2157.716          48.350          43.250
 122342744.079 8  95331995.659 7  23281048.800    23281044.140        3719.287
      2898.146          48.300          40.300
 123996554.208 8  96620685.710 7  23595755.740    23595750.500       -2960.653
     -2307.004          47.500          40.150
 123997037.011 8  96621051.690 7  23595848.440    23595843.640       -3175.908
     -2474.734          47.600          38.800
 125745737.210 8  97983673.025 7  23928617.380    23928615.660        1684.038
      1312.238          46.950          41.150
 16  9 14  1 39 30.0000000  0 10G15G24G13G17G18G19G12G28G20G10
 108356548.477 8  84433671.706 8  20619561.280    20619557.020       -1162.551
      -905.883          50.300          50.200
 109402055.275 8  85248353.611 8  20818514.600    20818512.700        1569.390
      1222.901          49.700          49.550
 113501345.141 9  88442620.270 8  21598579.600    21598575.400       -2721.394
     -2120.567          50.750          45.200
 120426472.347 8  93838796.786 8  22916390.900    22916387.280        1122.944
       875.023          49.600          45.400
 120540628.851 8  93927757.240 7  22938120.140    22938114.820         -46.245
       -36.035          48.000          39.750
 121059878.020 8  94332366.654 7  23036927.000    23036921.520        2756.545
      2147.958          48.700          43.300
 122231254.841 8  95245120.944 7  23259833.100    23259828.420        3712.914
      2893.181          48.100          40.450
 124085438.826 8  96689946.462 7  23612670.040    23612664.720       -2965.414
     -2310.711          47.750          39.100
 124092386.458 8  96695349.936 7  23613992.780    23613988.000       -3181.063
     -2478.752          46.700          38.750
 125695465.187 8  97944500.003 7  23919050.760    23919049.300        1666.957
      1298.927          46.400          39.750
 16  9 14  1 40  0.0000000  0 10G15G24G13G17G18G19G12G28G20G10
 108391681.574 8  84461048.124 8  20626246.960    20626242.600       -1179.199
      -918.857          49.300          49.100
 109355132.375 8  85211790.315 8  20809585.400    20809583.420        1559.202
      1214.963          49.050          48.850
 113583174.036 8  88506383.029 8  21614151.360    21614146.980       -2733.420
     -2129.938          49.900          45.700
 120393042.657 8  93812747.705 8  22910029.440    22910025.760        1106.106
       861.901          48.000          46.550
 120542276.594 8  93929041.191 7  22938433.700    22938428.220         -63.182
       -49.231          46.900          40.750
 120977378.995 8  94268081.730 8  23021228.080    23021222.860        2743.646
      2137.908          46.850          45.050
 122119972.326 8  95158407.315 7  23238656.560    23238651.980        3706.302
      2888.027          46.600          42.000
 124174488.082 8  96759335.476 7  23629615.380    23629609.880       -2970.792
     -2314.901          46.400          39.750
 124187907.575 8  96769781.950 7  23632169.800    23632165.160       -3186.501
     -2482.989          45.450          39.850
 125645715.262 8  97905733.809 7  23909583.500    23909581.920        1650.005
      1285.718          45.000          42.650
 16  9 14  1 40 30.0000000  0 10G15G24G13G17G18G19G12G28G20G10
 108427327.276 8  84488823.983 8  20633030.200    20633025.700       -1196.318
      -932.197          49.300          49.300
 109308527.567 8  85175474.882 8  20800716.820    20800714.880        1548.445
      1206.581          48.900          48.850
 113665374.129 8  88570435.033 8  21629793.600    21629788.960       -2745.881
     -2139.647          49.700          46.250
 120360129.702 8  93787101.267 8  22903766.360    22903762.460        1088.883
       848.480          48.300          47.000
 120544443.636 8  93930729.791 7  22938846.040    22938840.260         -80.560
       -62.773          47.050          41.100
 120895278.798 8  94204107.578 8  23005604.820    23005599.620        2730.368
      2127.561          46.950          45.350
 122008901.213 8  95071858.394 7  23217520.440    23217515.980        3699.220
      2882.509          47.150          41.600
 124263702.641 8  96828853.308 7  23646592.380    23646586.800       -2976.172
     -2319.095          46.250          39.800
 124283600.467 8  96844347.832 7  23650379.580    23650375.160       -3192.349
     -2487.546          45.300          40.600
 125596492.022 8  97867378.042 7  23900216.840    23900215.060        1632.357
      1271.967          45.450          41.900
 16  9 14  1 41  0.0000000  0 10G15G24G13G17G18G19G12G28G20G10
 108463480.598 9  84516995.399 8  20639909.960    20639905.600       -1213.992
      -945.968          50.700          49.450
 109262237.458 8  85139404.675 8  20791908.060    20791906.280        1537.363
      1197.946          50.250          48.850
 113747939.856 9  88634771.941 7  21645505.220    21645500.780       -2758.689
     -2149.629          50.700          44.300
 120327730.493 8  93761855.145 7  22897601.300    22897596.560        1070.868
       834.444          50.050          44.250
 120547125.496 8  93932819.540 7  22939356.340    22939350.440         -98.423
       -76.691          48.600          38.800
 120813576.090 8  94140443.156 7  22990057.400    22990052.180        2716.354
      2116.640          48.950          43.300
 121898039.170 8  94985472.400 7  23196424.220    23196419.840        3691.449
      2876.455          48.900          40.000
 124353076.040 8  96898494.926 6  23663599.620    23663593.580       -2982.123
     -2323.731          47.650          37.950
 124379457.863 8  96919041.884 6  23668620.340    23668616.100       -3198.251
     -2492.144          46.750          35.950
 125547792.715 8  97829430.543 7  23890949.840    23890947.720        1614.138
      1257.771          47.500          40.150
 16  9 14  1 41 30.0000000  0 10G15G24G13G17G18G19G12G28G20G10
 108500140.036 9  84545561.187 8  20646885.920    20646881.640       -1230.451
      -958.792          50.800          49.550
 109216261.770 8  85103579.474 8  20783159.180    20783157.380        1527.203
      1190.029          50.300          49.100
 113830869.077 9  88699392.096 7  21661285.740    21661281.720       -2770.475
     -2158.812          50.800          43.850
 120295845.752 8  93737009.919 8  22891534.080    22891529.040        1054.112
       821.388          50.350          44.600
 120550320.926 8  93935309.483 6  22939964.380    22939958.680        -115.186
       -89.755          48.950          38.200
 120732273.762 8  94077090.726 7  22974586.080    22974580.740        2703.200
      2106.391          49.550          42.800
 121787387.824 8  94899250.584 7  23175367.940    23175363.460        3684.768
      2871.247          49.350          39.900
 124442605.830 8  96968258.368 7  23680636.480    23680631.140       -2987.044
     -2327.568          47.900          38.800
 124475475.604 8  96993860.878 6  23686891.660    23686887.880       -3203.456
     -2496.200          47.150          36.900
 125499618.236 8  97791891.982 7  23881782.740    23881780.440        1596.949
      1244.378          48.300          40.700
 16  9 14  1 42  0.0000000  0 10G15G24G13G17G18G19G12G28G20G10
 108537309.535 8  84574524.414 8  20653959.000    20653954.680       -1247.885
      -972.378          50.250          50.100
 109170605.147 8  85068002.884 8  20774471.040    20774469.160        1516.184
      1181.441          49.850          49.700
 113914164.868 8  88764297.883 8  21677136.380    21677132.480       -2783.007
     -2168.577          50.300          44.900
 120264481.624 8  93712570.351 8  22885565.520    22885560.980        1036.436
       807.613          49.500          45.200
 120554034.073 8  93938202.822 7  22940670.860    22940665.340        -132.674
      -103.382          47.700          39.550
 120651379.331 8  94014056.126 7  22959192.420    22959186.860        2689.298
      2095.559          48.950          43.600
 121676953.566 8  94813197.928 7  23154352.960    23154348.700        3677.088
      2865.264          48.350          41.750
 124532294.440 8  97038145.586 6  23697703.860    23697698.640       -2992.563
     -2331.867          47.150          38.400
 124571655.496 8  97068806.245 6  23705194.040    23705189.840       -3209.142
     -2500.628          46.300          36.850
 125451974.729 8  97754767.146 7  23872716.880    23872714.500        1578.938
      1230.342          48.050          41.000
 16  9 14  1 42 30.0000000  0 10G15G24G13G17G18G19G12G28G20G10
 108574987.361 8  84603883.758 8  20661128.900    20661124.480       -1263.660
      -984.670          49.600          49.550
 109125267.856 8  85032675.132 8  20765843.700    20765841.620        1506.665
      1174.025          49.400          49.250
 113997824.775 8  88829487.399 8  21693056.440    21693052.320       -2794.053
     -2177.186          49.950          45.400
 120233638.402 8  93688536.710 8  22879695.900    22879691.880        1020.284
       795.029          48.400          46.650
 120558263.439 8  93941498.432 7  22941475.380    22941470.140        -148.902
      -116.025          46.500          39.400
 120570895.031 8  93951341.096 8  22943876.840    22943871.060        2676.664
      2085.713          47.900          44.550
 121566737.287 8  94727315.120 7  23133379.540    23133375.200        3670.944
      2860.477          47.950          42.650
 124622138.533 8  97108153.967 7  23714800.620    23714794.900       -2996.646
     -2335.047          46.350          38.850
 124667993.581 8  97143874.862 6  23723526.640    23723522.680       -3213.184
     -2503.780          45.750          37.700
 125404862.866 8  97718056.609 7  23863751.900    23863749.660        1562.344
      1217.412          46.450          41.950
 16  9 14  1 43  0.0000000  0 10G15G24G13G17G19G18G12G28G20G10
 108613174.096 9  84633639.638 8  20668395.600    20668391.180       -1281.120
      -998.276          50.600          49.650
 109080252.158 8  84997597.965 8  20757277.560    20757275.440        1495.455
      1165.291          50.300          49.250
 114081848.462 9  88894960.385 8  21709045.920    21709041.460       -2806.540
     -2186.914          50.800          44.600
 120203318.750 8  93664911.040 8  22873926.060    22873922.320        1002.244
       780.972          49.600          44.900
 120490825.427 8  93888949.215 7  22928640.040    22928634.440        2662.302
      2074.521          49.150          43.700
 120563009.974 8  93945197.006 6  22942378.520    22942373.340        -166.530
      -129.765          47.850          38.050
 121456742.750 8  94641605.101 7  23112448.260    23112443.900        3662.993
      2854.282          48.700          41.900
 124712137.619 8  97178283.118 6  23731926.800    23731921.240       -3002.361
     -2339.502          47.650          38.300
 124764488.117 8  97219065.389 6  23741888.860    23741885.080       -3218.647
     -2508.036          46.200          37.300
 125358285.379 8  97681762.454 7  23854888.420    23854886.120        1543.886
      1203.028          47.400          40.100
 16  9 14  1 43 30.0000000  0 10G15G24G13G17G19G18G12G28G20G10
 108651864.323 8  84663787.853 8  20675758.160    20675753.740       -1298.712
     -1011.984          50.000          49.950
 109035553.470 8  84962767.816 8  20748771.720    20748769.580        1484.032
      1156.390          49.750          49.700
 114166229.731 9  88960712.004 8  21725103.300    21725098.780       -2819.308
     -2196.863          50.550          44.500
 120173519.562 8  93641690.904 8  22868255.480    22868251.820         984.077
       766.814          49.400          45.500
 120411169.368 8  93826879.583 7  22913482.060    22913476.420        2647.637
      2063.095          48.350          44.300
 120568268.546 8  93949294.580 7  22943379.300    22943374.040        -184.479
      -143.749          47.050          39.050
 121346966.804 8  94556065.394 7  23091558.640    23091554.340        3654.841
      2847.929          48.350          42.400
 124802285.138 8  97248527.920 7  23749081.040    23749076.080       -3008.054
     -2343.938          46.750          38.500
 124861130.925 8  97294371.465 6  23760279.340    23760275.420       -3224.399
     -2512.520          44.700          36.550
 125312238.793 8  97645882.011 7  23846125.860    23846123.700        1525.579
      1188.766          46.600          41.550
 16  9 14  1 44  0.0000000  0 10G15G24G13G17G19G18G12G28G20G10
 108691060.057 9  84694329.971 8  20683216.920    20683212.500       -1314.818
     -1024.534          50.550          49.700
 108991174.675 8  84928186.943 8  20740326.640    20740324.580        1474.160
      1148.697          50.450          48.800
 114250969.760 8  89026743.186 7  21741228.640    21741224.320       -2830.387
     -2205.496          50.350          43.900
 120144244.521 8  93618879.198 8  22862684.820    22862680.620         967.352
       753.781          49.800          44.900
 120331932.632 8  93765136.699 7  22898403.740    22898398.140        2634.403
      2052.782          49.200          43.750
 120574041.486 8  93953792.967 6  22944477.780    22944472.600        -200.728
      -156.411          47.950          37.500
 121237414.236 8  94470699.786 7  23070711.400    23070707.040        3648.295
      2842.828          49.050          41.800
 124892581.458 8  97318888.689 6  23766263.980    23766258.400       -3012.101
     -2347.090          47.750          36.900
 124957921.868 8  97369792.965 6  23778698.180    23778694.260       -3228.603
     -2515.795          46.600          36.850
 125266727.519 8  97610418.664 7  23837465.260    23837463.040        1508.265
      1175.271          47.350          40.650
