     2.11           OBSERVATION DATA    M (MIXED)           RINEX VERSION / TYPE
teqc  2016Apr1      anonyme             20161003 09:01:22UTCPGM / RUN BY / DATE
Linux 2.4.21-27.ELsmp|Opteron|gcc|Linux x86_64|=+           COMMENT
teqc  2009Mar23                         20160930 01:05:04UTCCOMMENT
Linux 2.4.20-8|Pentium IV|gcc -static|Linux|486/DX+         COMMENT
BIT 2 OF LLI FLAGS DATA COLLECTED UNDER A/S CONDITION       COMMENT
PRDS CACS-GSD 756047 Calgary AB Canada                      MARKER NAME
40124M001                                                   MARKER NUMBER
OPERATOR            NRCan/GEODETIC SURVEY OF CANADA         OBSERVER / AGENCY
00535               JAVAD TRE_G3TH DELTA3.6.3 Jul,01,2015   REC # / TYPE / VERS
KW-9493-01          AOAD/M_T        NONE                    ANT # / TYPE
 -1659602.8300 -3676725.7500  4925493.5900                  APPROX POSITION XYZ
        0.1000        0.0000        0.0000                  ANTENNA: DELTA H/E/N
     1     1                                                WAVELENGTH FACT L1/2
     8    L1    L2    C1    C2    P1    P2    S1    S2      # / TYPES OF OBSERV
    30.0000                                                 INTERVAL
    17                                                      LEAP SECONDS
RINEXED from Javad JPS-binary: ken.macleod@nrcan.gc.ca      COMMENT
Forced Modulo Decimation to 30 seconds                      COMMENT
This data is subject to the Open Government Licence -Canada COMMENT
http://open.canada.ca/en/open-government-licence-canada     COMMENT
 SNR is mapped to RINEX snr flag value [0-9]                COMMENT
  L1 & L2: min(max(int(snr_dBHz/6), 0), 9)                  COMMENT
pseudorange smoothing corrections not applied               COMMENT
teqc edited: all GLONASS satellites excluded                COMMENT
teqc edited: all SBAS satellites excluded                   COMMENT
teqc edited: all Galileo satellites excluded                COMMENT
  2016     9    30     0     0    0.0000000     GPS         TIME OF FIRST OBS
                                                            END OF HEADER
 16  9 30  0  0  0.0000000  0  9G24G10G18G21G27G15G32G08G14
 119722591.94247  93290340.02247  22782444.016    22782447.117    22782443.917
  22782447.220          44.750          46.000
 106525760.72349  83007095.16449  20271164.635    20271166.627    20271164.501
  20271166.832          57.000          55.000
 111212671.75148  86659256.65247  21163053.432                    21163052.891
  21163052.830          52.750          43.250
 122303034.66847  95301072.52744  23273488.425                    23273487.769
  23273488.516          45.500          29.750
 117045023.01748  91203898.02748  22272922.319    22272924.923    22272922.041
  22272924.554          49.750          48.000
 129287426.23546 100743471.11046  24602560.343    24602561.995    24602560.046
  24602561.477          38.250          38.000
 113738090.54248  88627097.87748  21643627.662    21643630.859    21643627.953
  21643630.355          53.250          50.000
 118609405.81847  92422884.31648  22570610.782    22570615.058    22570609.792
  22570614.702          44.500          48.000
 125598244.75346  97868764.45743  23900545.182                    23900545.931
  23900546.053          41.000          23.250
 16  9 30  0  0 30.0000000  0  9G24G10G18G21G27G15G32G08G14
 119707107.04847  93278273.87847  22779497.398    22779500.584    22779497.813
  22779500.648          44.500          46.000
 106517967.22349  83001022.30149  20269681.446    20269683.733    20269681.525
  20269683.792          57.250          55.000
 111258186.75748  86694722.88047  21171714.694                    21171713.964
  21171714.060          52.750          43.000
 122391913.12647  95370328.41445  23290401.121                    23290400.138
  23290401.582          45.750          30.000
 117108916.07648  91253684.80548  22285080.648    22285083.560    22285080.442
  22285082.892          49.250          48.000
 129396762.80146 100828668.50746  24623367.210    24623366.754    24623367.430
  24623367.740          39.500          38.000
 113656935.62148  88563860.30248  21628184.527    21628187.358    21628184.784
  21628187.175          53.500          50.000
 118600023.60647  92415573.49848  22568825.403    22568829.131    22568825.410
  22568829.041          45.500          48.000
 125492027.14146  97785997.53844  23880333.042                    23880332.659
  23880333.058          40.750          24.250
 16  9 30  0  1  0.0000000  0  9G24G10G18G21G27G15G32G08G14
 119692219.45147  93266673.15247  22776663.672    22776667.164    22776663.999
  22776667.903          44.250          46.000
 106510554.31449  82995246.00149  20268270.868    20268272.851    20268270.794
  20268273.251          56.500          55.000
 111303960.25048  86730390.51847  21180424.953                    21180424.346
  21180424.657          52.750          43.000
 122481036.02747  95439774.78845  23307361.520                    23307360.611
  23307360.716          45.750          30.000
 117173285.50248  91303842.78548  22297329.873    22297332.892    22297329.249
  22297332.036          49.250          48.000
 129506212.71946 100913954.22046  24644194.533    24644196.696    24644194.597
  24644194.889          39.250          39.000
 113576170.45348  88500926.43048  21612815.484    21612818.396    21612815.810
  21612817.875          53.500          50.000
 118591245.65847  92408733.54948  22567155.138    22567158.894    22567154.924
  22567158.569          43.500          48.000
 125385965.32546  97703352.05343  23860150.055                    23860149.852
  23860150.604          40.750          23.250
 16  9 30  0  1 30.0000000  0  9G24G10G18G21G27G15G32G08G14
 119677930.65747  93255539.03047  22773944.865    22773948.792    22773944.619
  22773948.788          44.000          46.000
 106503522.00649  82989766.27249  20266932.659    20266934.865    20266932.657
  20266934.969          55.500          55.000
 111349991.87848  86766259.30547  21189184.596                    21189184.099
  21189184.030          53.000          43.000
 122570401.80247  95509410.42244  23324367.295                    23324366.430
  23324366.343          45.500          28.750
 117238128.84448  91354370.04948  22309669.355    22309671.707    22309668.870
  22309671.409          49.750          48.000
 129615773.71646 100999326.50646  24665043.617    24665043.437    24665043.754
  24665043.655          39.750          38.000
 113495796.76348  88438297.59348  21597520.846    21597523.907    21597520.809
  21597523.642          53.000          50.000
 118583072.31547  92402364.70447  22565599.760    22565603.738    22565599.811
  22565603.393          42.000          47.000
 125280061.20546  97620829.43344  23839996.400                    23839995.769
  23839997.728          40.250          24.000
 16  9 30  0  2  0.0000000  0  9G24G10G18G21G27G15G32G08G14
 119664240.86747  93244871.66747  22771340.187    22771343.294    22771339.920
  22771343.269          43.750          46.000
 106496870.31349  82984583.13449  20265666.923    20265668.876    20265666.863
  20265669.182          56.500          55.000
 111396280.71648  86802328.52647  21197993.071                    21197992.512
  21197992.331          53.000          43.000
 122660009.47647  95579234.54844  23341418.862                    23341417.881
  23341418.710          45.500          28.500
 117303443.59548  91405264.63448  22322098.018    22322101.079    22322097.924
  22322100.599          49.250          48.000
 129725443.57946 101084783.65746  24685913.005    24685913.668    24685912.723
  24685912.924          40.000          39.000
 113415816.26548  88375975.15448  21582300.758    21582303.913    21582300.837
  21582303.636          53.250          50.000
 118575503.61947  92396466.98748  22564158.929    22564164.087    22564158.917
  22564163.115          44.250          48.000
 125174316.88146  97538431.33944  23819874.388                    23819874.153
  23819875.765          40.500          24.000
 16  9 30  0  2 30.0000000  0  9G24G10G18G21G27G15G32G08G14
 119651150.83347  93234671.64747  22768848.487    22768852.629    22768849.554
  22768852.400          44.250          46.000
 106490599.30849  82979696.63049  20264473.643    20264475.831    20264473.516
  20264475.774          57.750          55.000
 111442826.39348  86838597.86947  21206850.326                    21206849.910
  21206849.792          52.750          42.750
 122749857.41447  95649245.87244  23358516.900                    23358515.024
  23358515.541          45.500          29.000
 117369227.29148  91456524.63748  22334616.260    22334619.071    22334616.145
  22334619.208          49.500          48.000
 129835219.92046 101170323.75046  24706801.619    24706802.038    24706802.250
  24706802.437          39.250          37.000
 113336230.65848  88313960.41348  21567156.080    21567159.242    21567156.521
  21567158.725          53.500          50.000
 118568539.56548  92391040.45947  22562834.353    22562838.383    22562834.078
  22562837.675          48.250          47.000
 125068734.52646  97456159.46444  23799782.957                    23799782.468
  23799783.615          40.500          25.500
 16  9 30  0  3  0.0000000  0  9G24G10G18G21G27G15G32G08G14
 119638662.05947  93224940.13847  22766472.619    22766475.524    22766472.018
  22766475.301          44.500          46.000
 106484708.98049  82975106.75549  20263352.686    20263354.911    20263352.646
  20263354.982          58.250          55.000
 111489628.51648  86875067.04447  21215756.499                    21215756.189
  21215755.813          53.000          42.750
 122839944.28847  95719443.38644  23375659.911                    23375658.373
  23375658.505          45.500          29.250
 117435477.46248  91508148.12648  22347223.793    22347226.673    22347223.265
  22347226.073          49.500          48.000
 129945100.93846 101255945.40146  24727711.139    24727711.093    24727712.149
  24727711.928          39.250          37.000
 113257041.63648  88252254.70648  21552087.290    21552090.123    21552087.196
  21552089.735          53.500          50.000
 118562180.58048  92386085.42047  22561624.857    22561627.928    22561624.607
  22561627.487          49.250          47.000
 124963315.68146  97374014.99744  23779721.955                    23779721.842
  23779723.862          40.750          24.750
 16  9 30  0  3 30.0000000  0  9G24G10G18G21G27G15G32G08G14
 119626774.55647  93215677.14447  22764210.313    22764214.268    22764210.585
  22764213.960          45.250          47.000
 106479199.36849  82970813.54449  20262304.291    20262306.503    20262304.259
  20262306.516          58.000          55.000
 111536686.47948  86911735.57047  21224711.528                    21224710.724
  21224711.010          53.000          42.750
 122930268.87047  95789826.11644  23392847.931                    23392847.080
  23392846.699          45.750          29.250
 117502191.57948  91560133.13348  22359918.827    22359921.242    22359918.440
  22359921.397          49.250          48.000
 130055084.29446 101341646.77546  24748640.295    24748641.507    24748641.484
  24748642.369          39.250          38.000
 113178250.86448  88190859.31948  21537093.699    21537096.785    21537093.971
  21537096.133          53.750          50.000
 118556426.57948  92381601.77647  22560529.172    22560532.964    22560529.201
  22560532.743          48.500          47.000
 124858062.23346  97291999.42044  23759693.220                    23759692.882
  23759693.970          41.500          25.750
 16  9 30  0  4  0.0000000  0  9G24G10G18G21G27G15G32G08G14
 119615489.75847  93206883.79447  22762062.768    22762066.175    22762062.646
  22762066.318          43.750          46.000
 106474070.44049  82966816.97049  20261328.255    20261330.462    20261328.253
  20261330.635          58.000          55.000
 111583999.88748  86948603.14847  21233714.956                    21233714.217
  21233714.348          52.500          42.500
 123020829.27747  95860392.63645  23410080.517                    23410079.243
  23410080.364          45.750          30.000
 117569367.07248  91612477.64848  22372702.122    22372704.683    22372701.625
  22372704.545          49.250          48.000
 130165167.39546 101427425.83146  24769589.457    24769588.346    24769589.300
  24769590.015          39.750          37.000
 113099859.97448  88129775.51248  21522176.261    21522179.267    21522176.502
  21522178.814          53.500          50.000
 118551277.65948  92377589.62347  22559549.252    22559553.309    22559548.894
  22559552.520          48.250          47.000
 124752976.26846  97210114.30544  23739695.942                    23739695.123
  23739696.582          41.500          25.750
 16  9 30  0  4 30.0000000  0  9G24G10G18G21G27G15G32G08G14
 119604808.02647  93198560.36347  22760030.010    22760033.472    22760030.594
  22760033.472          45.000          46.000
 106469322.23249  82963117.05749  20260424.584    20260427.007    20260424.623
  20260427.097          57.750          55.000
 111631568.23048  86985669.36747  21242767.057                    21242766.470
  21242766.331          52.750          42.750
 123111624.50547  95931142.10545  23427357.987                    23427357.829
  23427358.357          45.500          30.250
 117637001.43448  91665179.72748  22385571.993    22385574.879    22385571.860
  22385574.685          49.000          48.000
 130275348.47546 101513281.25146  24790556.562    24790555.973    24790556.076
  24790555.856          39.500          37.000
 113021870.64348  88069004.61648  21507335.513    21507337.874    21507335.719
  21507337.891          53.750          50.000
 118546733.77148  92374048.90847  22558684.394    22558688.200    22558683.935
  22558688.228          48.000          47.000
 124648059.29346  97128360.91444  23719730.020                    23719729.853
  23719731.393          41.250          26.000
 16  9 30  0  5  0.0000000  0  9G24G10G18G21G27G15G32G08G14
 119594730.15247  93190707.49547  22758111.757    22758116.034    22758111.726
  22758115.991          44.750          46.000
 106464954.72849  82959713.80549  20259593.607    20259595.702    20259593.564
  20259595.961          58.000          55.000
 111679390.72048  87022933.63847  21251867.298                    21251866.712
  21251866.580          53.250          42.500
 123202653.51147  96002073.75644  23444679.986                    23444679.286
  23444681.288          44.750          29.500
 117705092.07148  91718237.34148  22398529.878    22398532.086    22398529.347
  22398532.054          49.500          48.000
 130385625.07446 101599211.14646  24811540.618    24811540.506    24811540.720
  24811541.487          38.750          37.000
 112944284.55749  88008547.95148  21492571.127    21492574.151    21492571.494
  21492573.869          54.000          50.000
 118542794.96448  92370979.72948  22557935.366    22557939.344    22557935.394
  22557938.699          48.000          48.000
 124543313.66346  97046741.03244  23699798.570                    23699798.307
  23699799.491          41.750          26.250
 16  9 30  0  5 30.0000000  0  9G24G10G18G21G27G15G32G08G14
 119585257.27547  93183326.03847  22756310.201    22756312.392    22756309.291
  22756312.977          45.500          46.000
 106460967.94449  82956607.21449  20258834.948    20258836.856    20258834.923
  20258837.229          57.750          55.000
 111727467.29048  87060395.88947  21261015.987                    21261015.206
  21261015.523          52.750          42.500
 123293914.17847  96073185.90944  23462046.811                    23462045.785
  23462047.690          44.000          29.500
 117773636.41948  91771648.50848  22411572.978    22411575.605    22411572.827
  22411575.423          49.000          48.000
 130495995.32946 101685214.02146  24832544.345    24832546.048    24832543.651
  24832544.594          39.000          38.000
 112867103.29249  87948406.73448  21477884.646    21477886.984    21477884.654
  21477886.799          54.000          50.000
 118539461.14848  92368381.95747  22557301.098    22557304.569    22557300.842
  22557304.036          48.500          47.000
 124438741.07347  96965255.98144  23679898.663                    23679898.501
  23679900.025          42.000          27.000
 16  9 30  0  6  0.0000000  0  9G24G10G18G21G27G15G32G08G14
 119576389.24347  93176415.87747  22754621.848    22754625.679    22754622.548
  22754625.464          45.000          46.000
 106457361.87249  82953797.28249  20258148.848    20258150.824    20258148.754
  20258151.057          56.500          55.000
 111775797.06548  87098055.42947  21270212.686                    21270212.010
  21270212.353          52.750          42.250
 123385405.19747  96144477.57344  23479456.471                    23479456.855
  23479457.456          43.750          28.750
 117842631.90248  91825411.19748  22424702.116    22424705.492    22424702.132
  22424704.996          48.500          48.000
 130606456.88546 101771288.03246  24853563.059    24853565.060    24853562.357
  24853565.127          37.750          39.000
 112790328.46948  87888582.20248  21463274.301    21463277.326    21463274.743
  21463276.988          53.750          50.000
 118536732.67147  92366255.83547  22556781.632    22556785.767    22556781.394
  22556784.594          43.000          47.000
 124334343.75847  96883907.51544  23660032.428                    23660032.146
  23660033.746          42.250          25.500
 16  9 30  0  6 30.0000000  0  9G24G10G18G21G27G15G32G08G14
 119568126.97647  93169977.75647  22753049.526    22753052.969    22753050.206
  22753053.928          45.250          46.000
 106454136.51449  82951284.01249  20257535.095    20257537.388    20257535.023
  20257537.355          57.250          55.000
 111824379.89948  87135912.17647  21279457.664                    21279457.046
  21279457.027          52.500          42.000
 123477125.40047  96215947.79844  23496910.233                    23496909.615
  23496911.751          43.500          27.500
 117912075.93748  91879523.41847  22437917.256    22437919.834    22437916.795
  22437919.418          48.750          47.000
 130717007.39446 101857431.36846  24874599.575    24874602.232    24874600.825
  24874600.951          38.250          38.000
 112713961.71148  87829075.65348  21448742.410    21448744.981    21448742.646
  21448744.733          53.750          51.000
 118534608.98547  92364601.02548  22556377.459    22556381.497    22556377.123
  22556380.738          45.250          48.000
 124230123.50246  96802697.00144  23640200.221                    23640199.370
  23640200.832          40.500          25.500
 16  9 30  0  7  0.0000000  0  9G24G10G18G21G27G15G32G08G14
 119560471.06147  93164012.10447  22751593.488    22751596.813    22751593.526
  22751596.056          45.500          46.000
 106451291.84049  82949067.37449  20256993.724    20256995.592    20256993.725
  20256995.915          56.500          55.000
 111873215.19548  87173965.63347  21288750.879                    21288750.189
  21288750.247          52.500          42.250
 123569073.51847  96287595.63344  23514407.792                    23514406.703
  23514409.192          43.250          27.500
 117981965.90648  91933983.10348  22451216.742    22451219.735    22451216.000
  22451219.244          48.500          48.000
 130827645.10646 101943642.61546  24895654.017    24895654.505    24895654.959
  24895654.820          38.500          37.000
 112638004.61549  87769888.31548  21434288.268    21434291.124    21434288.558
  21434290.830          54.000          51.000
 118533090.20847  92363417.55448  22556088.722    22556092.221    22556088.742
  22556091.426          43.500          48.000
 124126081.82747  96721625.62744  23620401.805                    23620401.600
  23620401.703          42.500          26.750
 16  9 30  0  7 30.0000000  0  9G24G10G18G21G27G15G32G08G14
 119553422.19147  93158519.48047  22750252.144    22750255.690    22750252.070
  22750255.405          45.750          46.000
 106448827.85949  82947147.38049  20256524.839    20256526.933    20256524.769
  20256527.134          55.500          55.000
 111922302.21048  87212215.24247  21298091.804                    21298091.015
  21298091.177          52.500          42.250
 123661248.02647  96359419.85944  23531948.054                    23531946.823
  23531948.239          43.750          27.250
 118052299.16248  91988788.22347  22464600.549    22464603.500    22464600.370
  22464603.263          48.250          47.000
 130938367.57646 102029919.93246  24916724.107    24916724.168    24916724.575
  24916724.383          39.250          36.000
 112562458.77848  87711021.42948  21419912.314    21419914.788    21419912.720
  21419914.886          53.750          51.000
 118532176.26047  92362705.38948  22555914.604    22555918.599    22555914.724
  22555918.130          43.250          48.000
 124022221.06847  96640695.24744  23600637.665                    23600636.766
  23600638.290          42.000          26.500
 16  9 30  0  8  0.0000000  0  9G24G10G18G21G27G15G32G08G14
 119546980.92447  93153500.30047  22749026.125    22749029.437    22749026.155
  22749029.737          45.750          46.000
 106446744.49349  82945523.97749  20256128.313    20256130.422    20256128.266
  20256130.755          56.000          55.000
 111971640.60948  87250660.73447  21307480.702                    21307480.014
  21307480.005          52.750          42.250
 123753647.31547  96431419.25544  23549531.422                    23549530.862
  23549531.577          43.000          27.750
 118123073.09548  92043936.72147  22478068.723    22478071.509    22478068.503
  22478071.041          48.500          47.000
 131049172.89446 102116261.78345  24937809.618    24937809.475    24937809.945
  24937809.131          39.500          35.000
 112487325.75449  87652476.23048  21405614.966    21405617.915    21405615.373
  21405617.549          54.000          51.000
 118531866.87246  92362464.31447  22555855.561    22555859.736    22555855.226
  22555859.127          41.750          47.000
 123918542.88447  96559907.13644  23580907.595                    23580907.209
  23580908.792          42.000          26.500
 16  9 30  0  8 30.0000000  0  9G24G10G18G21G27G15G32G08G14
 119541148.09247  93148955.23547  22747916.268    22747919.468    22747916.095
  22747919.244          44.500          46.000
 106445041.77049  82944197.17449  20255804.276    20255806.342    20255804.388
  20255806.580          57.500          55.000
 112021229.61148  87289301.50347  21316916.871                    21316916.400
  21316916.341          52.500          42.250
 123846269.78547  96503592.56044  23567156.278                    23567155.237
  23567156.890          43.250          27.500
 118194285.00148  92099426.50347  22491620.202    22491622.965    22491619.443
  22491622.469          48.500          47.000
 131160058.82846 102202666.45345  24958911.036    24958909.446    24958911.496
  24958910.799          39.000          35.000
 112412607.13549  87594253.94548  21391396.587    21391399.499    21391396.783
  21391399.248          54.000          51.000
 118532161.94447  92362694.23147  22555912.582    22555915.600    22555911.895
  22555915.636          47.250          47.000
 123815049.22847  96479262.80644  23561214.196                    23561213.313
  23561214.221          42.000          26.250
 16  9 30  0  9  0.0000000  0  9G24G10G18G21G27G15G32G08G14
 119535923.89247  93144884.43847  22746922.616    22746925.208    22746922.170
  22746924.835          46.250          46.000
 106443719.65649  82943166.94949  20255552.816    20255554.632    20255552.723
  20255555.138          57.250          55.000
 112071068.94848  87328137.33347  21326401.111                    21326400.441
  21326400.692          52.250          42.000
 123939113.93347  96575938.60844  23584825.362                    23584823.590
  23584825.034          43.000          27.250
 118265932.29848  92155255.54647  22505253.676    22505256.260    22505253.725
  22505256.459          48.500          47.000
 131271023.32146 102289132.33546  24980026.072    24980025.566    24980026.412
  24980026.553          38.500          36.000
 112338304.45348  87536355.76348  21377257.368    21377259.941    21377257.341
  21377259.757          53.750          51.000
 118533061.12648  92363394.87247  22556082.977    22556087.061    22556082.806
  22556086.384          48.000          47.000
 123711741.96946  96398763.70044  23541554.549                    23541554.227
  23541556.204          41.750          26.750
 16  9 30  0  9 30.0000000  0  9G24G10G18G21G27G15G32G08G14
 119531308.67046  93141288.16147  22746044.413    22746046.926    22746044.036
  22746046.611          41.500          46.000
 106442778.11649  82942433.27949  20255373.537    20255375.907    20255373.505
  20255375.942          55.250          55.000
 112121158.11048  87367167.83147  21335932.713                    21335932.321
  21335932.190          52.500          42.000
 124032178.53047  96648456.39644  23602534.548                    23602533.077
  23602533.061          42.500          26.250
 118338012.23947  92211421.71447  22518970.093    22518973.071    22518969.718
  22518972.928          47.750          47.000
 131382064.24346 102375657.77946  25001156.948    25001157.986    25001156.852
  25001155.814          39.000          36.000
 112264419.27948  87478782.91648  21363197.298    21363200.136    21363197.542
  21363199.866          53.750          51.000
 118534564.09646  92364566.02948  22556369.200    22556373.208    22556369.094
  22556372.736          41.250          48.000
 123608623.05546  96318411.36844  23521931.609                    23521931.483
  23521933.583          41.000          27.000
 16  9 30  0 10  0.0000000  0 10G24G10G18G21G27G15G11G32G08G14
 119527303.28147  93138167.08747  22745281.736    22745284.884    22745282.455
  22745284.900          45.000          46.000
 106442217.10749  82941996.12949  20255266.736    20255269.022    20255266.694
  20255269.161          57.500          55.000
 112171496.49648  87406392.53347  21345511.850                    21345511.182
  21345511.570          52.250          42.000
 124125461.96947  96721144.73044  23620285.641                    23620284.234
  23620285.874          42.500          26.500
 118410522.21448  92267922.96747  22532768.324    22532771.140    22532768.367
  22532770.909          48.000          47.000
 131493179.46946 102462241.18046  25022301.259    25022301.631    25022300.849
  25022300.295          39.500          36.000
 126665476.96545                  24103638.955
                        35.500
 112190953.13648  87421536.60348  21349216.680    21349219.942    21349217.252
  21349219.491          53.750          51.000
 118536671.24347  92366207.96148  22556770.130    22556774.028    22556769.962
  22556773.319          46.250          48.000
 123505694.41047  96238207.29544  23502345.734                    23502344.814
  23502346.495          42.750          27.500
 16  9 30  0 10 30.0000000  0 10G24G10G18G21G27G15G11G32G08G14
 119523907.81747  93135521.28547  22744635.132    22744638.322    22744635.982
  22744638.933          46.750          46.000
 106442036.60449  82941855.47248  20255232.509    20255234.615    20255232.558
  20255234.849          57.750          53.000
 112222084.03548  87445811.38046  21355138.597                    21355137.663
  21355137.898          52.250          41.750
 124218962.93447  96794002.60944  23638078.016                    23638077.292
  23638078.254          42.000          26.250
 118483459.48048  92324757.19647  22546647.903    22546650.909    22546647.332
  22546650.604          48.000          47.000
 131604366.75646 102548880.64946  25043461.052    25043458.944    25043459.008
  25043458.460          40.000          36.000
 126562201.05046                  24083987.361
                        36.500
 112117907.48848  87364617.94048  21335316.976    21335319.831    21335317.190
  21335319.594          53.750          51.000
 118539381.60547  92368319.93248  22557285.634    22557290.048    22557285.413
  22557288.829          47.000          48.000
 123402957.73846  96158152.80144  23482794.690                    23482794.428
  23482796.561          41.000          27.250
 16  9 30  0 11  0.0000000  0 10G24G10G18G21G27G15G11G32G08G14
 119521122.94447  93133351.25047  22744106.014    22744109.014    22744105.572
  22744108.984          47.000          46.000
 106442236.54649  82942011.26349  20255270.506    20255272.629    20255270.461
  20255272.856          58.000          55.000
 112272919.78748  87485423.64646  21364812.148                    21364811.568
  21364811.748          52.000          41.750
 124312680.50147  96867029.23044  23655912.060                    23655910.823
  23655911.703          42.000          26.250
 118556821.37048  92381922.27447  22560608.580    22560610.708    22560608.181
  22560610.684          48.250          47.000
 131715624.21046 102635574.84746  25064632.287    25064630.623    25064630.356
  25064631.052          39.000          36.000
 126459203.04646                  24064385.759
                        36.500
 112045283.86748  87308028.12248  21321497.127    21321499.978    21321497.300
  21321499.753          53.750          51.000
 118542695.31747  92370902.03648  22557916.559    22557920.398    22557916.170
  22557919.743          47.500          48.000
 123300415.20346  96078249.60844  23463281.218                    23463281.024
  23463282.295          41.500          26.750
 16  9 30  0 11 30.0000000  0 10G24G10G18G21G27G15G11G32G08G14
 119518948.88847  93131657.18447  22743691.760    22743695.214    22743692.208
  22743695.174          46.750          46.000
 106442816.90449  82942463.48349  20255381.030    20255382.922    20255380.944
  20255383.259          57.500          55.000
 112324003.30148  87525228.96446  21374532.998                    21374532.422
  21374532.561          51.500          41.500
 124406612.42547  96940222.89644  23673787.135                    23673785.486
  23673786.731          42.000          26.500
 118630605.12448  92439416.08447  22574649.016    22574651.661    22574648.891
  22574651.360          48.250          47.000
 131826950.10846 102722322.39046  25085815.201    25085815.940    25085816.763
  25085815.342          38.500          37.000
 126356486.20146  98459601.66243  24044839.687                    24044838.732
  24044838.981          37.500          18.000
 111973083.76248  87251768.30848  21307757.545    21307760.508    21307758.132
  21307760.352          53.500          51.000
 118546611.90347  92373953.92448  22558661.066    22558665.350    22558661.405
  22558665.185          47.000          48.000
 123198068.37947  95998498.88944  23443805.772                    23443805.424
  23443807.483          42.750          28.000
 16  9 30  0 12  0.0000000  0 10G24G10G18G21G27G15G11G32G08G14
 119517386.02347  93130439.37047  22743394.256    22743397.011    22743394.808
  22743397.621          45.750          46.000
 106443777.62249  82943212.09149  20255563.772    20255565.895    20255563.727
  20255566.088          56.750          55.000
 112375334.11048  87565226.97646  21384300.702                    21384300.127
  21384300.331          51.750          41.500
 124500757.16346  97013582.36844  23691701.383                    23691700.556
  23691702.137          40.500          26.000
 118704808.01948  92497236.49247  22588769.391    22588772.300    22588768.784
  22588772.137          48.000          47.000
 131938341.91146 102809121.26146  25107012.252    25107013.919    25107012.658
  25107012.746          38.250          37.000
 126254053.20146  98379783.77843  24025347.701                    24025346.875
  24025347.058          36.500          19.000
 111901308.68048  87195839.69048  21294099.813    21294102.081    21294099.881
  21294102.058          53.750          51.000
 118551131.03747  92377475.32747  22559521.544    22559525.770    22559521.510
  22559524.992          45.750          47.000
 123095919.23946  95918902.19744  23424367.584                    23424366.319
  23424368.845          41.500          27.750
 16  9 30  0 12 30.0000000  0 10G24G10G18G21G27G15G11G32G08G14
 119516434.84947  93129698.19347  22743212.698    22743216.927    22743213.685
  22743216.089          44.250          46.000
 106445118.64049  82944257.03549  20255818.882    20255820.968    20255818.839
  20255821.195          57.500          55.000
 112426911.96648  87605417.50146  21394116.138                    21394115.551
  21394115.596          52.000          41.750
 124595113.51246  97087106.74944  23709656.788                    23709655.975
  23709657.590          41.000          25.500
 118779427.31048  92555381.37047  22602969.423    22602971.849    22602968.585
  22602971.817          48.000          47.000
 132049797.52946 102895969.86446  25128222.101    25128222.706    25128220.409
  25128222.546          37.000          36.000
 126151906.80745  98300189.20243  24005909.312                    24005909.186
  24005908.572          35.750          18.750
 111829960.07248  87140243.38348  21280522.740    21280524.918    21280522.590
  21280524.778          53.500          51.000
 118556252.20547  92381465.83047  22560496.145    22560499.702    22560495.760
  22560499.417          47.750          47.000
 122993969.70046  95839461.08144  23404966.323                    23404966.286
  23404968.441          41.750          28.000
 16  9 30  0 13  0.0000000  0 10G24G10G18G21G27G15G11G32G08G14
 119516094.88947  93129433.29647  22743148.345    22743151.914    22743148.496
  22743152.098          44.500          46.000
 106446839.88749  82945598.25949  20256146.467    20256148.734    20256146.553
  20256148.784          57.250          55.000
 112478735.93648  87645799.79646  21403977.741                    21403977.041
  21403977.289          51.250          41.500
 124689679.99746  97160794.85944  23727651.531                    23727651.080
  23727653.210          39.250          25.500
 118854460.26648  92613848.58847  22617247.141    22617250.209    22617246.949
  22617249.817          48.000          47.000
 132161315.07846 102982866.70046  25149443.041    25149443.322    25149442.513
  25149442.778          38.250          36.000
 126050049.85146  98220820.19643  23986525.347                    23986527.753
  23986527.290          37.000          19.250
 111759039.40048  87084980.53248  21267026.518    21267029.210    21267026.729
  21267028.974          53.500          51.000
 118561975.16047  92385925.26747  22561585.322    22561589.262    22561585.101
  22561588.454          46.750          47.000
 122892221.59347  95760176.87844  23385604.486                    23385604.221
  23385605.226          42.250          28.500
 16  9 30  0 13 30.0000000  0 10G24G10G18G21G27G15G11G32G08G14
 119516367.49547  93129645.73247  22743200.716    22743203.546    22743200.981
  22743203.887          45.000          46.000
 106448941.35249  82947235.75649  20256546.237    20256548.537    20256546.211
  20256548.767          57.250          55.000
 112530806.00448  87686373.85846  21413886.011                    21413885.740
  21413885.494          51.250          41.500
 124784454.75646  97234645.24044  23745687.868                    23745686.229
  23745687.579          40.000          26.000
 118929904.12247  92672635.97947  22631603.668    22631606.430    22631603.540
  22631606.569          47.500          47.000
 132272892.39746 103069810.13246  25170674.922    25170674.991    25170674.825
  25170675.352          37.500          37.000
 125948485.10346  98141678.83043  23967199.315                    23967198.981
  23967200.241          38.250          19.750
 111688548.10048  87030052.25248  21253612.533    21253615.363    21253612.855
  21253615.189          53.500          51.000
 118568299.41248  92390853.23747  22562788.918    22562792.409    22562789.199
  22562792.063          48.750          47.000
 122790676.76047  95681051.09044  23366282.082                    23366280.885
  23366282.340          42.750          29.250
 16  9 30  0 14  0.0000000  0 10G24G10G18G21G27G15G11G32G08G14
 119517251.80047  93130334.80047  22743369.161    22743372.298    22743368.705
  22743371.893          46.250          46.000
 106451422.93449  82949169.45149  20257018.554    20257020.713    20257018.526
  20257021.040          56.750          55.000
 112583121.36648  87727139.05946  21423841.722                    21423841.054
  21423841.206          50.750          41.500
 124879436.36146  97308656.82044  23763762.259                    23763760.587
  23763762.460          39.750          26.000
 119005756.09847  92731741.38847  22646037.902    22646040.951    22646037.456
  22646040.762          47.750          47.000
 132384527.36146 103156798.46646  25191919.020    25191918.399    25191919.123
  25191918.073          37.000          36.000
 125847215.34246  98062767.36443  23947929.623                    23947927.841
  23947928.428          38.500          22.000
 111618487.63148  86975459.67948  21240280.579    21240283.014    21240280.633
  21240282.867          53.250          51.000
 118575224.47047  92396249.38847  22564106.858    22564110.237    22564106.444
  22564109.770          47.750          47.000
 122689337.12147  95602085.19444  23346997.455                    23346997.285
  23346998.541          42.750          29.250
 16  9 30  0 14 30.0000000  0 10G24G10G18G21G27G15G11G32G08G14
 119518749.05747  93131501.51147  22743653.222    22743657.727    22743653.918
  22743657.225          46.500          47.000
 106454284.55549  82951399.27449  20257563.069    20257565.284    20257563.131
  20257565.518          57.500          55.000
 112635681.49248  87768094.98446  21433843.548                    21433842.690
  21433842.929          51.250          41.000
 124974623.51946  97382828.56044  23781875.608                    23781873.867
  23781875.900          39.750          26.500
 119082013.38848  92791162.61647  22660549.469    22660552.013    22660548.878
  22660551.798          48.000          47.000
 132496218.33746 103243830.46946  25213171.619    25213173.889    25213173.342
  25213172.841          37.250          38.000
 125746243.19046  97984087.77143  23928714.379                    23928713.991
  23928713.808          39.250          22.500
 111548859.38248  86921203.90748  21227030.573    21227033.241    21227030.735
  21227033.027          53.000          51.000
 118582749.92347  92402113.35847  22565538.498    22565542.460    22565538.620
  22565542.030          47.250          47.000
 122588204.36446  95523280.49244  23327752.452                    23327751.740
  23327752.746          41.750          28.500
 16  9 30  0 15  0.0000000  0 10G24G10G18G21G27G15G11G32G08G14
 119520859.12447  93133145.70747  22744055.433    22744058.621    22744054.998
  22744058.347          46.250          46.000
 106457526.15849  82953925.19049  20258180.082    20258182.176    20258180.062
  20258182.425          57.500          55.000
 112688485.84048  87809241.21046  21443891.747                    21443891.230
  21443891.128          50.750          41.500
 125070014.64446  97457159.24144  23800028.384                    23800027.368
  23800029.382          40.250          26.000
 119158673.21447  92850897.51347  22675136.985    22675140.531    22675136.362
  22675139.752          47.500          47.000
 132607963.20946 103330904.43446  25234436.367    25234436.601    25234437.530
  25234437.748          37.000          37.000
 125645571.69446  97905642.45743  23909557.272                    23909557.009
  23909557.444          39.500          23.750
 111479664.79648  86867286.04548  21213863.293    21213866.569    21213863.363
  21213865.821          53.250          51.000
 118590875.37948  92408444.87447  22567084.557    22567088.664    22567084.425
  22567087.732          48.250          47.000
 122487280.40647  95444638.49344  23308546.472                    23308546.292
  23308547.955          43.000          28.500
 16  9 30  0 15 30.0000000  0 10G24G10G18G21G27G15G11G32G08G14
 119523581.95846  93135267.42147  22744573.266    22744576.995    22744573.126
  22744576.625          40.250          46.000
 106461147.65949  82956747.13249  20258869.166    20258871.411    20258869.225
  20258871.582          56.000          55.000
 112741534.00048  87850577.42246  21453986.819                    21453985.859
  21453986.129          51.250          41.500
 125165608.10646  97531647.59344  23818219.288                    23818218.592
  23818220.132          39.750          25.250
 119235732.78447  92910943.91247  22689801.072    22689804.181    22689800.675
  22689803.949          47.500          47.000
 132719760.01845 103418018.89446  25255710.745    25255711.484    25255711.925
  25255711.501          35.750          38.000
 125545203.54746  97827433.54643  23890457.819                    23890457.438
  23890457.297          39.750          23.750
 111410905.25048  86813707.18548  21200778.727    21200781.660    21200779.038
  21200781.383          53.500          51.000
 118599600.21548  92415243.44047  22568745.558    22568749.160    22568745.141
  22568748.536          48.500          47.000
 122386566.83947  95366160.44544  23289382.139                    23289381.197
  23289382.099          42.750          27.750
 16  9 30  0 16  0.0000000  0 10G24G10G18G21G27G15G11G32G08G14
 119526917.71746  93137866.71647  22745208.295    22745211.752    22745208.437
  22745211.383          38.500          45.000
 106465149.00349  82959865.05349  20259630.569    20259632.909    20259630.595
  20259633.146          56.250          55.000
 112794825.71248  87892103.41546  21464127.724                    21464127.013
  21464127.328          51.000          41.250
 125261402.40246  97606292.43944  23836448.146                    23836447.168
  23836449.134          40.250          25.250
 119313189.26647  92971299.58447  22704540.359    22704543.133    22704540.171
  22704542.862          47.250          47.000
 132831606.75845 103505172.29846  25276996.557    25276996.160    25276995.727
  25276995.471          35.250          38.000
 125445141.56346  97749463.19343  23871417.137                    23871415.959
  23871416.333          40.000          23.500
 111342582.17148  86760468.42248  21187777.186    21187780.096    21187777.468
  21187780.053          53.250          51.000
 118608923.88448  92422508.64347  22570519.622    22570522.584    22570518.741
  22570522.377          48.500          47.000
 122286065.84947  95287848.02344  23270256.975                    23270256.270
  23270258.056          42.500          27.750
 16  9 30  0 16 30.0000000  0 10G24G10G18G21G27G15G11G32G08G14
 119530866.34846  93140943.54647  22745958.920    22745962.862    22745959.793
  22745962.792          41.250          46.000
 106469530.07849  82963278.87049  20260464.350    20260466.622    20260464.290
  20260466.722          56.750          55.000
 112848359.99948  87933818.42746  21474315.262                    21474314.266
  21474314.648          50.750          41.000
 125357395.80646  97681092.43544  23854715.203                    23854715.109
  23854715.756          40.750          24.500
 119391039.88147  93031962.35847  22719354.996    22719358.302    22719354.637
  22719357.820          47.500          47.000
 132943501.13646 103592362.76846  25298287.462    25298288.974    25298289.110
  25298288.453          36.250          39.000
 125345388.44846  97671733.50644  23852435.064                    23852433.946
  23852435.149          40.250          25.250
 111274696.87548  86707570.79248  21174859.122    21174862.115    21174859.398
  21174861.874          53.000          51.000
 118618845.73448  92430239.94447  22572407.785    22572411.374    22572407.064
  22572411.602          48.750          47.000
 122185779.06547  95209702.52544  23251172.643                    23251172.444
  23251173.933          43.250          28.000
 16  9 30  0 17  0.0000000  0 10G24G10G18G21G27G15G11G32G08G14
 119535428.76647  93144498.66847  22746828.194    22746831.279    22746828.652
  22746830.552          43.750          46.000
 106474290.80849  82966988.52249  20261370.174    20261372.476    20261370.175
  20261372.577          57.000          55.000
 112902136.72148  87975722.34446  21484548.491                    21484547.850
  21484547.940          50.250          41.250
 125453586.99746  97756046.55844  23873020.034                    23873020.104
  23873020.054          40.500          25.000
 119469281.73947  93092930.01047  22734244.392    22734246.957    22734243.823
  22734246.495          47.500          47.000
 133055441.67145 103679589.20246  25319589.456    25319589.029    25319588.594
  25319587.645          35.000          38.000
 125245946.93346  97594246.65144  23833511.940                    23833511.016
  23833511.202          41.500          24.750
 111207250.75448  86655015.37748  21162024.692    21162027.439    21162024.845
  21162027.142          53.000          51.000
 118629365.25748  92438436.96147  22574408.940    22574412.693    22574408.761
  22574412.916          48.250          47.000
 122085708.40547  95131725.42444  23232130.400                    23232129.951
  23232130.735          43.000          28.750
 16  9 30  0 17 30.0000000  0 10G24G10G18G21G27G15G11G32G08G14
 119540604.27847  93148531.59347  22747812.807    22747816.053    22747812.336
  22747815.792          44.250          46.000
 106479431.10049  82970993.93949  20262348.264    20262350.621    20262348.412
  20262350.823          57.250          55.000
 112956155.03148  88017814.51246  21494827.710                    21494826.953
  21494827.560          50.500          41.500
 125549974.73046  97831153.80444  23891361.954                    23891361.824
  23891361.808          39.500          24.500
 119547912.01947  93154200.34247  22749206.947    22749209.437    22749206.499
  22749209.308          47.000          47.000
 133167425.75845 103766849.57146  25340898.443    25340899.645    25340898.262
  25340898.642          35.250          38.000
 125146820.04046  97517004.91944  23814647.824                    23814647.254
  23814647.939          41.500          24.750
 111140245.12848  86602803.20448  21149273.872    21149276.604    21149274.157
  21149276.377          53.500          52.000
 118640481.84148  92447099.22247  22576524.695    22576528.668    22576524.595
  22576527.924          48.750          47.000
 121985855.57747  95053918.07944  23213129.005                    23213128.417
  23213128.737          42.750          29.000
 16  9 30  0 18  0.0000000  0 10G24G10G18G21G27G15G11G32G08G14
 119546393.22947  93153042.42947  22748913.941    22748916.709    22748913.638
  22748917.531          42.500          46.000
 106484950.88049  82975295.05849  20263398.785    20263400.860    20263398.844
  20263401.359          57.000          55.000
 113010414.73548  88060094.78146  21505152.763                    21505152.413
  21505152.496          49.750          41.250
 125646556.67346  97906412.41444  23909740.696                    23909739.759
  23909741.950          39.000          25.250
 119626927.90447  93215771.12347  22764242.833    22764246.168    22764243.034
  22764246.149          46.750          47.000
 133279451.74545 103854142.55346  25362217.070    25362215.411    25362216.294
  25362215.331          35.750          38.000
 125048010.69746  97440010.64444  23795845.464                    23795844.450
  23795844.615          41.500          25.500
 111073681.38248  86550935.35048  21136607.401    21136609.900    21136607.440
  21136609.566          53.500          51.000
 118652194.73647  92456226.16147  22578753.548    22578757.424    22578753.311
  22578756.562          47.750          47.000
 121886222.37547  94976281.85144  23194169.280                    23194168.773
  23194169.858          43.500          29.000
 16  9 30  0 18 30.0000000  0  9G24G10G18G21G27G11G32G08G14
 119552795.57546  93158031.29047  22750132.040    22750136.141    22750132.601
  22750136.126          39.500          47.000
 106490850.00949  82979891.77249  20264521.512    20264523.732    20264521.356
  20264523.650          56.500          55.000
 113064915.16348  88102562.63146  21515524.220                    21515523.376
  21515523.658          50.250          41.000
 125743331.69546  97981821.46144  23928157.238                    23928156.820
  23928157.532          39.750          25.500
 119706326.50247  93277640.14047  22779352.442    22779355.138    22779351.654
  22779354.992          47.250          47.000
 124949521.13946  97363265.54244  23777102.805                    23777102.767
  23777102.183          41.000          25.500
 111007560.77448  86499412.81248  21124024.934    21124027.413    21124025.199
  21124027.308          53.500          52.000
 118664503.20648  92465817.15047  22581096.396    22581099.327    22581095.851
  22581098.763          49.000          46.000
 121786810.50047  94898818.10545  23175252.019                    23175251.132
  23175252.233          43.500          30.000
 16  9 30  0 19  0.0000000  0  9G24G10G18G21G27G11G32G08G14
 119559811.58546  93163498.31247  22751467.882    22751471.269    22751467.637
  22751470.573          38.000          46.000
 106497128.44749  82984784.05949  20265716.124    20265718.262    20265716.091
  20265718.402          55.750          55.000
 113119655.94848  88145217.77146  21525940.844                    21525940.438
  21525940.414          50.500          41.000
 125840298.19346  98057379.69144  23946610.104                    23946607.995
  23946609.697          40.500          25.500
 119786104.96347  93339805.14347  22794533.246    22794536.484    22794533.440
  22794536.207          46.500          46.000
 124851354.85046  97286772.35844  23758422.850                    23758423.192
  23758422.533          41.250          24.750
 110941884.64348  86448236.60348  21111527.160    21111529.743    21111527.405
  21111529.635          53.000          52.000
 118677406.66248  92475871.80147  22583551.149    22583555.044    22583551.288
  22583553.894          48.250          46.000
 121687622.30747  94821528.62844  23156376.529                    23156376.278
  23156377.600          43.000          29.750
 16  9 30  0 19 30.0000000  0  9G24G10G18G21G27G11G32G08G14
 119567440.31047  93169442.77847  22752919.612    22752922.922    22752919.310
  22752923.214          44.500          47.000
 106503786.03249  82989971.78149  20266983.034    20266985.357    20266983.091
  20266985.432          57.250          55.000
 113174636.72148  88188059.92046  21536403.731                    21536402.838
  21536402.895          50.500          40.750
 125937454.42946  98133085.77444  23965097.552                    23965096.324
  23965098.162          39.750          25.000
 119866260.40247  93402263.88747  22809787.261    22809789.380    22809785.763
  22809789.569          47.000          46.000
 124753513.96446  97210532.71344  23739804.420                    23739803.547
  23739803.382          41.750          25.000
 110876654.29048  86397407.76448  21099114.356    21099117.051    21099114.470
  21099116.719          53.750          52.000
 118690904.44148  92486389.53647  22586119.783    22586123.734    22586119.800
  22586122.719          48.250          47.000
 121588659.47747  94744414.78445  23137544.363                    23137544.119
  23137545.048          44.000          30.000
 16  9 30  0 20  0.0000000  0  9G24G10G18G21G27G11G32G08G14
 119575682.70247  93175865.42747  22754488.018    22754491.087    22754487.937
  22754490.657          46.500          47.000
 106510822.67749  82995454.87649  20268322.146    20268324.284    20268322.053
  20268324.392          57.750          55.000
 113229856.79748  88231088.52846  21546911.100                    21546911.016
  21546911.147          50.000          40.500
 126034798.89746  98208938.53144  23983621.568                    23983619.933
  23983622.339          38.000          24.000
 119946789.92547  93465014.14047  22825110.877    22825114.110    22825110.563
  22825113.420          47.000          46.000
 124656001.72146  97134549.14244  23721247.372                    23721246.808
  23721248.433          40.250          24.250
 110811870.99648  86346927.27648  21086786.345    21086789.238    21086786.525
  21086788.759          53.750          52.000
 118704995.82348  92497369.82147  22588801.141    22588805.247    22588800.669
  22588805.362          48.500          47.000
 121489923.44847  94667477.67445  23118756.112                    23118754.645
  23118756.469          44.750          30.250
 16  9 30  0 20 30.0000000  0  9G24G10G18G21G27G11G32G08G14
 119584537.84347  93182765.52847  22756172.685    22756176.303    22756172.642
  22756175.741          46.000          47.000
 106518238.27649  83001233.26049  20269733.304    20269735.261    20269733.185
  20269735.592          57.250          55.000
 113285315.54648  88274303.11646  21557464.900                    21557464.423
  21557464.664          49.500          40.500
 126132330.30446  98284936.93843  24002180.767                    24002179.961
  24002181.903          38.500          23.000
 120027690.64147  93528053.62247  22840505.955    22840508.634    22840505.455
  22840507.965          46.750          46.000
 124558820.61046  97058823.64143  23702754.494                    23702754.026
  23702754.168          40.500          23.750
 110747536.01948  86296796.12748  21074543.848    21074546.749    21074544.100
  21074546.519          53.500          52.000
 118719679.93048  92508811.97947  22591595.345    22591599.459    22591595.207
  22591598.336          48.750          47.000
 121391415.84447  94590718.53945  23100010.409                    23100009.648
  23100010.569          44.250          30.250
 16  9 30  0 21  0.0000000  0  9G24G10G18G21G27G11G32G08G14
 119594005.92547  93190143.27547  22757975.035    22757978.342    22757974.759
  22757977.271          46.750          47.000
 106526032.69549  83007306.83149  20271216.252    20271218.770    20271216.234
  20271218.690          57.500          55.000
 113341012.67548  88317703.46146  21568063.836                    21568063.248
  21568063.541          50.250          40.750
 126230046.71346  98361079.52644  24020776.007                    24020774.834
  24020776.075          39.000          24.250
 120108959.65547  93591380.09247  22855971.301    22855973.878    22855970.852
  22855973.990          46.500          46.000
 124461973.54046  96983358.41244  23684326.270                    23684325.344
  23684325.823          41.250          25.500
 110683650.61548  86247015.29648  21062386.925    21062389.799    21062386.945
  21062389.384          53.250          52.000
 118734955.90448  92520715.30647  22594502.388    22594506.256    22594502.279
  22594506.011          48.000          47.000
 121293138.85947  94514139.11045  23081309.634                    23081308.783
  23081309.542          44.750          31.250
 16  9 30  0 21 30.0000000  0  9G24G10G18G21G27G11G32G08G14
 119604087.21347  93197998.81747  22759893.889    22759896.542    22759893.148
  22759896.237          47.250          47.000
 106534205.81849  83013675.49649  20272771.921    20272773.928    20272771.669
  20272774.091          57.750          55.000
 113396947.62148  88361289.12046  21578707.669                    21578706.884
  21578707.173          50.000          40.500
 126327946.56146  98437365.07944  24039405.298                    24039404.565
  24039406.973          39.250          24.250
 120190594.06347  93654991.29747  22871505.597    22871508.659    22871505.184
  22871508.840          46.000          46.000
 124365463.42346  96908155.74444  23665960.434                    23665959.468
  23665960.724          41.000          26.500
 110620216.04949  86197585.76048  21050315.476    21050318.711    21050315.807
  21050318.146          54.000          52.000
 118750822.96148  92533079.24547  22597521.890    22597525.554    22597521.798
  22597525.215          48.500          47.000
 121195094.25447  94437740.74945  23062652.279                    23062651.831
  23062652.439          44.750          31.000
 16  9 30  0 22  0.0000000  0  9G24G10G18G21G27G11G32G08G14
 119614781.03647  93206331.66847  22761927.919    22761931.915    22761928.241
  22761931.458          46.250          47.000
 106542757.53549  83020339.16449  20274398.945    20274401.197    20274399.173
  20274401.383          57.750          55.000
 113453119.84048  88405059.66146  21589397.229                    21589396.700
  21589396.751          50.250          40.500
 126426028.22446  98513792.31444  24058070.363                    24058069.951
  24058070.691          40.000          26.000
 120272590.93847  93718884.92547  22887108.984    22887111.049    22887108.838
  22887111.641          45.750          46.000
 124269292.95846  96833217.75144  23647659.029                    23647658.816
  23647659.703          40.750          25.250
 110557233.50849  86148508.45748  21038330.525    21038333.462    21038330.627
  21038332.862          54.000          52.000
 118767280.27448  92545903.13047  22600653.566    22600657.468    22600654.040
  22600657.087          48.500          47.000
 121097283.70747  94361524.79845  23044039.565                    23044038.742
  23044039.875          45.000          31.000
 16  9 30  0 22 30.0000000  0  9G24G10G18G21G27G11G32G08G14
 119626087.41247  93215141.84747  22764079.444    22764082.962    22764079.531
  22764082.522          44.000          47.000
 106551687.70549  83027297.73549  20276098.573    20276100.645    20276098.433
  20276100.816          57.250          55.000
 113509528.81648  88449014.68846  21600131.541                    21600130.971
  21600131.163          50.000          40.750
 126524290.15546  98590359.99844  24076769.125                    24076768.598
  24076769.638          39.500          25.750
 120354947.33547  93783058.70847  22902780.906    22902783.759    22902780.885
  22902783.370          45.500          46.000
 124173464.79746  96758546.47344  23629424.666                    23629423.970
  23629424.491          41.000          25.750
 110494704.24749  86099784.35848  21026431.484    21026434.194    21026431.862
  21026434.060          54.000          52.000
 118784327.12648  92559186.36747  22603897.713    22603901.602    22603897.673
  22603900.632          48.750          46.000
 120999708.78147  94285492.41645  23025471.089                    23025470.423
  23025471.212          44.750          31.000
 16  9 30  0 23  0.0000000  0  9G24G10G18G21G27G11G32G08G14
 119638006.03447  93224429.07847  22766347.026    22766350.832    22766347.700
  22766350.752          46.500          47.000
 106560996.21549  83034551.11649  20277869.879    20277871.876    20277869.815
  20277872.192          57.500          55.000
 113566174.28548  88493153.99846  21610910.769                    21610910.134
  21610910.181          49.750          40.750
 126622731.07546  98667067.17744  24095501.767                    24095500.833
  24095502.785          40.750          26.250
 120437660.36847  93847510.37847  22918520.596    22918523.960    22918520.223
  22918523.645          45.500          46.000
 124077982.05046  96684144.35244  23611253.861                    23611254.159
  23611254.632          40.500          25.000
 110432629.48449  86051414.41148  21014619.215    21014622.383    21014619.479
  21014621.612          54.250          52.000
 118801962.50847  92572928.19947  22607253.818    22607256.688    22607253.559
  22607256.147          47.750          46.000
 120902371.34647  94209645.10445  23006949.043                    23006948.317
  23006948.999          45.000          31.000
 16  9 30  0 23 30.0000000  0  9G24G10G18G21G27G11G32G08G14
 119650536.88447  93234193.37447  22768732.048    22768735.716    22768732.665
  22768735.830          46.750          47.000
 106570682.89549  83042099.17649  20279713.274    20279715.356    20279713.164
  20279715.461          57.500          55.000
 113623055.53948  88537477.03446  21621734.928                    21621734.213
  21621734.505          49.500          40.250
 126721348.82646  98743912.17844  24114267.913                    24114266.695
  24114268.046          40.750          26.250
 120520727.03347  93912237.60547  22934327.780    22934330.740    22934327.144
  22934330.204          45.500          46.000
 123982847.31146  96610013.40444  23593150.580                    23593150.793
  23593150.624          41.750          25.500
 110371010.37048  86003399.52648  21002893.577    21002896.106    21002893.598
  21002896.092          53.750          52.000
 118820185.41647  92587127.85947  22610721.200    22610725.090    22610721.525
  22610724.376          47.750          47.000
 120805273.26347  94133984.30845  22988471.869                    22988471.229
  22988471.951          45.750          31.250
 16  9 30  0 24  0.0000000  0  9G24G10G18G21G27G11G32G08G14
 119663679.64947  93244434.49047  22771232.984    22771236.639    22771233.188
  22771236.389          47.250          47.000
 106580747.62949  83049941.82249  20281628.282    20281630.589    20281628.344
  20281630.779          57.500          55.000
 113680172.28048  88581983.56046  21632603.793                    21632603.346
  21632603.318          49.750          40.250
 126820141.66746  98820893.57744  24133067.315                    24133066.796
  24133068.234          39.000          24.750
 120604144.44747  93977238.11947  22950201.528    22950204.332    22950201.486
  22950203.989          45.500          46.000
 123888063.16546  96536155.63944  23575114.191                    23575114.004
  23575114.548          41.250          25.750
 110309848.07949  85955740.59948  20991254.702    20991257.293    20991254.820
  20991257.011          54.000          52.000
 118838994.92848  92601784.62047  22614300.597    22614304.214    22614300.757
  22614303.992          48.000          47.000
 120708416.35547  94058511.42845  22970039.743                    22970039.637
  22970040.703          45.250          31.000
 16  9 30  0 24 30.0000000  0  9G24G10G18G21G27G11G32G08G14
 119677433.58847  93255151.84947  22773850.210    22773853.304    22773850.228
  22773853.474          46.750          46.000
 106591190.27049  83058078.93949  20283615.431    20283617.612    20283615.495
  20283617.970          57.500          55.000
 113737523.60348  88626672.89446  21643517.732                    21643516.656
  21643517.093          49.500          40.000
 126919108.21446  98898010.36443  24151899.767                    24151899.163
  24151900.570          39.250          23.500
 120687909.63547  94042509.64647  22966141.597    22966144.759    22966141.009
  22966144.215          45.250          46.000
 123793632.44246  96462573.29544  23557143.768                    23557144.180
  23557145.597          41.750          25.750
 110249143.78749  85908438.55848  20979702.974    20979705.667    20979703.115
  20979705.441          54.000          52.000
 118858389.90847  92616897.59547  22617991.232    22617994.654    22617991.356
  22617994.450          47.750          46.000
 120611802.25847  93983227.74545  22951655.165                    22951654.842
  22951656.212          45.500          31.250
 16  9 30  0 25  0.0000000  0  9G24G10G18G21G27G11G32G08G14
 119691798.51747  93266345.29247  22776583.557    22776587.311    22776584.593
  22776587.473          42.500          46.000
 106602010.69149  83066510.43349  20285674.688    20285676.777    20285674.677
  20285676.982          57.000          55.000
 113795109.39848  88671544.92546  21654475.424                    21654475.016
  21654474.867          49.500          39.750
 127018246.99746  98975261.29743  24170765.516                    24170764.583
  24170765.818          38.250          21.500
 120772019.61147  94108049.83247  22982146.976    22982150.117    22982147.067
  22982149.429          45.750          46.000
 123699558.30646  96389268.79444  23539242.233                    23539241.543
  23539243.294          41.500          26.750
 110188898.65549  85861494.29548  20968238.549    20968241.438    20968238.889
  20968241.064          54.000          53.000
 118878369.99047  92632466.46347  22621793.242    22621797.012    22621793.798
  22621796.204          47.750          46.000
 120515432.54447  93908134.50345  22933316.956                    22933316.496
  22933317.025          46.250          31.500
 16  9 30  0 25 30.0000000  0  9G24G10G18G21G27G11G32G08G14
 119706774.46747  93278014.86147  22779433.920    22779437.717    22779433.989
  22779437.199          45.750          46.000
 106613208.71749  83075236.16649  20287805.655    20287807.703    20287805.553
  20287807.880          57.750          55.000
 113852928.63648  88716598.85746  21665478.319                    21665477.770
  21665477.671          50.000          40.000
 127117556.40446  99052645.22143  24189663.690                    24189662.069
  24189664.741          38.250          20.000
 120856471.44747  94173856.40647  22998217.378    22998220.544    22998217.895
  22998220.359          45.250          46.000
 123605843.37346  96316244.18044  23521409.437                    23521409.722
  23521408.928          41.750          26.500
 110129113.79149  85814908.68848  20956861.848    20956864.615    20956862.189
  20956864.551          54.250          52.000
 118898933.67847  92648490.11147  22625706.621    22625710.301    22625706.709
  22625709.902          47.000          47.000
 120419309.25747  93833233.26345  22915024.950                    22915024.543
  22915025.052          46.250          31.750
 16  9 30  0 26  0.0000000  0  9G24G10G18G21G27G11G32G08G14
 119722360.68747  93290159.96847  22782398.971    22782403.306    22782399.678
  22782402.889          45.000          47.000
 106624784.21449  83084256.03049  20290008.151    20290010.382    20290008.290
  20290010.709          57.750          55.000
 113910981.22248  88761834.63246  21676524.937                    21676524.318
  21676525.150          49.250          39.750
 127217034.38046  99130160.47143  24208593.718                    24208592.355
  24208594.312          38.500          19.250
 120941262.18847  94239927.03847  23014353.059    23014355.905    23014352.616
  23014356.128          45.000          46.000
 123512490.20446  96243501.47744  23503644.700                    23503643.771
  23503644.724          41.750          26.750
 110069790.34649  85768682.62848  20945572.991    20945575.815    20945573.248
  20945575.579          54.500          52.000
 118920079.83047  92664967.61047  22629730.591    22629734.160    22629730.270
  22629734.112          47.750          47.000
 120323434.08847  93758525.36045  22896780.616                    22896779.659
  22896780.473          46.000          32.000
 16  9 30  0 26 30.0000000  0  9G24G10G18G21G27G11G32G08G14
 119738556.92547  93302780.40247  22785482.365    22785485.459    22785482.176
  22785485.187          46.250          47.000
 106636737.03249  83093569.90649  20292282.754    20292284.961    20292282.824
  20292285.229          57.500          55.000
 113969267.14148  88807252.21146  21687616.636                    21687615.982
  21687616.198          50.000          39.500
 127316679.42046  99207805.92743  24227554.948                    24227554.639
  24227555.404          38.000          20.250
 121026388.78947  94306259.38647  23030552.311    23030554.914    23030552.218
  23030555.081          45.250          46.000
 123419501.87646  96171043.07244  23485949.352                    23485948.799
  23485949.536          41.750          27.000
 110010929.40749  85722816.96748  20934372.212    20934375.223    20934372.443
  20934374.872          54.500          53.000
 118941807.53147  92681898.27447  22633865.250    22633868.285    22633865.616
  22633867.459          47.250          46.000
 120227808.52847  93684011.97545  22878583.416                    22878582.370
  22878583.667          46.000          32.250
 16  9 30  0 27  0.0000000  0  9G24G10G18G21G27G11G32G08G14
 119755362.91747  93315875.98147  22788679.579    22788682.509    22788680.208
  22788683.099          46.500          45.000
 106649066.98249  83103177.65649  20294629.046    20294631.266    20294629.060
  20294631.549          57.750          55.000
 114027785.29848  88852850.76646  21698752.403                    21698751.646
  21698752.274          49.750          40.000
 127416489.84646  99285580.25843  24246547.674                    24246546.615
  24246549.770          37.250          20.000
 121111848.29547  94372851.13747  23046814.580    23046817.452    23046814.756
  23046817.401          45.000          46.000
 123326880.94246  96098870.92344  23468324.705                    23468323.639
  23468324.383          41.250          27.000
 109952532.06249  85677312.54148  20923259.477    20923262.283    20923259.764
  20923262.109          54.500          52.000
 118964115.67947  92699281.24247  22638110.249    22638114.298    22638109.598
  22638113.451          47.250          46.000
 120132434.44947  93609694.53845  22860434.186                    22860433.377
  22860434.636          45.250          32.250
 16  9 30  0 27 30.0000000  0  9G24G10G18G21G27G11G32G08G14
 119772777.90647  93329446.09647  22791994.620    22791997.160    22791994.740
  22791996.505          46.750          46.000
 106661773.90549  83113079.15049  20297047.283    20297049.500    20297047.175
  20297049.586          57.750          55.000
 114086535.22948  88898629.90546  21709932.083                    21709931.379
  21709931.878          49.750          39.750
 127516464.06746  99363482.21343  24265572.289                    24265571.247
  24265573.992          37.500          20.500
 121197637.75347  94439700.00147  23063139.316    23063142.847    23063139.385
  23063142.875          44.500          46.000
 123234630.13047  96026987.19844  23450770.521                    23450768.985
  23450770.456          42.250          27.250
 109894599.41949  85632170.22048  20912235.259    20912238.328    20912235.596
  20912237.830          55.250          52.000
 118987003.27847  92717115.71747  22642465.918    22642469.558    22642465.835
  22642469.075          47.500          47.000
 120037313.44347  93535574.29745  22842332.695                    22842332.337
  22842334.264          45.750          31.750
 16  9 30  0 28  0.0000000  0  9G24G10G18G21G27G11G32G08G14
 119790801.15347  93343490.19847  22795423.759    22795426.109    22795423.644
  22795426.606          46.500          46.000
 106674857.64849  83123274.27249  20299537.073    20299539.390    20299537.088
  20299539.310          58.000          55.000
 114145516.42848  88944589.28146  21721155.769                    21721155.218
  21721156.099          50.500          39.750
 127616600.56246  99441510.57543  24284628.555                    24284627.928
  24284629.499          38.250          21.250
 121283754.11147  94506803.58647  23079527.910    23079530.200    23079527.205
  23079530.216          44.750          46.000
 123142752.31846  95955394.11144  23433286.634                    23433285.826
  23433284.952          41.750          27.750
 109837132.49349  85587390.80448  20901299.770    20901302.525    20901299.980
  20901302.280          55.250          53.000
 119010469.05047  92735400.70947  22646931.352    22646935.150    22646931.433
  22646934.020          47.500          46.000
 119942447.25347  93461652.61645  22824280.353                    22824280.095
  22824281.352          45.750          32.250
 16  9 30  0 28 30.0000000  0  9G24G10G18G21G27G11G32G08G14
 119809432.57547  93358008.18247  22798969.008    22798971.887    22798969.182
  22798971.734          45.750          46.000
 106688318.04049  83133762.88149  20302098.335    20302100.565    20302098.482
  20302100.807          57.750          55.000
 114204728.33348  88990728.40946  21732423.845                    21732423.068
  21732423.257          49.500          39.750
 127716897.51646  99519664.02643  24303714.112                    24303713.164
  24303715.377          38.250          21.750
 121370194.39847  94574159.59047  23095976.547    23095979.726    23095976.330
  23095979.745          44.250          46.000
 123051250.39646  95884093.92644  23415873.433                    23415873.155
  23415873.161          41.500          26.250
 109780132.38149  85542975.13448  20890452.896    20890456.013    20890453.237
  20890455.533          55.000          53.000
 119034511.76147  92754135.26847  22651505.990    22651510.111    22651506.422
  22651509.576          47.250          46.000
 119847837.55947  93387930.81545  22806277.493                    22806276.649
  22806277.723          46.000          32.250
 16  9 30  0 29  0.0000000  0  9G24G10G18G21G27G11G32G08G14
 119828671.71947  93372999.72647  22802630.435    22802633.032    22802630.292
  22802633.180          46.750          46.000
 106702154.89549  83144544.83849  20304731.273    20304733.822    20304731.310
  20304733.866          57.750          55.000
 114264170.52448  89037046.98646  21743735.077                    21743734.503
  21743735.146          49.750          39.500
 127817353.18246  99597941.08543  24322829.058                    24322828.602
  24322831.553          38.000          21.250
 121456955.65847  94641765.70347  23112486.586    23112489.157    23112486.597
  23112488.792          44.500          45.000
 122960127.05746  95813088.74044  23398533.651                    23398533.091
  23398533.042          41.500          26.250
 109723600.11849  85498924.01748  20879695.329    20879698.140    20879695.386
  20879697.729          55.250          53.000
 119059130.30647  92773318.53947  22656190.951    22656194.706    22656191.003
  22656194.591          47.000          47.000
 119753486.17847  93314410.27345  22788322.753                    22788321.753
  22788322.559          46.000          32.500
 16  9 30  0 29 30.0000000  0  9G24G10G18G21G27G11G32G08G14
 119848517.97647  93388464.33847  22806406.149    22806409.689    22806406.511
  22806409.272          46.250          46.000
 106716368.04649  83155620.01749  20307436.113    20307438.337    20307436.126
  20307438.550          57.750          55.000
 114323842.45348  89083544.57846  21755090.503                    21755089.689
  21755090.016          50.500          39.500
 127917965.91846  99676340.55243  24341976.057                    24341974.969
  24341975.718          39.000          22.500
 121544034.76047  94709619.48847  23129057.662    23129060.222    23129057.312
  23129060.152          44.250          45.000
 122869384.94046  95742380.61244  23381265.298                    23381265.210
  23381265.620          40.750          26.750
 109667536.70449  85455238.24348  20869026.948    20869029.599    20869027.086
  20869029.185          55.500          53.000
 119084323.59847  92792949.67347  22660985.314    22660989.216    22660985.085
  22660988.580          46.750          46.000
 119659394.81147  93241092.34045  22770417.556                    22770416.920
  22770418.729          45.750          32.750
 16  9 30  0 30  0.0000000  0  9G24G10G18G21G27G11G32G08G14
 119868970.89147  93404401.66747  22810299.328    22810301.981    22810299.062
  22810302.003          46.750          46.000
 106730957.32149  83166988.27649  20310212.459    20310214.704    20310212.308
  20310214.759          57.750          55.000
 114383743.70848  89130220.86946  21766489.236                    21766488.413
  21766489.011          50.250          39.500
 128018734.05846  99754861.10943  24361150.800                    24361150.534
  24361152.913          38.750          23.000
 121631428.74847  94777718.65147  23145687.463    23145690.769    23145687.726
  23145690.950          44.000          45.000
 122779026.65546  95671971.58544  23364070.742                    23364070.616
  23364070.934          41.250          27.000
 109611943.17049  85411918.60748  20858447.824    20858450.210    20858447.903
  20858450.187          56.000          53.000
 119110090.04547  92813027.40547  22665888.667    22665892.238    22665888.077
  22665891.868          46.750          46.000
 119565565.09947  93167978.30645  22752562.457                    22752561.688
  22752562.529          45.750          33.000
 16  9 30  0 30 30.0000000  0  9G24G10G18G21G27G11G32G08G14
 119890029.60347  93420811.05447  22814305.961    22814309.289    22814305.923
  22814309.294          46.000          46.000
 106745922.52149  83178649.46549  20313060.129    20313062.359    20313060.143
  20313062.469          57.500          55.000
 114443874.05748  89177075.66146  21777931.416                    21777930.768
  21777931.247          50.250          39.500
 128119655.70346  99833501.31843  24380356.100                    24380355.511
  24380357.365          40.000          23.250
 121719134.60147  94846060.79647  23162377.605    23162381.076    23162376.720
  23162380.325          43.750          45.000
 122689055.16446  95601863.95644  23346950.152                    23346950.468
  23346950.139          41.500          27.250
 109556820.49049  85368965.87348  20847958.079    20847960.839    20847958.443
  20847960.452          55.750          52.000
 119136428.79447  92833551.07647  22670900.482    22670904.548    22670901.014
  22670903.712          46.250          47.000
 119471998.73247  93095069.46345  22734757.559                    22734756.562
  22734757.525          45.750          32.750
 16  9 30  0 31  0.0000000  0  9G24G10G18G21G27G11G32G08G14
 119911693.25647  93437691.83447  22818428.789    22818431.427    22818428.603
  22818431.790          46.000          45.000
 106761263.45149  83190603.43249  20315979.452    20315981.597    20315979.495
  20315981.731          57.750          55.000
 114504233.01248  89224108.60446  21789417.620                    21789416.931
  21789417.277          50.250          39.500
 128220729.37046  99912259.97343  24399590.929                    24399589.352
  24399592.420          40.500          23.500
 121807149.29347  94914643.59747  23179126.388    23179129.624    23179126.021
  23179129.870          43.750          45.000
 122599473.36646  95532059.98644  23329903.006                    23329903.781
  23329903.646          41.500          27.250
 109502169.66849  85326380.81748  20837558.764    20837561.291    20837558.800
  20837561.049          56.250          53.000
 119163338.39547  92854519.58947  22676021.530    22676024.951    22676021.216
  22676024.862          46.750          47.000
 119378697.27047  93022367.03745  22717002.586                    22717001.801
  22717003.013          45.750          33.250
 16  9 30  0 31 30.0000000  0  9G24G10G18G21G27G11G32G08G14
 119933961.80947  93455043.95747  22822665.284    22822669.145    22822666.144
  22822669.330          46.250          46.000
 106776979.93149  83202850.03549  20318970.190    20318972.439    20318970.198
  20318972.600          57.750          55.000
 114564819.47748  89271318.81746  21800946.866                    21800946.131
  21800946.442          50.500          39.250
 128321953.39346  99991135.78443  24418851.479                    24418851.673
  24418853.909          39.750          22.000
 121895469.77747  94983464.69347  23195932.806    23195936.024    23195932.511
  23195935.822          43.000          45.000
 122510283.81946  95462561.66144  23312931.713                    23312930.528
  23312931.906          41.750          27.500
 109447991.64849  85284164.18648  20827248.715    20827251.576    20827249.127
  20827251.122          56.000          53.000
 119190817.65247  92875931.98947  22681250.817    22681254.467    22681250.446
  22681253.696          46.750          46.000
 119285662.38147  92949872.32845  22699298.986                    22699298.996
  22699299.368          46.250          33.500
 16  9 30  0 32  0.0000000  0  9G24G10G18G21G27G11G32G08G14
 119956834.33747  93472866.70447  22827018.825    22827021.487    22827018.359
  22827021.382          46.000          45.000
 106793071.76049  83215389.11649  20322032.376    20322034.561    20322032.464
  20322034.796          57.750          55.000
 114625633.36248  89318706.24346  21812519.245                    21812518.757
  21812518.728          49.500          38.500
 128423325.85046 100070127.22943  24438142.527                    24438142.217
  24438144.297          40.000          20.750
 121984093.03447  95052521.70647  23212797.241    23212801.691    23212797.310
  23212801.129          42.500          45.000
 122421489.23647  95393371.10744  23296034.000                    23296033.812
  23296033.970          43.250          28.250
 109394287.40749  85242316.72648  20817029.286    20817032.065    20817029.346
  20817031.833          56.000          53.000
 119218865.00047  92897787.04947  22686587.820    22686591.484    22686587.768
  22686590.902          46.000          47.000
 119192895.82447  92877586.70545  22681645.581                    22681645.178
  22681646.963          45.250          33.000
 16  9 30  0 32 30.0000000  0  9G24G10G18G21G27G11G32G08G14
 119980309.99547  93491159.43147  22831485.341    22831488.979    22831485.328
  22831488.644          45.250          45.000
 106809538.71749  83228220.50649  20325166.184    20325168.146    20325166.046
  20325168.456          57.500          55.000
 114686674.02448  89366270.37446  21824135.166                    21824134.220
  21824134.481          50.250          39.000
 128524845.31446 100149233.25943  24457462.364                    24457461.502
  24457462.044          40.000          19.250
 122073016.02147  95121812.28847  23229719.109    23229723.004    23229719.155
  23229722.557          43.000          45.000
 122333092.28947  95324490.37644  23279212.698                    23279212.782
  23279212.264          43.250          28.250
 109341057.82049  85200839.12448  20806899.773    20806902.619    20806900.054
  20806902.295          55.750          53.000
 119247479.25447  92920083.83847  22692032.564    22692036.473    22692032.467
  22692035.821          46.000          46.000
 119100399.14147  92805511.39745  22664044.492                    22664043.795
  22664044.899          45.750          33.250
 16  9 30  0 33  0.0000000  0  9G24G10G18G21G27G11G32G08G14
 120004388.25347  93509921.69547  22836067.486    22836070.998    22836067.555
  22836070.250          46.000          46.000
 106826380.62949  83241344.06249  20328370.953    20328372.739    20328370.893
  20328373.220          57.500          54.000
 114747940.79548  89414010.69946  21835793.495                    21835792.415
  21835793.090          50.000          38.500
 128626509.81346 100228452.28143  24476807.759                    24476806.607
  24476809.145          39.000          18.750
 122162235.67247  95191334.01547  23246697.596    23246700.401    23246696.672
  23246700.725          43.000          45.000
 122245096.13347  95255921.95544  23262467.898                    23262467.292
  23262467.357          43.500          28.000
 109288303.89249  85159732.17148  20796861.089    20796864.176    20796861.366
  20796863.537          56.000          53.000
 119276659.18147  92942821.42647  22697585.332    22697589.636    22697585.342
  22697589.615          45.250          47.000
 119008174.10347  92733647.73745  22646494.019                    22646494.060
  22646495.047          45.500          33.250
 16  9 30  0 33 30.0000000  0  9G24G10G18G21G27G11G32G08G14
 120029067.98747  93529152.66147  22840764.703    22840767.820    22840764.200
  22840767.567          46.000          46.000
 106843597.27549  83254759.62549  20331647.213    20331649.299    20331647.144
  20331649.397          57.500          55.000
 114809433.30048  89461926.92046  21847494.842                    21847494.441
  21847494.692          49.750          38.750
 128728317.72546 100307783.10142  24496181.571                    24496179.920
  24496181.883          37.750          17.500
 122251748.94447  95261084.54247  23263730.601    23263733.994    23263730.734
  23263734.207          42.250          44.000
 122157503.12347  95187667.66444  23245799.208                    23245799.309
  23245798.532          43.500          28.750
 109236026.48549  85118996.53248  20786912.944    20786915.799    20786913.341
  20786915.452          56.000          53.000
 119306403.27747  92965998.64147  22703245.735    22703249.752    22703245.316
  22703248.981          45.750          47.000
 118916222.33947  92661997.03145  22628995.869                    22628995.914
  22628997.065          45.500          33.750
 16  9 30  0 34  0.0000000  0  9G24G10G18G21G27G11G32G08G14
 120054348.80947  93548852.01547  22845575.139    22845577.645    22845575.138
  22845578.318          46.250          46.000
 106861188.44849  83268467.02649  20334994.523    20334996.805    20334994.580
  20334996.998          57.750          55.000
 114871151.53748  89510019.03846  21859239.859                    21859239.277
  21859239.437          49.750          38.750
 128830267.52546 100387224.45942  24515581.047                    24515580.947
  24515582.341          38.000          15.000
 122341552.82947  95331061.53847  23280820.868    23280823.995    23280820.150
  23280824.382          43.750          45.000
 122070315.99147  95119729.67344  23229208.253                    23229207.795
  23229208.345          43.250          28.500
 109184226.52249  85078632.92648  20777056.036    20777058.461    20777056.203
  20777058.502          56.000          53.000
 119336709.90047  92989614.17747  22709012.373    22709016.767    22709012.661
  22709016.214          45.500          46.000
 118824545.37147  92590560.45645  22611550.283                    22611550.725
  22611552.382          46.000          33.750
 16  9 30  0 34 30.0000000  0  9G24G10G18G21G27G11G32G08G14
 120080229.84047  93569019.04347  22850500.135    22850503.342    22850500.319
  22850503.138          46.000          46.000
 106879153.94749  83282466.10949  20338413.371    20338415.498    20338413.260
  20338415.781          57.500          55.000
 114933094.34448  89558286.14146  21871027.138                    21871026.536
  21871027.246          49.750          38.750
 128932357.26646 100466774.90542  24535009.548                    24535007.050
  24535009.364          37.000          15.750
 122431644.16247  95401262.50947  23297963.998    23297967.225    23297964.518
  23297967.415          43.000          45.000
 121983537.62447  95052110.18344  23212694.962                    23212694.773
  23212695.034          43.500          29.250
 109132904.85449  85038642.01948  20767289.678    20767292.614    20767289.950
  20767292.189          56.250          53.000
 119367578.19147  93013667.37447  22714886.815    22714890.584    22714886.806
  22714889.548          45.500          46.000
 118733144.95647  92519339.35645  22594158.111                    22594157.508
  22594158.699          46.250          34.000
 16  9 30  0 35  0.0000000  0  9G24G10G18G21G27G11G32G08G14
 120106710.00047  93589652.94547  22855538.464    22855542.442    22855539.043
  22855542.261          45.250          46.000
 106897493.52949  83296756.68549  20341903.235    20341905.428    20341903.108
  20341905.597          57.500          55.000
 114995261.61848  89606728.15146  21882857.111                    21882856.697
  21882856.612          49.250          38.500
 129034585.13546 100546432.91342  24554462.101                    24554460.674
  24554462.502          37.000          16.000
 122522019.94047  95471685.12147  23315162.337    23315165.195    23315162.259
  23315165.297          43.750          45.000
 121897170.65047  94984811.25644  23196259.903                    23196259.831
  23196259.647          43.750          29.250
 109082062.35249  84999024.48448  20757614.844    20757617.739    20757614.937
  20757617.296          56.500          53.000
 119399005.93847  93038156.50447  22720867.277    22720871.480    22720867.187
  22720870.357          45.250          46.000
 118642022.58147  92448334.92645  22576818.123                    22576817.432
  22576818.766          46.500          34.000
 16  9 30  0 35 30.0000000  0  9G24G10G18G21G27G11G32G08G14
 120133788.71447  93610753.23747  22860691.340    22860694.895    22860691.965
  22860694.979          44.750          45.000
 106916207.00349  83311338.60549  20345464.285    20345466.503    20345464.287
  20345466.667          57.250          55.000
 115057652.66248  89655344.53046  21894729.802                    21894729.241
  21894729.533          49.500          38.750
 129136949.49646 100626197.29343  24573939.769                    24573941.855
  24573942.875          37.000          18.750
 122612677.13547  95542327.03647  23332414.174    23332417.258    23332413.554
  23332416.687          43.750          45.000
 121811217.68247  94917834.94144  23179903.371                    23179903.159
  23179903.079          43.250          28.500
 109031699.86649  84959780.99248  20748030.946    20748033.842    20748031.253
  20748033.431          56.500          53.000
 119430992.24647  93063080.90647  22726953.938    22726957.575    22726954.043
  22726957.853          45.500          46.000
 118551179.99747  92377548.51245  22559531.394                    22559530.599
  22559531.389          46.500          34.250
 16  9 30  0 36  0.0000000  0  9G24G10G18G21G27G11G32G08G14
 120161464.99147  93632319.18447  22865957.918    22865961.783    22865958.390
  22865961.499          45.500          46.000
 106935294.12149  83326211.68049  20349096.494    20349098.697    20349096.401
  20349098.805          57.500          55.000
 115120267.00848  89704134.90746  21906645.270                    21906644.313
  21906644.810          49.750          38.250
 129239448.43346 100706066.53843  24593447.002                    24593446.987
  24593447.474          37.250          18.750
 122703612.63747  95613185.80447  23349717.617    23349721.654    23349717.598
  23349721.278          42.250          45.000
 121725681.43447  94851183.35144  23163626.625                    23163625.501
  23163626.139          43.250          28.750
 108981818.25649  84920912.20548  20738538.804    20738541.386    20738539.171
  20738541.401          56.000          53.000
 119463535.23247  93088439.05747  22733146.378    22733150.298    22733146.545
  22733149.569          45.500          46.000
 118460618.78047  92306981.35745  22542297.989                    22542297.384
  22542298.918          46.500          34.750
 16  9 30  0 36 30.0000000  0  9G24G10G18G21G27G11G32G08G14
 120189738.12847  93654350.20747  22871339.088    22871341.296    22871338.899
  22871341.910          44.750          45.000
 106954754.66649  83341375.73249  20352799.732    20352801.640    20352799.695
  20352801.953          57.500          54.000
 115183104.14248  89753098.89246  21918602.256                    21918601.438
  21918602.547          49.500          38.500
 129342080.37746 100786039.44043  24612976.073                    24612975.886
  24612977.710          38.250          20.250
 122794823.41447  95684259.04647  23367074.998    23367078.408    23367075.060
  23367078.081          42.750          45.000
 121640564.66847  94784858.61144  23147428.434                    23147428.230
  23147428.375          43.000          28.500
 108932418.29749  84882418.73448  20729138.447    20729141.096    20729138.586
  20729140.772          56.250          53.000
 119496633.50947  93114229.90547  22739445.898    22739448.032    22739445.335
  22739447.943          46.250          45.000
 118370340.50347  92236634.68245  22525119.044                    22525117.447
  22525119.591          47.000          34.500
 16  9 30  0 37  0.0000000  0  9G24G10G18G21G27G11G32G08G14
 120218606.64747  93676845.16347  22876831.985    22876835.974    22876832.364
  22876835.835          44.500          46.000
 106974588.39349  83356830.57649  20356573.716    20356576.093    20356573.799
  20356576.350          57.250          55.000
 115246163.66148  89802236.15046  21930602.373                    21930601.661
  21930602.068          49.250          38.500
 129444843.84346 100866114.81743  24632532.916                    24632530.475
  24632533.260          39.750          21.250
 122886306.29847  95755544.34547  23384484.306    23384487.191    23384483.358
  23384486.582          43.250          45.000
 121555869.87947  94718862.69044  23131311.477                    23131311.564
  23131312.322          43.500          28.750
 108883500.83449  84844301.23448  20719829.586    20719832.373    20719829.827
  20719832.219          56.500          53.000
 119530285.66147  93140452.34247  22745849.409    22745852.642    22745849.295
  22745852.247          46.000          46.000
 118280346.64947  92166509.62345  22507992.750                    22507992.570
  22507993.342          46.500          35.000
 16  9 30  0 37 30.0000000  0  9G24G10G18G21G27G11G32G08G14
 120248070.20747  93699803.79147  22882438.448    22882442.420    22882439.105
  22882442.594          43.750          46.000
 106994795.07349  83372576.03849  20360419.291    20360421.388    20360419.163
  20360421.591          57.000          55.000
 115309445.05448  89851546.31646  21942644.342                    21942643.699
  21942644.280          49.250          38.500
 129547736.76446 100946291.10943  24652112.629                    24652111.132
  24652112.948          38.750          21.750
 122978058.30446  95827039.33647  23401943.947    23401947.337    23401943.211
  23401947.107          41.750          45.000
 121471599.98347  94653197.83344  23115274.956                    23115275.236
  23115276.471          43.250          28.250
 108835066.62149  84806560.28948  20710613.081    20710615.726    20710613.123
  20710615.389          56.000          53.000
 119564489.86547  93167104.94647  22752358.010    22752361.710    22752358.312
  22752361.447          46.250          46.000
 118190638.94247  92096607.53445  22490922.573                    22490922.331
  22490922.343          46.500          34.500
 16  9 30  0 38  0.0000000  0  9G24G10G18G21G27G11G32G08G14
 120278127.72847  93723225.22547  22888158.789    22888162.344    22888158.635
  22888161.495          44.250          46.000
 107015374.46749  83388611.92249  20364335.302    20364337.488    20364335.177
  20364337.588          57.250          54.000
 115372947.67848  89901028.86146  21954728.631                    21954727.883
  21954728.320          49.750          38.000
 129650757.30246 101026566.78643  24671716.452                    24671715.108
  24671716.988          37.750          21.250
 123070076.36647  95898741.65747  23419454.253    23419458.161    23419453.536
  23419456.810          42.000          45.000
 121387757.66847  94587866.17744  23099320.629                    23099319.743
  23099320.382          43.000          27.000
 108787116.47549  84769196.54548  20701488.297    20701491.201    20701488.645
  20701490.943          56.250          53.000
 119599244.73547  93194186.64747  22758971.821    22758975.702    22758971.029
  22758975.262          45.750          46.000
 118101218.89247  92026929.59645  22473905.911                    22473906.063
  22473905.909          46.750          34.500
 16  9 30  0 38 30.0000000  0  9G24G10G18G21G27G11G32G08G14
 120308778.18347  93747108.69747  22893991.317    22893994.412    22893992.365
  22893994.185          44.000          46.000
 107036326.35549  83404938.06549  20368322.337    20368324.505    20368322.244
  20368324.717          57.250          54.000
 115436671.05448  89950683.42146  21966854.736                    21966853.829
  21966854.891          49.250          38.000
 129753903.75846 101106940.58843  24691343.141                    24691342.890
  24691346.426          38.000          20.000
 123162357.35647  95970648.84747  23437014.807    23437018.099    23437015.009
  23437017.792          42.250          45.000
 121304345.55147  94522869.73444  23083447.750                    23083447.531
  23083448.215          43.500          27.250
 108739651.14949  84732210.58048  20692455.971    20692458.734    20692456.201
  20692458.450          56.500          53.000
 119634548.58547  93221696.12247  22765689.273    22765693.461    22765689.676
  22765692.783          45.250          46.000
 118012088.06547  91957477.05145  22456945.586                    22456944.814
  22456945.526          47.250          34.750
 16  9 30  0 39  0.0000000  0  9G24G10G18G21G27G11G32G08G14
 120340020.38047  93771453.28147  22899936.486    22899939.367    22899936.607
  22899939.595          43.750          46.000
 107057650.43349  83421554.22449  20372380.234    20372382.423    20372380.098
  20372382.540          57.250          55.000
 115500614.41948  90000509.40646  21979022.635                    21979022.430
  21979022.554          49.500          38.000
 129857174.25746 101187411.07743  24710995.684                    24710994.470
  24710997.708          37.750          19.750
 123254898.14846  96042758.51347  23454624.629    23454628.846    23454623.603
  23454628.090          41.750          45.000
 121221365.90747  94458210.28144  23067657.502                    23067657.181
  23067657.613          43.250          27.500
 108692671.34749  84695602.94748  20683516.017    20683518.777    20683516.233
  20683518.424          56.000          53.000
 119670399.91747  93249632.21347  22772512.499    22772515.876    22772512.469
  22772514.660          46.250          46.000
 117923247.73647  91888250.83945  22440039.450                    22440039.097
  22440039.539          47.000          35.000
 16  9 30  0 39 30.0000000  0  9G24G10G18G21G27G11G32G08G14
 120371853.33147  93796258.16347  22905994.242    22905997.271    22905994.287
  22905997.518          43.500          46.000
 107079346.49249  83438460.23749  20376508.661    20376510.875    20376508.652
  20376511.103          57.250          55.000
 115564777.77248  90050506.80746  21991232.897                    21991231.945
  21991232.478          49.500          38.250
 129960567.25146 101267977.00543  24730671.435                    24730670.808
  24730672.750          36.750          18.250
 123347695.73746  96115068.23247  23472283.423    23472287.387    23472282.659
  23472286.854          41.500          45.000
 121138821.81547  94393890.22244  23051949.881                    23051949.945
  23051950.045          44.250          28.750
 108646177.84049  84659374.24048  20674668.407    20674671.658    20674668.750
  20674671.126          56.500          53.000
 119706797.03547  93277993.59447  22779437.853    22779442.060    22779437.715
  22779441.719          46.000          46.000
 117834699.70347  91819252.40345  22423189.286                    22423189.139
  22423189.549          47.000          35.000
 16  9 30  0 40  0.0000000  0 10G24G10G18G21G27G11G32G01G08G14
 120404275.75647  93821522.40847  22912163.690    22912166.986    22912163.467
  22912167.019          43.750          46.000
 107101414.26249  83455655.89449  20380708.044    20380710.394    20380708.155
  20380710.499          57.000          54.000
 115629160.77248  90100675.36746  22003484.408                    22003483.723
  22003484.166          49.750          38.000
 130064081.00546 101348637.07042  24750369.760                    24750368.919
  24750370.701          36.500          16.250
 123440746.97047  96187575.62947  23489991.258    23489994.145    23489990.905
  23489993.816          42.250          44.000
 121056715.84247  94329911.55145  23036325.929                    23036326.019
  23036326.524          45.250          30.250
 108600171.33949  84623525.02048  20665913.983    20665916.707    20665914.146
  20665916.407          56.500          53.000
 127982406.03045                  24354241.607    24354246.393
                        31.750          33.000
 119743738.04747  93306778.77047  22786467.386    22786471.745    22786467.174
  22786471.082          45.500          46.000
 117746445.72147  91750483.08945  22406395.380                    22406394.294
  22406395.196          47.250          35.250
 16  9 30  0 40 30.0000000  0 10G24G10G18G21G27G11G32G01G08G14
 120437286.77047  93847245.29347  22918445.644    22918448.922    22918446.128
  22918448.629          44.000          46.000
 107123853.49149  83473141.00549  20384978.228    20384980.332    20384978.254
  20384980.573          57.250          54.000
 115693762.48648  90151014.34346  22015777.875                    22015776.900
  22015777.596          50.000          37.750
 130167713.72345 101429389.82142  24770091.174                    24770089.112
  24770091.088          35.750          16.500
 123534048.76446  96260278.25247  23507745.098    23507749.040    23507744.839
  23507748.674          41.750          44.000
 120975050.63647  94266276.34745  23020786.337                    23020785.200
  23020786.333          45.750          30.750
 108554652.52749  84588055.81948  20657251.789    20657254.801    20657251.994
  20657254.539          56.500          53.000
 127876578.71245  99644092.96746  24334105.010    24334108.877    24334105.698
  24334109.041          33.750          37.000
 119781221.30647  93335986.49547  22793600.765    22793604.399    22793600.665
  22793603.967          46.250          45.000
 117658487.22547  91681944.03345  22389656.842                    22389656.747
  22389657.667          47.000          35.000
 16  9 30  0 41  0.0000000  0 10G24G10G18G21G27G11G32G01G08G14
 120470885.18747  93873425.87447  22924839.656    22924842.550    22924838.881
  22924842.408          43.500          46.000
 107146663.94649  83490915.37749  20389318.824    20389321.127    20389318.794
  20389321.319          57.250          55.000
 115758582.05648  90201523.08946  22028112.218                    22028112.070
  22028112.440          49.250          37.500
 130271463.70245 101510233.90942  24789832.955                    24789832.386
  24789834.223          34.500          15.000
 123627598.07447  96333173.75647  23525547.883    23525550.942    23525546.485
  23525550.244          42.000          43.000
 120893829.26047  94202986.95145  23005329.871                    23005329.323
  23005329.095          46.000          30.000
 108509622.11949  84552967.19548  20648682.898    20648685.602    20648683.159
  20648685.442          56.750          53.000
 127770897.62945  99561744.08746  24313994.891    24313999.761    24313995.540
  24313999.079          34.500          37.000
 119819245.12147  93365615.41447  22800835.664    22800840.206    22800836.107
  22800839.466          45.750          46.000
 117570825.81247  91613636.44845  22372975.545                    22372975.086
  22372975.445          46.750          35.000
 16  9 30  0 41 30.0000000  0 10G24G10G18G21G27G11G32G01G08G14
 120505070.59147  93900063.86647  22931344.546    22931347.730    22931344.199
  22931347.680          44.000          46.000
 107169845.33049  83508978.78549  20393730.098    20393732.457    20393730.123
  20393732.619          57.250          54.000
 115823619.45048  90252201.56546  22040488.675                    22040488.143
  22040488.347          49.500          37.500
 130375328.94445 101591167.82942  24809598.291                    24809596.679
  24809599.129          34.500          13.250
 123721391.71947  96406259.64547  23543395.393    23543399.094    23543395.849
  23543398.707          42.000          43.000
 120813053.99147  94140045.18245  22989958.948                    22989958.291
  22989958.736          45.750          30.000
 108465080.77749  84518259.66049  20640206.677    20640209.849    20640206.996
  20640209.405          56.750          54.000
 127665365.13645  99479510.97346  24293912.832    24293917.215    24293913.324
  24293917.525          34.250          38.000
 119857808.05247  93395664.45047  22808174.726    22808178.679    22808174.026
  22808177.469          46.500          46.000
 117483462.96447  91545561.52845  22356350.983                    22356350.171
  22356351.468          47.500          35.250
 16  9 30  0 42  0.0000000  0 10G24G10G18G21G27G11G32G01G08G14
 120539841.26647  93927157.92947  22937960.708    22937964.053    22937961.399
  22937963.922          44.250          45.000
 107193397.39949  83527331.03749  20398212.002    20398214.098    20398211.902
  20398214.286          57.250          54.000
 115888874.26248  90303049.45246  22052906.130                    22052905.837
  22052905.728          50.000          37.500
 130479308.07145 101672190.48342  24829385.132                    24829383.819
  24829385.906          35.250          15.000
 123815426.62246  96479533.55347  23561289.153    23561294.133    23561288.924
  23561292.560          41.750          43.000
 120732727.38947  94077453.03445  22974673.607                    22974672.661
  22974673.222          45.750          30.250
 108421029.15049  84483933.71848  20631824.155    20631827.073    20631824.354
  20631826.733          57.000          53.000
 127559983.53245  99397395.44946  24273857.716    24273862.895    24273858.400
  24273862.188          35.000          38.000
 119896907.95147  93426131.88147  22815615.240    22815618.959    22815615.351
  22815618.702          47.250          45.000
 117396400.15547  91477720.41745  22339783.517                    22339783.167
  22339783.634          47.500          35.250
 16  9 30  0 42 30.0000000  0 10G24G10G18G21G27G11G32G01G08G14
 120575195.52547  93954706.70547  22944688.492    22944691.815    22944689.069
  22944692.071          44.250          46.000
 107217319.85349  83545971.90449  20402764.119    20402766.354    20402764.161
  20402766.749          57.250          54.000
 115954346.05948  90354066.41546  22065365.108                    22065364.740
  22065364.626          49.500          37.250
 130583398.90945 101753300.15942  24849193.064                    24849192.285
  24849193.862          34.500          15.000
 123909699.75747  96552993.06447  23579229.522    23579232.478    23579229.667
  23579232.876          42.750          42.000
 120652851.85447  94015212.37545  22959473.874                    22959473.587
  22959472.845          45.750          30.250
 108377467.89049  84449989.88449  20623534.840    20623537.435    20623535.003
  20623537.270          57.250          54.000
 127454755.02045  99315399.22046  24253833.730    24253838.952    24253833.945
  24253839.644          34.250          38.000
 119936543.13047  93457016.41147  22823157.189    22823160.742    22823157.036
  22823160.676          45.750          45.000
 117309638.89347  91410114.26546  22323273.519                    22323272.656
  22323273.852          47.500          36.000
 16  9 30  0 43  0.0000000  0 10G24G10G18G21G27G11G32G01G08G14
 120611132.76447  93982709.74447  22951526.019    22951530.385    22951527.222
  22951530.569          43.250          46.000
 107241612.43849  83564901.18049  20407386.915    20407388.847    20407387.022
  20407389.370          57.500          54.000
 116020033.99448  90405251.79746  22077864.710                    22077864.522
  22077864.742          49.250          37.000
 130687599.47245 101834495.34142  24869021.503                    24869019.826
  24869022.164          35.500          14.000
 124004207.92547  96626635.75247  23597213.982    23597217.859    23597213.958
  23597217.033          42.750          43.000
 120573430.02447  93953325.25645  22944359.627                    22944358.818
  22944359.278          45.250          30.250
 108334397.60449  84416428.62749  20615338.691    20615341.505    20615338.943
  20615341.181          57.000          54.000
 127349682.01445  99233524.18046  24233838.154    24233842.741    24233839.626
  24233843.434          34.000          37.000
 119976711.82847  93488316.70047  22830801.186    22830805.212    22830801.189
  22830804.535          46.000          45.000
 117223180.70247  91342744.27946  22306821.244                    22306820.428
  22306821.213          47.750          36.000
 16  9 30  0 43 30.0000000  0 10G24G10G18G21G27G11G32G01G08G14
 120647651.70647  94011166.08247  22958476.694    22958479.775    22958476.857
  22958479.867          43.750          45.000
 107266274.87049  83584118.65449  20412080.034    20412082.256    20412079.919
  20412082.528          57.000          54.000
 116085937.41348  90456605.09146  22090406.268                    22090405.518
  22090405.320          49.500          37.000
 130791908.43146 101915775.03842  24888871.452                    24888869.476
  24888871.258          37.000          14.750
 124098948.11347  96700459.22747  23615243.248    23615246.827    23615242.683
  23615245.425          42.250          44.000
 120494464.83447  93891793.95145  22929334.001                    22929333.176
  22929333.430          45.750          30.750
 108291818.89949  84383250.41749  20607236.186    20607238.993    20607236.443
  20607238.800          57.000          54.000
 127244766.73245  99151772.01846  24213874.105    24213879.082    24213875.404
  24213879.809          35.750          38.000
 120017412.26647  93520031.31447  22838546.052    22838549.606    22838545.853
  22838550.247          46.250          45.000
 117137026.88548  91275611.45446  22290426.717                    22290426.100
  22290426.223          48.000          36.000
 16  9 30  0 44  0.0000000  0 10G24G10G18G21G27G11G32G01G08G14
 120684751.45147  94040074.98147  22965536.394    22965539.541    22965536.461
  22965539.679          43.750          46.000
 107291306.87749  83603624.11049  20416843.421    20416845.742    20416843.540
  20416845.908          57.000          54.000
 116152056.11248  90508126.15446  22102988.492                    22102987.358
  22102987.721          49.500          37.250
 130896323.69746 101997137.55442  24908741.491                    24908739.582
  24908741.218          37.500          16.000
 124193917.17247  96774461.02547  23633315.202    23633317.986    23633314.669
  23633317.501          42.500          43.000
 120415958.68447  93830620.36045  22914393.696                    22914393.430
  22914393.987          44.750          30.000
 108249732.37249  84350455.72749  20599227.392    20599230.390    20599227.775
  20599229.974          57.250          54.000
 127140011.59546  99070144.64646  24193940.737    24193944.946    24193939.661
  24193944.550          36.750          38.000
 120058642.52347  93552158.76647  22846391.998    22846396.049    22846391.880
  22846394.909          46.250          45.000
 117051179.07748  91208717.09646  22274090.672                    22274089.239
  22274090.751          48.000          36.000
 16  9 30  0 44 30.0000000  0 10G24G10G18G21G27G11G32G01G08G14
 120722429.86047  94069434.79447  22972705.628    22972709.224    22972706.215
  22972709.052          43.500          45.000
 107316708.14549  83623417.30049  20421677.358    20421679.396    20421677.166
  20421679.506          57.250          54.000
 116218389.46848  90559814.45746  22115610.876                    22115610.328
  22115611.029          49.250          37.250
 131000843.41846 102078581.46142  24928630.391                    24928629.699
  24928629.857          39.500          16.750
 124289111.97747  96848638.75547  23651430.029    23651432.854    23651428.916
  23651432.537          43.500          43.000
 120337914.04947  93769806.37145  22899542.898                    22899542.565
  22899542.553          45.500          30.500
 108208138.62749  84318045.02149  20591312.403    20591315.348    20591312.762
  20591314.980          57.250          54.000
 127035418.91246  98988643.82946  24174037.831    24174040.764    24174037.313
  24174041.623          36.000          38.000
 120100400.91747  93584697.77347  22854338.675    22854342.474    22854338.982
  22854341.651          47.250          45.000
 116965638.78547  91142062.34646  22257812.292                    22257811.899
  22257812.315          47.750          36.250
 16  9 30  0 45  0.0000000  0 10G24G10G18G21G27G11G32G01G08G14
 120760686.49047  94099245.15347  22979986.067    22979989.345    22979986.293
  22979989.947          44.000          46.000
 107342478.42849  83643498.03449  20426580.870    20426583.415    20426580.979
  20426583.668          56.750          54.000
 116284936.96448  90611669.63946  22128274.759                    22128273.702
  22128274.225          49.750          36.750
 131105466.09946 102160105.56642  24948538.766                    24948538.890
  24948538.179          39.250          17.750
 124384529.45447  96922989.95847  23669586.744    23669591.577    23669586.231
  23669590.768          42.000          44.000
 120260333.57347  93709354.07545  22884779.552                    22884778.903
  22884779.154          46.000          31.500
 108167038.21449  84286018.73249  20583491.277    20583494.200    20583491.517
  20583493.847          57.000          54.000
 126930990.94646  98907271.40946  24154164.305    24154169.487    24154165.084
  24154171.486          36.250          38.000
 120142685.53047  93617646.79247  22862385.135    22862389.139    22862384.793
  22862388.696          46.250          45.000
 116880407.49148  91075648.37246  22241593.568                    22241593.107
  22241593.385          48.000          36.250
 16  9 30  0 45 30.0000000  0 10G24G10G18G21G27G11G32G01G08G14
 120799519.98047  94129505.03247  22987375.872    22987379.382    22987376.363
  22987378.640          44.500          45.000
 107368617.39149  83663866.05449  20431555.408    20431557.435    20431555.195
  20431557.652          56.750          54.000
 116351697.98148  90663691.18546  22140978.575                    22140977.871
  22140977.997          49.500          37.000
 131210190.06346 102241708.62742  24968466.724                    24968466.963
  24968468.402          39.500          17.750
 124480166.49847  96997512.25447  23687786.233    23687789.754    23687785.988
  23687790.210          42.250          44.000
 120183219.72447  93649265.38345  22870105.404                    22870104.545
  22870105.375          46.250          32.000
 108126431.69249  84254377.29249  20575764.106    20575767.062    20575764.307
  20575766.819          57.000          54.000
 126826730.04246  98826029.16246  24134325.408    24134329.960    24134324.697
  24134328.817          37.750          39.000
 120185494.30347  93651004.26147  22870531.992    22870535.180    22870532.239
  22870534.174          47.250          45.000
 116795486.60747  91009476.29446  22225433.482                    22225433.025
  22225433.410          47.750          36.250
 16  9 30  0 46  0.0000000  0 10G24G10G18G21G27G11G32G01G08G14
 120838928.69647  94160213.13147  22994874.745    22994877.903    22994875.175
  22994879.117          43.750          45.000
 107395124.75849  83684521.13649  20436599.397    20436601.597    20436599.494
  20436601.879          57.000          54.000
 116418672.28148  90715878.92746  22153723.378                    22153722.835
  22153723.674          48.750          36.500
 131315012.85746 102323388.73443  24988413.052                    24988413.637
  24988415.774          39.500          19.250
 124576019.99447  97072203.22747  23706026.635    23706030.025    23706026.980
  23706030.250          42.500          44.000
 120106575.33447  93589542.49745  22855520.332                    22855520.209
  22855520.248          46.000          31.000
 108086319.58949  84223121.11449  20568130.846    20568133.896    20568131.228
  20568133.512          57.250          54.000
 126722638.65546  98744918.99446  24114516.920    24114520.387    24114518.294
  24114521.427          38.500          40.000
 120228825.34047  93684768.69447  22878777.418    22878780.967    22878776.939
  22878780.335          47.500          45.000
 116710877.69248  90943547.30346  22209332.904                    22209332.505
  22209333.192          48.250          36.750
 16  9 30  0 46 30.0000000  0 10G24G10G18G21G27G11G32G01G08G14
 120878911.42947  94191368.54547  23002483.873    23002487.068    23002484.089
  23002486.614          44.250          45.000
 107422000.23249  83705463.05749  20441713.562    20441715.845    20441713.737
  20441716.109          56.750          54.000
 116485859.21548  90768232.37746  22166508.489                    22166507.731
  22166508.611          49.000          36.500
 131419933.14346 102405144.75943  25008379.888                    25008378.955
  25008381.629          40.750          20.500
 124672086.84446  97147060.44947  23724307.329    23724311.757    23724306.766
  23724311.620          40.750          45.000
 120030402.69847  93530187.20845  22841025.175                    22841024.684
  22841025.131          46.250          31.500
 108046702.42049  84192250.59449  20560591.973    20560595.023    20560592.245
  20560594.801          57.250          54.000
 126618719.03546  98663942.69546  24094741.145    24094747.275    24094742.832
  24094746.903          38.500          40.000
 120272676.61847  93718938.50647  22887121.532    22887125.481    22887121.036
  22887125.212          46.500          45.000
 116626582.16548  90877862.49646  22193292.073                    22193291.340
  22193292.400          48.250          37.000
 16  9 30  0 47  0.0000000  0 10G24G10G18G21G27G11G32G01G08G14
 120919466.43147  94222969.86147  23010201.036    23010205.012    23010200.682
  23010204.242          44.000          45.000
 107449243.49549  83726691.56849  20446897.922    20446899.976    20446897.910
  20446900.346          56.750          54.000
 116553258.42948  90820751.20846  22179334.583                    22179333.611
  22179334.411          49.000          36.250
 131524949.00546 102486975.27343  25028364.146                    25028362.747
  25028364.145          40.750          19.500
 124768363.92546  97222081.46047  23742628.679    23742633.056    23742627.539
  23742632.041          41.000          45.000
 119954704.46647  93471201.57545  22826620.578                    22826619.745
  22826620.092          46.000          31.500
 108007580.68249  84161766.13149  20553147.571    20553150.493    20553147.755
  20553150.072          57.250          54.000
 126514973.49946  98583102.05146  24074999.798    24075004.255    24074999.328
  24075004.596          39.500          41.000
 120317046.30647  93753512.27347  22895565.012    22895568.808    22895564.435
  22895568.018          46.250          45.000
 116542601.48748  90812423.02546  22177310.724                    22177310.502
  22177311.016          48.250          36.750
 16  9 30  0 47 30.0000000  0 10G24G10G18G21G27G11G32G01G08G14
 120960592.08747  94255015.85247  23018026.489    23018029.552    23018028.132
  23018029.970          44.500          44.000
 107476854.22949  83748206.42249  20452151.791    20452154.275    20452151.891
  20452154.445          56.500          54.000
 116620869.33448  90873435.01946  22192200.537                    22192199.869
  22192199.993          48.750          36.500
 131630058.63746 102568878.83443  25048365.911                    25048365.472
  25048366.756          40.250          19.500
 124864848.11346  97297263.88347  23760989.107    23760993.438    23760988.731
  23760991.856          41.000          44.000
 119879483.04347  93412587.50745  22812305.854                    22812305.696
  22812305.951          46.750          31.500
 107968954.85849  84131668.09049  20545797.330    20545800.015    20545797.464
  20545799.903          57.250          54.000
 126411404.54146  98502398.97146  24055290.630    24055295.296    24055290.269
  24055295.342          39.750          41.000
 120361932.52747  93788488.53947  22904106.320    22904110.342    22904106.185
  22904109.852          46.250          45.000
 116458936.99448  90747229.94846  22161390.006                    22161389.296
  22161390.468          48.250          37.000
 16  9 30  0 48  0.0000000  0 10G24G10G18G21G27G11G32G01G08G14
 121002287.75047  94287506.01047  23025961.349    23025964.692    23025961.641
  23025963.996          44.750          45.000
 107504832.16149  83770007.40749  20457476.097    20457478.413    20457476.148
  20457478.424          57.000          54.000
 116688691.22848  90926283.23646  22205106.793                    22205105.977
  22205106.282          49.000          36.250
 131735260.15646 102650854.04343  25068384.714                    25068383.845
  25068386.416          41.250          18.750
 124961536.34846  97372605.26247  23779388.050    23779392.207    23779388.194
  23779391.160          41.000          44.000
 119804741.09747  93354347.03145  22798083.554                    22798082.927
  22798083.388          46.500          31.750
 107930825.47449  84101956.89149  20538541.546    20538544.329    20538541.805
  20538543.921          57.250          54.000
 126308014.44246  98421835.27646  24035617.101    24035620.434    24035616.984
  24035620.420          40.750          41.000
 120407333.18547  93823865.65847  22912745.839    22912749.610    22912745.962
  22912748.849          46.250          45.000
 116375589.90648  90682284.18846  22145529.689                    22145529.556
  22145529.868          48.500          37.000
 16  9 30  0 48 30.0000000  0  9G24G10G18G27G11G32G01G08G14
 121044551.50447  94320438.81447  23034003.692    23034006.680    23034003.623
  23034006.831          45.000          45.000
 107533176.95949  83792094.25949  20462869.788    20462872.037    20462869.730
  20462872.230          56.500          54.000
 116756723.29848  90979295.23146  22218052.747                    22218051.606
  22218052.446          49.000          36.250
 125058425.46846  97448103.21547  23797825.133    23797828.772    23797824.859
  23797829.362          41.000          43.000
 119730480.98947  93296482.01745  22783951.759                    22783951.502
  22783951.337          46.250          31.500
 107893192.94749  84072632.85149  20531380.227    20531382.994    20531380.534
  20531382.730          57.500          54.000
 126204805.64746  98341412.84346  24015977.472    24015980.037    24015977.908
  24015981.842          41.250          41.000
 120453246.16647  93859641.98947  22921483.249    22921486.243    22921483.052
  22921486.409          46.750          45.000
 116292562.12648  90617587.24446  22129730.438                    22129729.599
  22129729.963          49.000          37.250
 16  9 30  0 49  0.0000000  0  9G24G10G18G27G11G32G01G08G14
 121087382.27047  94353813.45547  23042154.139    23042156.723    23042154.184
  23042157.564          44.500          44.000
 107561888.31849  83814466.74449  20468333.486    20468335.826    20468333.434
  20468336.033          56.250          54.000
 116824965.70948  91032471.13246  22231038.734                    22231037.683
  22231038.539          48.500          36.000
 125155512.39546  97523755.30747  23816299.414    23816304.139    23816299.411
  23816304.484          41.000          43.000
 119656705.11747  93238994.32545  22769912.615                    22769912.836
  22769912.081          46.500          31.750
 107856057.70649  84043696.30649  20524313.648    20524316.485    20524313.923
  20524316.179          57.500          54.000
 126101780.44146  98261133.46247  23996371.639    23996376.455    23996371.896
  23996376.689          40.500          42.000
 120499669.66247  93895816.11947  22930316.630    22930320.541    22930317.107
  22930319.866          46.000          45.000
 116209854.86948  90553140.04246  22113991.519                    22113990.739
  22113991.356          49.000          37.250
 16  9 30  0 49 30.0000000  0  9G24G10G18G27G11G32G01G08G14
 121130778.38347  94387628.65147  23050412.213    23050415.235    23050412.618
  23050416.158          44.500          45.000
 107590965.88249  83837124.58049  20473866.687    20473868.886    20473866.636
  20473869.137          56.250          54.000
 116893417.72948  91085810.34746  22244064.707                    22244064.688
  22244064.963          49.000          36.250
 125252794.02046  97599559.09247  23834812.272    23834816.068    23834812.248
  23834815.794          41.250          42.000
 119583416.06947  93181885.99545  22755965.980                    22755965.770
  22755966.049          46.000          30.750
 107819420.19249  84015147.60249  20517341.979    20517344.544    20517342.073
  20517344.205          57.500          54.000
 125998941.25246  98180999.07047  23976801.611    23976806.463    23976802.209
  23976806.929          41.000          42.000
 120546601.44247  93932386.33047  22939247.783    22939250.999    22939247.354
  22939251.060          46.000          45.000
 116127469.59148  90488943.74846  22098313.942                    22098313.361
  22098314.568          48.750          37.250
 16  9 30  0 50  0.0000000  0  9G24G10G18G27G11G32G01G08G14
 121174738.33547  94421883.19447  23058777.282    23058781.011    23058777.894
  23058780.265          44.750          45.000
 107620409.34549  83860067.53549  20479469.549    20479471.933    20479469.537
  20479472.017          56.750          54.000
 116962078.68748  91139312.36946  22257130.889                    22257129.860
  22257130.125          49.000          36.000
 125350267.23246  97675512.19046  23853360.805    23853364.590    23853360.612
  23853364.169          41.500          41.000
 119510616.23747  93125158.86345  22742112.993                    22742112.624
  22742113.063          45.500          31.250
 107783280.82649  83986987.06249  20510464.753    20510467.268    20510464.761
  20510467.252          57.500          54.000
 125896290.50146  98101011.50647  23957268.606    23957272.186    23957269.456
  23957272.747          41.500          42.000
 120594039.69047  93969351.16447  22948274.952    22948278.840    22948274.677
  22948278.522          46.250          46.000
 116045407.48148  90424999.27546  22082697.670                    22082697.417
  22082698.108          48.750          37.250
 16  9 30  0 50 30.0000000  0  9G24G10G18G27G11G32G01G08G14
 121219260.87647  94456576.07847  23067249.730    23067253.436    23067250.444
  23067253.438          44.250          45.000
 107650218.37449  83883295.34849  20485142.236    20485144.407    20485142.175
  20485144.586          56.500          54.000
 117030948.00448  91192976.76346  22270235.321                    22270235.373
  22270235.327          48.250          36.000
 125447928.90547  97751612.14547  23871945.653    23871949.450    23871945.210
  23871948.722          42.500          42.000
 119438308.24847  93068815.00345  22728352.617                    22728352.526
  22728353.239          45.750          31.250
 107747640.00849  83959215.00249  20503682.342    20503685.160    20503682.588
  20503684.882          57.000          54.000
 125793830.54146  98021172.59047  23937771.212    23937775.108    23937771.065
  23937775.149          41.750          42.000
 120641982.02747  94006708.81847  22957398.590    22957402.494    22957398.200
  22957402.164          46.000          46.000
 115963670.10948  90361307.83646  22067143.857                    22067143.199
  22067144.357          48.750          37.500
 16  9 30  0 51  0.0000000  0  9G24G10G18G27G11G32G01G08G14
 121264344.05247  94491705.85947  23075828.420    23075831.642    23075829.084
  23075831.437          44.000          45.000
 107680392.65549  83906807.77349  20490883.988    20490886.434    20490884.049
  20490886.570          56.000          54.000
 117100025.49048  91246803.35745  22283381.254                    22283380.288
  22283380.290          48.750          35.750
 125545775.97147  97827856.55946  23890565.140    23890567.898    23890564.878
  23890568.518          42.000          41.000
 119366494.51747  93012856.27945  22714687.977                    22714687.252
  22714687.221          46.500          31.500
 107712498.09649  83931831.69849  20496994.905    20496997.867    20496995.209
  20496997.661          57.000          54.000
 125691563.77947  97941484.20847  23918310.230    23918313.886    23918310.388
  23918314.549          42.000          42.000
 120690426.56847  94044457.80047  22966617.684    22966621.180    22966616.446
  22966620.497          46.500          46.000
 115882258.95648  90297870.59846  22051651.935                    22051650.979
  22051652.165          49.250          37.750
 16  9 30  0 51 30.0000000  0  9G24G10G18G27G11G32G01G08G14
 121309986.41147  94527271.35547  23084513.920    23084516.978    23084514.118
  23084517.211          44.750          45.000
 107710931.83849  83930604.54049  20496695.493    20496697.917    20496695.464
  20496697.870          56.500          54.000
 117169310.50948  91300791.67545  22296565.204                    22296564.514
  22296565.125          48.250          35.500
 125643805.27646  97904242.97746  23909219.433    23909222.435    23909219.611
  23909222.365          41.250          40.000
 119295177.32047  92957284.45545  22701116.255                    22701115.649
  22701116.569          46.500          31.250
 107677855.47749  83904837.45249  20490402.755    20490405.876    20490402.932
  20490405.419          56.750          54.000
 125589492.61546  97861948.25647  23898886.693    23898891.125    23898886.709
  23898891.732          41.500          43.000
 120739370.67447  94082596.04547  22975930.711    22975934.240    22975930.620
  22975933.858          46.500          46.000
 115801175.26348  90234688.51246  22036222.036                    22036221.784
  22036222.411          49.000          37.750
 16  9 30  0 52  0.0000000  0  9G24G10G18G27G11G32G01G08G14
 121356186.41347  94563271.39847  23093306.194    23093309.480    23093305.925
  23093308.991          44.250          45.000
 107741835.56949  83954685.36249  20502576.243    20502578.587    20502576.271
  20502578.780          56.500          54.000
 117238802.51448  91354941.28545  22309789.252                    22309788.752
  22309788.876          48.750          35.500
 125742013.74246  97980768.99846  23927907.676    23927911.153    23927907.086
  23927911.568          40.500          40.000
 119224359.46147  92902101.70145  22687639.926                    22687639.302
  22687639.697          46.750          31.250
 107643712.49149  83878232.53549  20483905.522    20483908.404    20483905.824
  20483908.231          56.750          54.000
 125487619.50547  97782566.63347  23879501.363    23879505.112    23879500.928
  23879504.956          42.000          42.000
 120788812.70047  94121122.26947  22985339.218    22985343.179    22985338.890
  22985342.652          46.000          45.000
 115720420.15248  90171762.48346  22020854.738                    22020853.857
  22020854.847          49.250          37.750
 16  9 30  0 52 30.0000000  0  9G24G10G18G27G11G32G01G08G14
 121402942.59147  94599704.80747  23102203.291    23102206.626    23102203.382
  23102205.990          44.250          45.000
 107773103.53449  83979050.00549  20508526.155    20508528.708    20508526.184
  20508528.909          56.000          54.000
 117308500.78548  91409251.59345  22323052.241                    22323051.584
  22323052.077          48.500          35.500
 125840398.30846  98057432.25846  23946630.543    23946634.395    23946629.492
  23946633.550          41.750          41.000
 119154042.86747  92847309.58545  22674259.098                    22674258.483
  22674259.245          46.000          31.250
 107610069.49149  83852017.21849  20477503.470    20477506.568    20477503.750
  20477506.127          56.750          54.000
 125385946.80747  97703341.16947  23860153.327    23860157.042    23860153.267
  23860156.686          42.250          43.000
 120838750.56747  94160034.88047  22994842.310    22994845.900    22994842.135
  22994845.489          46.500          46.000
 115639995.23448  90109093.74546  22005550.673                    22005550.033
  22005550.479          49.750          37.750
 16  9 30  0 53  0.0000000  0  9G24G10G18G27G11G32G01G08G14
 121450253.07147  94636570.16947  23111207.084    23111209.524    23111206.441
  23111209.612          45.000          45.000
 107804735.36449  84003698.18649  20514545.687    20514548.070    20514545.489
  20514548.249          56.250          54.000
 117378404.94148  91463722.36545  22336355.050                    22336354.487
  22336354.787          48.750          35.750
 125938955.82546  98134230.26846  23965385.311    23965388.393    23965384.571
  23965388.517          40.750          41.000
 119084230.08947  92792910.03045  22660974.473                    22660974.235
  22660973.772          47.000          31.000
 107576926.77849  83826191.73349  20471196.644    20471199.561    20471196.880
  20471199.285          56.750          54.000
 125284476.98147  97624273.75447  23840844.251    23840848.170    23840843.480
  23840847.905          42.500          42.000
 120889181.81547  94199331.92547  23004438.525    23004442.507    23004438.238
  23004441.703          46.250          45.000
 115559901.81648  90046683.32246  21990309.425                    21990308.961
  21990309.066          49.750          37.750
 16  9 30  0 53 30.0000000  0  9G24G10G18G27G11G32G01G08G14
 121498116.28047  94673866.18847  23120314.001    23120317.617    23120314.574
  23120317.972          43.750          45.000
 107836730.72249  84028629.62349  20520634.333    20520636.698    20520634.060
  20520636.745          56.250          54.000
 117448514.40948  91518353.08545  22349696.196                    22349695.520
  22349696.256          48.500          35.000
 126037683.17146  98211160.59746  23984173.090    23984175.434    23984171.647
  23984175.679          40.500          41.000
 119014923.51147  92738904.88745  22647785.392                    22647784.853
  22647785.797          46.500          31.500
 107544284.65449  83800756.32049  20464985.132    20464987.863    20464985.357
  20464987.634          56.500          54.000
 125183212.41947  97545366.30047  23821573.688    23821577.912    23821574.330
  23821577.753          42.000          43.000
 120940104.24747  94239011.73747  23014129.009    23014133.129    23014128.487
  23014132.846          46.000          46.000
 115480141.27148  89984532.26446  21975131.161                    21975131.135
  21975131.524          49.750          37.750
 16  9 30  0 54  0.0000000  0  9G24G10G18G27G11G32G01G08G14
 121546530.60647  94711591.69647  23129526.942    23129529.453    23129526.832
  23129530.122          43.750          45.000
 107869089.21049  84053844.03549  20526791.542    20526794.053    20526791.786
  20526794.356          56.000          54.000
 117518828.54348  91573143.32445  22363076.440                    22363075.763
  22363076.404          48.000          35.000
 126136577.22946  98288220.84047  24002991.930    24002995.311    24002990.932
  24002995.800          40.750          42.000
 118946125.63847  92685296.14745  22634693.926                    22634692.903
  22634693.677          47.250          32.750
 107512143.43149  83775711.21949  20458868.896    20458871.505    20458869.193
  20458871.369          56.750          54.000
 125082155.55046  97466620.68447  23802343.577    23802347.493    23802344.263
  23802347.453          41.750          43.000
 120991515.84047  94279072.69347  23023912.362    23023916.253    23023912.384
  23023915.902          45.750          45.000
 115400714.76948  89922641.51246  21960017.037                    21960016.530
  21960017.153          49.750          38.000
 16  9 30  0 54 30.0000000  0  9G24G10G18G27G11G32G01G08G14
 121595494.51547  94749745.42247  23138844.239    23138847.961    23138844.835
  23138848.100          43.750          45.000
 107901810.56449  84079341.18849  20533018.518    20533020.753    20533018.397
  20533020.987          55.500          54.000
 117589347.20347  91628092.89345  22376496.035                    22376495.004
  22376495.868          47.750          35.000
 126235634.96246  98365408.60847  24021842.447    24021846.570    24021841.531
  24021846.467          40.500          44.000
 118877838.93947  92632085.76145  22621699.683                    22621698.935
  22621699.350          47.500          32.250
 107480503.37449  83751056.63649  20452847.973    20452850.596    20452848.184
  20452850.453          56.500          54.000
 124981308.86247  97388038.86747  23783153.619    23783156.546    23783152.858
  23783157.246          42.250          43.000
 121043414.24447  94319512.99047  23033788.943    23033792.679    23033788.267
  23033791.874          46.000          45.000
 115321624.02048  89861012.39646  21944966.676                    21944966.286
  21944966.589          50.000          38.250
 16  9 30  0 55  0.0000000  0  9G24G10G18G27G11G32G01G08G14
 121645006.45047  94788326.18347  23148266.319    23148269.565    23148266.463
  23148269.031          43.750          45.000
 107934894.33249  84105120.74249  20539314.230    20539316.501    20539313.977
  20539316.561          55.750          54.000
 117660069.70348  91683201.32745  22389953.632                    22389952.857
  22389953.568          48.250          34.750
 126334853.23946  98442721.49347  24040721.399    24040726.400    24040721.367
  24040726.146          40.000          43.000
 118810065.44747  92579275.25645  22608802.523                    22608802.036
  22608802.535          47.000          32.500
 107449364.71649  83726792.75849  20446922.575    20446925.172    20446922.772
  20446924.955          56.500          54.000
 124880674.78147  97309622.70947  23764002.561    23764006.695    23764003.853
  23764007.297          42.250          43.000
 121095797.05947  94360330.75147  23043756.772    23043759.780    23043756.366
  23043759.189          46.000          44.000
 115242869.82748  89799645.52646  21929979.559                    21929979.179
  21929980.232          50.250          38.500
 16  9 30  0 55 30.0000000  0  9G24G10G18G27G11G32G01G08G14
 121695064.39747  94827332.44447  23157791.481    23157795.538    23157791.982
  23157795.408          43.500          45.000
 107968340.18849  84131182.44549  20545678.838    20545681.010    20545678.841
  20545681.274          56.000          54.000
 117730995.23248  91738467.97145  22403450.580                    22403449.469
  22403450.299          48.500          34.750
 126434228.96546  98520157.04147  24059631.883    24059636.624    24059631.963
  24059637.096          39.750          44.000
 118742807.69547  92526866.63545  22596003.928                    22596003.863
  22596003.556          47.500          33.000
 107418727.74649  83702919.80449  20441092.492    20441095.354    20441092.707
  20441094.928          56.250          54.000
 124780255.72647  97231374.09847  23744893.859    23744897.733    23744893.850
  23744897.640          42.500          43.000
 121148662.17547  94401524.32247  23053816.383    23053820.193    23053816.441
  23053819.433          46.000          45.000
 115164453.91948  89738542.26846  21915057.918                    21915057.279
  21915057.800          50.000          38.250
 16  9 30  0 56  0.0000000  0  9G24G10G18G27G11G32G01G08G14
 121745666.16147  94866762.41547  23167421.413    23167424.492    23167421.488
  23167424.728          44.000          45.000
 108002147.77149  84157526.01449  20552111.954    20552114.535    20552112.057
  20552114.598          55.250          54.000
 117802123.42848  91793892.51245  22416985.791                    22416985.294
  22416985.516          48.000          34.750
 126533759.03046  98597712.86347  24078572.980    24078577.349    24078572.680
  24078576.899          40.250          45.000
 118676067.69447  92474861.43545  22583303.820                    22583303.754
  22583303.172          47.500          33.250
 107388592.63849  83679437.91049  20435358.001    20435360.676    20435358.188
  20435360.466          55.500          54.000
 124680054.16347  97153294.97047  23725826.605    23725829.678    23725826.442
  23725830.214          42.250          43.000
 121202007.73847  94443092.28347  23063967.992    23063972.163    23063967.431
  23063971.899          46.250          46.000
 115086377.37648  89677703.44246  21900200.050                    21900199.961
  21900200.589          50.250          38.500
 16  9 30  0 56 30.0000000  0  9G24G10G18G27G11G32G01G08G14
 121796810.81047  94906615.43047  23177154.132    23177156.454    23177153.975
  23177157.106          44.500          44.000
 108036316.69649  84184151.14649  20558614.304    20558616.613    20558614.208
  20558616.664          55.750          54.000
 117873453.91548  91849474.69545  22430559.635                    22430558.762
  22430559.377          48.000          34.750
 126633440.40546  98675386.59347  24097540.640    24097546.107    24097541.919
  24097546.826          40.750          45.000
 118609847.95348  92423261.65445  22570702.226                    22570701.847
  22570702.212          48.000          33.250
 107358959.65749  83656347.28349  20429718.771    20429721.980    20429719.225
  20429721.524          55.500          54.000
 124580072.55047  97075387.22547  23706800.807    23706804.212    23706800.168
  23706804.439          42.250          44.000
 121255831.10847  94485032.57047  23074209.448    23074214.560    23074209.926
  23074213.766          45.500          46.000
 115008641.42848  89617130.00346  21885407.814                    21885407.180
  21885408.132          50.500          38.750
 16  9 30  0 57  0.0000000  0  9G24G10G18G27G11G32G01G08G14
 121848496.27747  94946889.88747  23186989.437    23186992.042    23186988.455
  23186992.072          44.000          45.000
 108070846.57849  84211057.55049  20565185.024    20565187.389    20565184.999
  20565187.494          55.750          54.000
 117944986.02747  91905213.98545  22444171.597                    22444170.962
  22444171.344          47.750          34.500
 126733269.90147  98753175.72847  24116539.785    24116543.626    24116539.408
  24116543.308          42.000          44.000
 118544150.63447  92372068.93945  22558201.367                    22558199.831
  22558200.839          47.000          33.000
 107329828.96049  83633648.04649  20424175.540    20424178.391    20424175.679
  20424178.057          55.750          54.000
 124480313.31747  96997652.78547  23687816.768    23687820.637    23687816.959
  23687820.563          42.500          44.000
 121310129.85547  94527343.27347  23084542.184    23084546.446    23084542.451
  23084545.936          45.500          45.000
 114931247.25948  89556822.90046  21870680.084                    21870679.584
  21870680.180          50.250          38.750
 16  9 30  0 57 30.0000000  0  9G24G10G18G27G11G32G01G08G14
 121900721.02947  94987584.55547  23196926.810    23196930.529    23196927.016
  23196930.070          43.750          45.000
 108105737.07949  84238244.95249  20571824.280    20571826.848    20571824.457
  20571826.997          55.500          54.000
 118016719.27347  91961110.00545  22457822.190                    22457821.664
  22457822.095          47.750          34.250
 126833244.50647  98831077.95847  24135563.333    24135567.375    24135562.686
  24135567.041          42.000          43.000
 118478978.06147  92321285.13845  22545798.622                    22545798.118
  22545799.015          46.750          33.500
 107301200.79049  83611340.39049  20418727.897    20418730.868    20418727.948
  20418730.243          55.750          54.000
 124380778.95347  96920093.57147  23668876.205    23668880.529    23668876.858
  23668880.183          42.250          44.000
 121364901.70347  94570022.60047  23094965.024    23094969.505    23094966.009
  23094968.867          45.500          45.000
 114854196.55548  89496783.42746  21856017.853                    21856017.194
  21856018.052          50.500          38.750
 16  9 30  0 58  0.0000000  0  9G24G10G18G27G11G32G01G08G14
 121953482.81447  95028697.69947  23206967.220    23206970.389    23206966.879
  23206970.165          43.750          45.000
 108140987.75849  84265713.01249  20578532.494    20578534.713    20578532.497
  20578534.970          55.250          54.000
 118088653.05548  92017162.30445  22471510.954                    22471509.876
  22471510.128          48.000          34.500
 126933361.00547  98909090.75247  24154615.337    24154620.604    24154614.699
  24154619.003          42.500          44.000
 118414333.13247  92270912.48845  22533496.764                    22533496.429
  22533497.173          46.750          33.250
 107273075.21849  83589424.36949  20413375.657    20413378.362    20413375.866
  20413378.196          55.500          54.000
 124281471.92447  96842711.51447  23649978.057    23649982.418    23649979.458
  23649981.718          42.500          43.000
 121420144.15647  94613068.66947  23105478.227    23105482.057    23105477.165
  23105481.303          45.750          45.000
 114777490.36248  89437012.39046  21841421.154                    21841420.358
  21841421.292          50.500          39.000
 16  9 30  0 58 30.0000000  0  9G24G10G18G27G11G32G01G08G14
 122006779.81747  95070227.87547  23217110.166    23217112.825    23217109.327
  23217113.679          44.000          45.000
 108176598.28349  84293461.46949  20585309.013    20585310.938    20585308.890
  20585311.275          55.000          54.000
 118160786.91748  92073370.49245  22485237.604                    22485236.965
  22485237.163          48.250          34.500
 127033616.49447  98987211.84147  24173693.681    24173697.138    24173692.965
  24173697.123          42.750          42.000
 118350217.44447  92220952.20545  22521296.435                    22521295.823
  22521296.076          47.250          33.500
 107245452.47349  83567900.16149  20408119.078    20408121.971    20408119.459
  20408121.769          55.500          54.000
 124182394.71647  96765508.51447  23631125.304    23631128.539    23631125.511
  23631129.136          43.000          43.000
 121475855.22347  94656479.85947  23116078.792    23116083.288    23116078.924
  23116083.175          45.250          45.000
 114701130.10448  89377510.91746  21826890.173                    21826889.421
  21826890.404          50.500          39.500
 16  9 30  0 59  0.0000000  0  9G24G10G18G27G11G32G01G08G14
 122060610.53847  95112173.94947  23227352.594    23227356.346    23227352.540
  23227355.673          43.000          45.000
 108212568.22249  84321489.99649  20592153.957    20592156.126    20592153.772
  20592156.296          54.500          54.000
 118233120.06247  92129733.96545  22499002.028                    22499000.922
  22499001.954          47.750          34.000
 127134007.80746  99065438.77647  24192796.342    24192801.440    24192796.402
  24192800.946          41.500          42.000
 118286633.10047  92171405.98145  22509196.180                    22509195.899
  22509196.939          46.750          33.500
 107218332.67749  83546767.86249  20402958.653    20402961.335    20402958.724
  20402961.018          55.250          55.000
 124083549.76847  96688486.48347  23612315.301    23612318.843    23612315.518
  23612319.052          44.000          43.000
 121532032.13647  94700254.06947  23126769.487    23126773.386    23126768.910
  23126772.748          45.250          45.000
 114625116.75348  89318279.77446  21812424.852                    21812424.570
  21812425.283          50.750          39.250
 16  9 30  0 59 30.0000000  0 10G24G10G18G27G11G32G01G22G08G14
 122114972.91247  95154534.31647  23237697.506    23237700.433    23237697.381
  23237700.868          43.000          44.000
 108248897.20149  84349798.28649  20599067.033    20599069.294    20599066.897
  20599069.471          54.500          54.000
 118305652.32847  92186252.60445  22512803.970                    22512803.763
  22512804.293          47.500          33.750
 127234531.82347  99143769.14246  24211926.461    24211929.300    24211925.750
  24211930.135          42.250          40.000
 118223582.57347  92122275.72645  22497198.474                    22497198.256
  22497198.945          47.000          33.750
 107191715.94249  83526027.55649  20397893.551    20397896.133    20397893.719
  20397896.008          55.500          54.000
 123984939.56047  96611647.37547  23593551.150    23593553.973    23593549.814
  23593553.638          44.250          44.000
 132869321.48546 103534528.66542  25284188.149                    25284186.346
  25284188.190          39.250          16.500
 121588672.83247  94744389.65947  23137548.097    23137551.503    23137547.194
  23137550.644          44.000          44.000
 114549451.36748  89259319.76646  21798026.513                    21798025.985
  21798026.653          51.000          39.250
 16  9 30  1  0  0.0000000  0 10G24G10G18G27G11G32G01G22G08G14
 122169865.44447  95197307.76247  23248143.671    23248146.874    23248143.726
  23248145.705          43.750          44.000
 108285584.82749  84378386.04849  20606048.296    20606050.812    20606048.312
  20606050.844          54.500          54.000
 118378382.87347  92242925.74045  22526644.739                    22526643.442
  22526644.393          47.750          33.750
 127335185.48546  99222200.50746  24231080.111    24231082.352    24231079.800
  24231083.285          41.750          39.000
 118161068.25547  92073563.27645  22485302.030                    22485301.767
  22485301.901          46.750          33.500
 107165602.39149  83505679.34449  20392924.210    20392926.964    20392924.517
  20392926.756          55.000          55.000
 123886566.60647  96534993.16247  23574830.847    23574834.311    23574830.774
  23574833.941          44.000          44.000
 132773848.96346 103460134.54842  25266019.037                    25266018.785
  25266017.414          39.000          17.000
 121645774.72847  94788884.63747  23148413.493    23148418.112    23148413.094
  23148417.173          44.500          45.000
 114474135.48448  89200632.08746  21783694.559                    21783693.824
  21783694.795          51.000          39.500
 16  9 30  1  0 30.0000000  0 10G24G10G18G27G11G32G01G22G08G14
 122225286.03647  95240492.70047  23258689.107    23258692.152    23258689.459
  23258692.295          44.000          44.000
 108322630.68549  84407252.94749  20613098.084    20613100.198    20613097.935
  20613100.519          54.750          54.000
 118451311.63247  92299753.34045  22540522.020                    22540521.898
  22540522.146          47.250          33.750
 127435965.77446  99300730.55846  24250257.529    24250262.233    24250257.481
  24250261.131          40.000          39.000
 118099092.02847  92025270.11545  22473508.899                    22473508.584
  22473508.791          47.000          33.250
 107139992.07349  83485723.26049  20388050.836    20388053.608    20388050.928
  20388053.227          55.750          55.000
 123788433.37547  96458525.70947  23556155.882    23556159.736    23556155.772
  23556160.389          43.000          42.000
 132678384.03146 103385746.30842  25247852.630                    25247851.752
  25247850.796          39.250          17.250
 121703335.37747  94833737.05547  23159367.424    23159371.163    23159366.119
  23159370.508          45.000          44.000
 114399170.25548  89142217.65346  21769429.139                    21769428.070
  21769428.921          51.000          39.500
 16  9 30  1  1  0.0000000  0 10G24G10G18G27G11G32G01G22G08G14
 122281232.79547  95284087.63747  23269336.252    23269338.782    23269336.241
  23269338.101          44.000          45.000
 108360034.38549  84436398.68549  20620215.653    20620218.028    20620215.649
  20620218.122          54.500          54.000
 118524437.87847  92356734.82245  22554437.920                    22554436.784
  22554437.608          47.500          33.750
 127536869.55846  99379356.84146  24269459.762    24269462.511    24269458.745
  24269462.461          39.000          39.000
 118037656.24847  91977398.08545  22461818.018                    22461817.508
  22461817.480          47.500          33.750
 107114885.09449  83466159.38549  20383272.885    20383275.865    20383273.260
  20383275.556          55.750          55.000
 123690542.30547  96382246.99047  23537528.013    23537532.371    23537527.386
  23537531.547          43.250          42.000
 132582927.69246 103311364.82843  25229688.463                    25229688.371
  25229687.109          40.000          18.750
 121761352.45647  94878945.15047  23170407.751    23170411.184    23170407.938
  23170410.459          45.250          44.000
 114324556.92848  89084077.43646  21755230.159                    21755229.775
  21755230.406          50.750          39.250
 16  9 30  1  1 30.0000000  0 10G24G10G18G27G11G32G01G22G08G14
 122337703.16247  95328090.60347  23280082.159    23280084.707    23280082.238
  23280084.991          43.500          44.000
 108397795.49049  84465822.92449  20627401.443    20627403.610    20627401.280
  20627403.767          54.250          54.000
 118597760.69347  92413869.45645  22568390.606                    22568390.158
  22568390.289          47.500          33.750
 127637893.78946  99458076.98346  24288683.263    24288687.112    24288682.982
  24288687.310          39.250          40.000
 117976762.76347  91929948.63445  22450229.960                    22450229.853
  22450229.887          47.000          33.000
 107090281.50649  83446987.76549  20378591.074    20378593.921    20378591.365
  20378593.596          54.750          55.000
 123592895.95947  96306158.94747  23518946.648    23518949.600    23518946.692
  23518950.573          44.000          42.000
 132487480.48346 103236990.46443  25211526.785                    25211525.447
  25211524.853          40.250          18.500
 121819823.57447  94924507.05747  23181534.785    23181538.448    23181534.304
  23181538.173          45.000          44.000
 114250296.58148  89026212.25446  21741098.952                    21741099.014
  21741099.331          50.750          39.500
 16  9 30  1  2  0.0000000  0 10G24G10G18G27G11G32G01G22G08G14
 122394695.93247  95372500.59947  23290927.074    23290930.530    23290927.119
  23290929.526          42.750          44.000
 108435913.62549  84495525.36349  20634654.783    20634657.232    20634654.981
  20634657.488          54.250          54.000
 118671279.53047  92471156.87145  22582381.000                    22582380.573
  22582380.489          47.750          33.500
 127739035.40046  99536888.56346  24307929.183    24307933.459    24307929.306
  24307934.156          37.250          39.000
 117916413.92547  91882923.57545  22438746.136                    22438746.507
  22438745.839          47.500          33.000
 107066181.36949  83428208.44249  20374004.969    20374007.654    20374005.093
  20374007.529          55.750          54.000
 123495496.83147  96230263.53547  23500412.113    23500415.748    23500411.900
  23500416.129          44.250          43.000
 132392043.12746 103162623.72043  25193364.127                    25193363.369
  25193363.135          39.500          18.750
 121878746.24747  94970420.80147  23192746.794    23192750.076    23192746.986
  23192750.365          44.000          44.000
 114176390.14148  88968622.85446  21727035.441                    21727034.576
  21727035.267          51.000          39.750
 16  9 30  1  2 30.0000000  0 10G24G10G18G27G11G32G01G22G08G14
 122452209.00347  95417316.04647  23301871.609    23301873.787    23301870.846
  23301873.985          42.500          43.000
 108474388.35549  84525505.67149  20641976.492    20641978.878    20641976.443
  20641978.957          54.000          54.000
 118744994.09347  92528596.79045  22596408.370                    22596407.766
  22596408.288          47.500          33.250
 127840291.31546  99615789.19246  24327197.705    24327202.064    24327197.586
  24327202.768          37.500          40.000
 117856611.98547  91836324.67245  22427366.432                    22427366.299
  22427366.132          47.250          33.000
 107042584.70449  83409821.43849  20369514.675    20369517.335    20369515.049
  20369517.111          55.250          55.000
 123398347.36147  96154562.65747  23481925.137    23481928.598    23481925.422
  23481929.121          44.500          42.000
 132296616.87746 103088265.64742  25175203.247                    25175202.449
  25175204.526          36.750          16.750
 121938117.96747  95016684.45347  23204045.108    23204049.158    23204044.705
  23204048.871          44.500          44.000
 114102839.30748  88911310.54946  21713038.973                    21713038.188
  21713039.046          51.000          40.000
 16  9 30  1  3  0.0000000  0 10G24G10G18G27G11G32G01G22G08G14
 122510240.47047  95462535.44647  23312914.649    23312917.830    23312914.598
  23312917.485          44.000          45.000
 108513219.27248  84555763.52549  20649365.701    20649368.150    20649365.725
  20649368.171          53.500          54.000
 118818903.77047  92586188.73745  22610473.040                    22610471.939
  22610472.853          47.500          33.000
 127941658.43646  99694776.53346  24346487.694    24346492.665    24346486.886
  24346492.292          37.750          41.000
 117797358.97147  91790153.48545  22416090.394                    22416089.682
  22416090.187          47.000          33.000
 107019491.51749  83391826.75049  20365120.356    20365123.097    20365120.480
  20365122.670          55.000          54.000
 123301450.11047  96079058.30647  23463485.917    23463490.214    23463486.015
  23463490.337          44.250          43.000
 132201201.64346 103013916.14243  25157048.326                    25157047.142
  25157046.451          37.250          19.000
 121997936.24647  95063296.08447  23215427.735    23215431.878    23215427.813
  23215431.534          44.750          44.000
 114029645.26748  88854276.25646  21699110.661                    21699110.073
  21699110.941          51.000          39.750
 16  9 30  1  3 30.0000000  0 10G24G10G18G27G11G32G01G22G08G14
 122568788.38547  95508157.30947  23324055.393    23324058.000    23324054.869
  23324058.224          42.500          44.000
 108552405.93049  84586298.58249  20656822.685    20656825.086    20656822.684
  20656825.313          54.000          54.000
 118893008.28747  92643932.50645  22624574.264                    22624573.499
  22624575.064          47.500          33.500
 128043133.75346  99773848.10347  24365798.330    24365801.991    24365797.369
  24365802.936          38.000          42.000
 117738656.68747  91744411.45745  22404919.936                    22404919.739
  22404920.027          47.500          33.250
 106996901.80149  83374224.38149  20360821.645    20360824.116    20360821.922
  20360824.012          55.500          55.000
 123204807.54547  96003752.43247  23445096.083    23445099.931    23445096.234
  23445099.493          44.750          43.000
 132105798.44146 102939576.03043  25138894.418                    25138893.344
  25138892.266          39.250          19.500
 122058198.58747  95110253.74447  23226895.620    23226900.052    23226895.280
  23226899.004          44.250          44.000
 113956809.07948  88797520.81946  21685250.471                    21685250.318
  21685250.329          50.750          39.750
 16  9 30  1  4  0.0000000  0 10G24G10G18G27G11G32G01G22G08G14
 122627850.50147  95554179.83747  23335294.518    23335297.749    23335294.756
  23335297.938          42.750          44.000
 108591947.93848  84617110.53649  20664347.393    20664349.622    20664347.372
  20664349.987          53.750          54.000
 118967306.49847  92701827.22345  22638712.307                    22638712.376
  22638712.783          47.000          33.500
 128144714.16446  99853001.61647  24385127.508    24385132.245    24385127.555
  24385132.305          37.750          42.000
 117680507.64848  91699100.53245  22393854.621                    22393854.554
  22393854.677          48.250          34.000
 106974815.57349  83357014.34249  20356618.935    20356621.475    20356619.045
  20356621.109          55.500          55.000
 123108422.14847  95928646.94647  23426754.554    23426757.640    23426753.290
  23426757.559          44.750          43.000
 132010408.14346 102865245.96943  25120741.969                    25120740.138
  25120740.191          40.000          19.500
 122118902.38247  95157555.39247  23238447.012    23238450.623    23238447.505
  23238451.202          44.500          44.000
 113884331.51048  88741044.82546  21671458.413                    21671457.565
  21671458.086          51.250          40.000
 16  9 30  1  4 30.0000000  0 10G24G10G18G27G11G32G01G22G08G14
 122687424.55547  95600601.20447  23346631.303    23346634.047    23346631.007
  23346634.150          42.500          43.000
 108631844.87048  84648199.05749  20671939.365    20671941.933    20671939.371
  20671942.091          53.250          54.000
 119041798.26647  92759872.74345  22652888.149                    22652887.193
  22652888.074          47.500          33.000
 128246396.66046  99932234.67247  24404478.009    24404482.334    24404476.416
  24404481.492          38.250          42.000
 117622913.72247  91654222.15445  22382894.511                    22382894.528
  22382895.234          47.250          33.500
 106953232.78949  83340196.59749  20352511.685    20352514.530    20352511.859
  20352514.062          54.750          55.000
 123012296.53347  95853743.88847  23408462.637    23408466.172    23408462.355
  23408466.464          44.250          43.000
 131915031.46246 102790926.56443  25102591.319                    25102591.066
  25102590.171          39.000          18.500
 122180045.04847  95205199.00547  23250082.666    23250085.612    23250082.540
  23250085.276          44.750          44.000
 113812213.99848  88684849.38546  21657734.902                    21657734.319
  21657734.519          51.250          40.000
 16  9 30  1  5  0.0000000  0 10G24G10G18G27G11G32G01G22G08G14
 122747508.95447  95647420.32147  23358064.727    23358068.126    23358064.770
  23358067.837          42.750          43.000
 108672096.21948  84679563.74649  20679599.072    20679601.420    20679598.940
  20679601.698          52.500          54.000
 119116483.13247  92818068.72545  22667100.277                    22667099.893
  22667099.587          46.500          32.750
 128348178.23946 100011544.94147  24423846.478    24423849.926    24423846.045
  24423849.483          38.500          42.000
 117565877.11147  91609778.07845  22372040.960                    22372040.710
  22372040.790          47.750          33.750
 106932153.41149  83323771.11049  20348500.220    20348503.022    20348500.484
  20348502.836          54.250          55.000
 122916433.11547  95779045.16047  23390219.419    23390224.055    23390219.817
  23390223.847          43.250          43.000
 131819669.03846 102716618.24843  25084444.205                    25084443.783
  25084443.834          40.000          19.500
 122241624.43947  95253182.91347  23261800.395    23261804.839    23261800.672
  23261802.830          45.000          44.000
 113740457.68448  88628935.40446  21644079.762                    21644079.128
  21644079.480          51.250          40.000
 16  9 30  1  5 30.0000000  0 10G24G10G18G27G11G32G01G22G08G14
 122808101.56047  95694635.35947  23369595.099    23369598.294    23369594.891
  23369598.206          43.250          44.000
 108712701.62748  84711204.32149  20687325.695    20687328.487    20687325.764
  20687328.505          53.250          54.000
 119191360.38147  92876414.61445  22681348.966                    22681348.586
  22681348.908          47.000          33.000
 128450055.80446 100090929.99347  24443234.504    24443237.270    24443233.438
  24443237.140          38.500          42.000
 117509399.51547  91565769.56345  22361293.810                    22361293.357
  22361293.583          47.750          33.500
 106911577.36449  83307737.83149  20344584.803    20344587.727    20344585.078
  20344587.316          54.750          55.000
 122820834.43847  95704552.70747  23372027.443    23372032.283    23372028.307
  23372031.863          44.000          43.000
 131724322.04346 102642321.94743  25066301.588                    25066300.155
  25066298.149          41.750          22.750
 122303637.47647  95301504.75047  23273600.827    23273605.358    23273601.606
  23273604.330          44.750          44.000
 113669063.85248  88573303.86746  21630493.972                    21630493.533
  21630494.016          51.250          40.250
 16  9 30  1  6  0.0000000  0 10G24G10G18G27G11G32G01G22G08G14
 122869200.26647  95742244.81147  23381221.548    23381224.217    23381221.612
  23381224.497          42.500          43.000
 108753660.59848  84743120.40249  20695120.073    20695122.610    20695120.213
  20695122.859          53.750          54.000
 119266429.41147  92934909.97045  22695634.497                    22695633.799
  22695634.167          46.750          32.250
 128552026.20546 100170387.37947  24462636.800    24462642.082    24462636.833
  24462641.683          37.500          43.000
 117453483.06848  91522198.32045  22350653.513                    22350652.533
  22350653.136          48.750          35.000
 106891504.58249  83292096.70349  20340765.004    20340767.776    20340765.151
  20340767.650          55.250          55.000
 122725503.04547  95630268.51547  23353887.434    23353891.639    23353887.196
  23353891.039          44.500          44.000
 131628990.62147 102568037.77343  25048161.232                    25048159.483
  25048158.099          42.750          23.750
 122366082.14747  95350162.91647  23285484.150    23285487.840    23285483.919
  23285487.428          45.250          44.000
 113598033.10548  88517955.25746  21616977.535                    21616976.835
  21616977.116          51.250          40.250
 16  9 30  1  6 30.0000000  0 10G24G10G18G27G11G32G01G22G08G14
 122930802.78647  95790246.80947  23392944.193    23392947.072    23392944.222
  23392946.724          42.250          44.000
 108794972.72248  84775311.66749  20702981.649    20702984.073    20702981.739
  20702984.156          53.000          54.000
 119341689.59947  92993554.26845  22709955.805                    22709954.745
  22709955.507          46.500          32.750
 128654086.60846 100249914.88346  24482059.456    24482062.460    24482057.903
  24482062.545          36.500          41.000
 117398129.82648  91479065.95045  22340119.833                    22340119.571
  22340119.698          48.500          34.500
 106871934.97449  83276847.66149  20337040.883    20337044.013    20337041.216
  20337043.639          55.000          55.000
 122630441.44147  95556194.54847  23335797.471    23335801.124    23335797.386
  23335801.416          45.000          44.000
 131533675.59047 102493766.39744  25030023.154                    25030021.280
  25030021.170          42.500          24.000
 122428955.44547  95399155.07347  23297448.652    23297452.729    23297448.168
  23297451.446          44.250          45.000
 113527366.74448  88462890.58646  21603529.754                    21603529.524
  21603530.002          51.500          40.250
 16  9 30  1  7  0.0000000  0 10G24G10G18G27G11G32G01G22G08G14
 122992907.45647  95838640.12447  23404762.625    23404765.373    23404762.511
  23404765.452          42.500          43.000
 108836637.55548  84807777.77049  20710910.332    20710912.573    20710910.340
  20710912.747          53.500          54.000
 119417140.60947  93052347.25445  22724313.275                    22724312.864
  22724313.827          46.000          32.500
 128756233.86346 100329510.10346  24501496.916    24501500.855    24501496.409
  24501501.602          36.250          41.000
 117343341.90848  91436374.07345  22329693.877                    22329693.346
  22329693.730          48.500          34.750
 106852868.46449  83261990.64849  20333412.836    20333415.431    20333413.081
  20333415.238          55.000          55.000
 122535652.16447  95482332.79947  23317759.499    23317763.320    23317759.590
  23317764.127          44.250          44.000
 131438378.01046 102419508.58743  25011888.039                    25011886.228
  25011885.908          41.750          23.250
 122492254.58347  95448479.07147  23309494.057    23309498.495    23309494.074
  23309497.532          44.750          45.000
 113457065.96148  88408110.77946  21590152.045                    21590151.775
  21590151.963          51.500          40.250
 16  9 30  1  7 30.0000000  0 10G24G10G18G27G11G32G01G22G08G14
 123055511.90547  95887422.86447  23416676.217    23416678.309    23416676.867
  23416678.134          42.750          43.000
 108878654.63348  84840518.34649  20718905.694    20718908.204    20718905.614
  20718908.402          52.750          54.000
 119492781.56847  93111288.25345  22738707.356                    22738706.411
  22738707.298          45.750          32.750
 128858464.84946 100409170.53646  24520951.636    24520954.267    24520950.318
  24520954.065          36.500          41.000
 117289120.99248  91394124.03345  22319375.803                    22319375.969
  22319376.007          48.250          34.250
 106834304.88949  83247525.52649  20329880.220    20329883.045    20329880.532
  20329882.850          54.750          55.000
 122441137.69647  95408685.18747  23299774.095    23299778.149    23299774.515
  23299778.388          44.500          44.000
 131343098.75146 102345265.06643  24993755.769                    24993755.524
  24993755.153          40.750          22.750
 122555977.48247  95498133.26347  23321619.816    23321623.477    23321619.746
  23321623.624          44.250          44.000
 113387131.86448  88353616.69546  21576844.063                    21576843.420
  21576843.962          51.750          40.500
 16  9 30  1  8  0.0000000  0 10G24G10G18G27G11G32G01G22G08G14
 123118614.07946  95936593.42447  23428684.038    23428686.208    23428683.303
  23428686.461          41.750          43.000
 108921023.49048  84873533.04048  20726968.346    20726970.580    20726968.127
  20726970.721          52.500          53.000
 119568612.47147  93170377.25545  22753137.262                    22753136.812
  22753138.117          44.750          32.500
 128960776.75545 100488894.03946  24540418.519    24540425.226    24540419.689
  24540425.265          34.000          40.000
 117235468.99748  91352317.29045  22309166.144                    22309165.699
  22309166.497          48.750          34.500
 106816244.14149  83233452.21949  20326443.492    20326446.138    20326443.598
  20326445.898          54.500          55.000
 122346900.60347  95335253.71647  23281841.535    23281845.416    23281840.901
  23281845.890          44.250          45.000
 131247838.09546 102271036.01943  24975627.532                    24975627.806
  24975627.054          40.250          22.500
 122620121.27647  95548115.41447  23333826.449    23333830.561    23333825.749
  23333829.484          44.250          45.000
 113317565.87248  88299409.44946  21563605.925                    21563605.460
  21563606.366          51.500          40.750
 16  9 30  1  8 30.0000000  0 10G24G10G18G27G11G32G01G22G08G14
 123182211.55747  95986149.95247  23440785.812    23440788.067    23440785.921
  23440788.493          42.500          43.000
 108963743.66948  84906821.49448  20735097.499    20735100.013    20735097.429
  20735100.207          53.000          53.000
 119644632.25447  93229613.41245  22767603.053                    22767602.782
  22767604.180          44.500          32.500
 129063166.39645 100568678.11646  24559904.364    24559907.603    24559904.756
  24559908.445          34.750          39.000
 117182388.07948  91310955.55445  22299064.915                    22299065.169
  22299065.479          48.750          34.750
 106798686.06749  83219770.61049  20323102.291    20323105.324    20323102.459
  20323104.801          55.250          55.000
 122252943.38247  95262040.31547  23263962.662    23263966.603    23263962.536
  23263966.689          44.250          45.000
 131152597.37646 102196822.55143  24957503.841                    24957504.800
  24957504.276          38.500          21.750
 122684683.36747  95598423.51247  23346111.755    23346116.131    23346111.760
  23346115.883          44.250          45.000
 113248368.56148  88245489.50046  21550438.469                    21550437.827
  21550438.715          51.750          40.750
 16  9 30  1  9  0.0000000  0 10G24G10G18G27G11G32G01G22G08G14
 123246302.44147  96036090.94747  23452982.105    23452984.743    23452981.526
  23452984.178          43.000          44.000
 109006814.73548  84940383.35948  20743293.454    20743296.057    20743293.616
  20743296.370          52.500          53.000
 119720840.46847  93288996.42845  22782106.067                    22782105.227
  22782106.059          44.750          32.000
 129165630.86045 100648520.51746  24579402.194    24579407.821    24579401.651
  24579407.809          34.250          40.000
 117129879.91648  91270040.11545  22289073.705                    22289073.316
  22289074.025          49.000          35.000
 106781630.51549  83206480.57649  20319856.658    20319859.580    20319857.005
  20319859.299          55.000          55.000
 122159268.61447  95189047.02347  23246136.474    23246140.187    23246136.547
  23246140.993          45.000          45.000
 131057377.16746 102122625.00943  24939385.656                    24939383.865
  24939384.130          39.250          21.250
 122749661.00447  95649055.42147  23358476.830    23358480.761    23358476.247
  23358480.475          45.000          44.000
 113179541.04748  88191857.69246  21537340.812                    21537340.097
  21537340.825          51.250          40.750
 16  9 30  1  9 30.0000000  0 10G24G10G18G27G11G32G01G22G08G14
 123310885.01147  96086415.14847  23465271.615    23465273.040    23465271.799
  23465273.218          43.000          43.000
 109050236.18448  84974218.25548  20751556.625    20751558.952    20751556.635
  20751559.235          53.500          53.000
 119797236.46347  93348525.75945  22796643.209                    22796642.442
  22796643.392          43.750          32.250
 129268167.03245 100728418.76546  24598914.463    24598920.545    24598914.621
  24598919.416          34.250          40.000
 117077946.20848  91229572.30545  22279191.234                    22279189.829
  22279190.591          48.500          35.250
 106765077.29049  83193581.96149  20316707.050    20316709.599    20316707.096
  20316709.233          55.750          55.000
 122065878.78547  95116275.73747  23228364.824    23228368.396    23228364.042
  23228368.606          45.000          44.000
 130962178.04946 102048443.92543  24921268.628                    24921267.164
  24921268.289          39.750          21.500
 122815051.62347  95700009.13947  23370920.348    23370923.795    23370920.028
  23370923.086          44.500          44.000
 113111084.39548  88138514.85846  21524313.663                    21524313.308
  21524313.986          51.500          41.000
 16  9 30  1 10  0.0000000  0 10G24G10G18G27G11G32G01G22G08G14
 123375956.51547  96137120.29847  23477654.121    23477656.304    23477654.472
  23477656.806          43.250          43.000
 109094007.58048  85008325.83848  20759885.981    20759888.368    20759886.118
  20759888.743          52.500          53.000
 119873819.74347  93408201.03045  22811216.603                    22811216.098
  22811217.289          42.500          32.250
 129370772.02045 100808370.64146  24618439.489    24618446.152    24618439.851
  24618445.083          35.000          41.000
 117026589.44648  91189554.07645  22269417.981                    22269417.532
  22269417.800          48.750          35.750
 106749026.20749  83181074.62949  20313652.302    20313655.233    20313652.651
  20313654.905          54.500          55.000
 121972776.44947  95043728.48147  23210647.827    23210652.125    23210648.380
  23210651.695          45.250          45.000
 130867000.85646 101974279.98143  24903157.740                    24903156.884
  24903155.937          40.500          22.750
 122880852.74647  95751282.70147  23383441.192    23383446.160    23383441.482
  23383444.963          44.500          45.000
 113042999.35948  88085461.60946  21511357.704                    21511357.225
  21511357.745          51.500          41.000
 16  9 30  1 10 30.0000000  0 10G24G10G18G27G11G32G01G22G08G14
 123441514.80747  96188204.78947  23490129.515    23490131.584    23490129.516
  23490131.629          43.000          43.000
 109138128.41748  85042705.70648  20768281.919    20768284.206    20768281.926
  20768284.486          52.750          53.000
 119950589.77147  93468021.81745  22825825.300                    22825824.555
  22825825.854          43.750          32.500
 129473442.69945 100888373.74246  24637976.247    24637982.928    24637975.961
  24637982.241          35.000          39.000
 116975811.12048  91149986.54945  22259755.082                    22259754.607
  22259755.131          48.500          34.750
 106733477.08149  83168958.43449  20310693.647    20310696.177    20310693.606
  20310695.891          55.000          55.000
 121879964.16947  94971407.24547  23192986.315    23192989.424    23192987.002
  23192990.816          45.250          44.000
 130771846.55546 101900133.82843  24885050.065                    24885049.677
  24885049.909          40.000          22.250
 122947061.13647  95802873.63047  23396041.103    23396044.914    23396040.715
  23396044.204          44.750          44.000
 112975287.50048  88032699.13546  21498472.592                    21498471.921
  21498472.571          51.500          41.000
 16  9 30  1 11  0.0000000  0 11G24G10G18G31G27G11G32G01G22G08G14
 123507557.93847  96239667.02847  23502696.725    23502699.186    23502697.001
  23502699.182          42.750          43.000
 109182598.24948  85077357.51848  20776744.169    20776746.636    20776744.257
  20776746.877          52.500          53.000
 120027546.05947  93527987.74545  22840470.041                    22840469.197
  22840469.599          44.000          32.000
 130510153.76846 101696223.57146  24835257.246    24835257.574    24835256.732
  24835258.788          41.000          37.000
 129576176.13946 100968425.71346  24657528.349    24657531.937    24657526.059
  24657531.212          36.250          38.000
 116925613.01248  91110871.15045  22250202.836                    22250201.908
  22250203.194          48.500          35.250
 106718429.66849  83157233.17749  20307829.943    20307832.738    20307830.175
  20307832.409          54.750          55.000
 121787444.46247  94899313.97647  23175380.459    23175384.186    23175380.354
  23175383.636          44.750          44.000
 130676715.90746 101826006.06443  24866946.716                    24866946.506
  24866946.546          39.000          21.250
 123013674.69547  95854780.27947  23408715.963    23408721.863    23408716.456
  23408720.683          44.000          45.000
 112907949.68848  87980228.12446  21485658.358                    21485657.969
  21485658.478          51.750          41.000
 16  9 30  1 11 30.0000000  0 11G24G10G18G31G27G11G32G01G22G08G14
 123574083.16746  96291504.97147  23515356.134    23515358.669    23515356.035
  23515358.658          41.750          43.000
 109227416.55148  85112280.87448  20785272.858    20785275.550    20785273.021
  20785275.515          53.000          53.000
 120104687.85547  93588098.20045  22855149.616                    22855148.857
  22855149.318          43.750          31.750
 130393218.13446 101605104.91646  24813006.635    24813006.124    24813005.753
  24813005.906          41.500          37.000
 129678969.29646 101048524.24546  24677087.787    24677094.374    24677087.695
  24677091.463          37.000          40.000
 116875997.02048  91072209.35145  22240761.475                    22240761.150
  22240761.403          49.000          35.500
 106703883.73549  83145898.68649  20305061.818    20305064.844    20305062.052
  20305064.536          54.750          55.000
 121695219.84447  94827450.65747  23157830.942    23157833.984    23157830.497
  23157834.553          45.000          44.000
 130581609.82046 101751897.47443  24848849.495                    24848848.662
  24848847.187          40.750          23.750
 123080690.33347  95907000.22347  23421469.590    23421474.205    23421468.656
  23421473.487          44.000          45.000
 112840986.79248  87928049.25846  21472916.160                    21472915.240
  21472916.081          51.250          41.250
 16  9 30  1 12  0.0000000  0 11G24G10G18G31G27G11G32G01G22G08G14
 123641088.81046  96343717.22847  23528106.941    23528109.521    23528106.021
  23528108.955          41.750          43.000
 109272582.90448  85147475.43448  20793867.676    20793869.795    20793867.838
  20793870.245          52.250          53.000
 120182014.72147  93648352.90445  22869864.242                    22869863.650
  22869863.916          43.000          31.500
 130276268.02146 101513975.01346  24790749.661    24790752.505    24790750.289
  24790750.534          41.500          38.000
 129781819.18246 101128666.96946  24696659.284    24696663.798    24696658.988
  24696664.370          36.750          39.000
 116826964.84048  91034002.48145  22231430.559                    22231430.563
  22231430.565          48.750          35.500
 106689839.02049  83134954.75349  20302389.272    20302392.022    20302389.430
  20302391.773          54.250          55.000
 121603292.89847  94755819.29247  23140338.234    23140340.835    23140337.597
  23140341.495          45.000          45.000
 130486528.96646 101677808.53144  24830756.907                    24830756.425
  24830754.843          41.250          25.000
 123148105.51647  95959531.50447  23434297.758    23434302.081    23434297.785
  23434301.771          43.250          45.000
 112774399.90248  87876163.39046  21460244.973                    21460244.323
  21460244.778          51.750          41.000
 16  9 30  1 12 30.0000000  0 11G24G10G18G31G27G11G32G01G22G08G14
 123708572.40746  96396301.94647  23540947.540    23540950.433    23540948.090
  23540950.408          40.750          43.000
 109318096.75448  85182940.77348  20802528.820    20802531.209    20802528.762
  20802531.431          51.500          53.000
 120259525.94747  93708751.22945  22884614.161                    22884613.615
  22884613.808          42.500          30.750
 130159305.74546 101422835.59146  24768492.523    24768493.496    24768491.428
  24768495.277          40.250          38.000
 129884722.85246 101208851.61346  24716241.820    24716247.483    24716240.437
  24716247.114          37.250          40.000
 116778518.35848  90996251.96445  22222211.389                    22222211.481
  22222211.142          48.500          35.250
 106676295.28548  83124401.20449  20299811.942    20299814.663    20299812.284
  20299814.537          53.750          55.000
 121511666.15847  94684421.86147  23122901.423    23122905.605    23122900.978
  23122905.776          44.750          46.000
 130391473.78046 101603739.59444  24812668.792                    24812667.138
  24812667.306          41.250          25.250
 123215917.55847  96012372.02247  23447202.735    23447206.409    23447202.195
  23447206.320          43.250          44.000
 112708189.96548  87824571.24946  21447645.392                    21447645.006
  21447645.455          51.500          41.000
 16  9 30  1 13  0.0000000  0 11G24G10G18G31G27G11G32G01G22G08G14
 123776531.29846  96449257.01047  23553880.616    23553882.730    23553880.492
  23553883.036          41.750          43.000
 109363957.65248  85218676.53748  20811255.922    20811258.253    20811256.010
  20811258.504          52.750          53.000
 120337220.95747  93769292.78245  22899399.176                    22899398.367
  22899399.375          42.750          30.500
 130042334.23446 101331688.99646  24746232.592    24746235.095    24746233.002
  24746235.107          40.500          38.000
 129987677.29646 101289075.79746  24735832.383    24735838.176    24735832.471
  24735837.097          37.500          40.000
 116730659.15247  90958959.09145  22213104.010                    22213103.297
  22213104.460          47.750          35.000
 106663252.21749  83114237.77649  20297330.120    20297332.756    20297330.327
  20297332.456          55.000          55.000
 121420342.13847  94613260.33247  23105522.357    23105527.200    23105523.388
  23105527.753          45.000          45.000
 130296445.53146 101529691.65243  24794584.422                    24794582.976
  24794582.771          40.500          23.500
 123284123.83347  96065519.73947  23460182.133    23460186.392    23460181.925
  23460185.527          43.500          45.000
 112642357.95348  87773273.58946  21435118.385                    21435117.283
  21435117.947          51.750          41.000
 16  9 30  1 13 30.0000000  0 11G24G10G18G31G27G11G32G01G22G08G14
 123844963.91847  96502581.22547  23566901.891    23566905.290    23566902.375
  23566904.710          42.250          43.000
 109410165.06448  85254682.31048  20820048.810    20820051.014    20820048.841
  20820051.378          53.000          53.000
 120415099.45647  93829977.30145  22914218.468                    22914218.219
  22914218.718          42.250          30.250
 129925356.48646 101240537.55146  24723972.860    24723975.951    24723972.831
  24723974.334          40.000          38.000
 130090679.54346 101369337.24346  24755433.548    24755436.815    24755432.713
  24755439.332          39.250          40.000
 116683389.20547  90922125.36245  22204108.764                    22204108.412
  22204108.982          47.750          34.750
 106650709.56249  83104464.28749  20294943.223    20294945.965    20294943.488
  20294945.787          55.250          55.000
 121329323.38447  94542336.64647  23088203.292    23088206.209    23088202.990
  23088206.746          46.000          45.000
 130201445.17446 101455665.43743  24776506.514                    24776506.006
  24776505.087          40.750          22.500
 123352721.17447  96118972.17147  23473234.811    23473239.418    23473234.722
  23473239.349          43.500          44.000
 112576904.57048  87722270.96946  21422662.819                    21422662.631
  21422662.688          52.000          41.250
 16  9 30  1 14  0.0000000  0 11G24G10G18G31G27G11G32G01G22G08G14
 123913867.72947  96556272.54847  23580013.894    23580017.271    23580014.924
  23580016.763          42.000          43.000
 109456718.52248  85290957.73548  20828907.664    20828910.277    20828907.556
  20828910.402          53.250          53.000
 120493160.49047  93890804.07245  22929073.631                    22929073.393
  22929073.347          42.250          30.000
 129808375.26746 101149383.38746  24701712.247    24701715.703    24701712.468
  24701714.881          40.750          39.000
 130193726.55746 101449633.59246  24775041.936    24775047.502    24775041.675
  24775047.433          37.750          40.000
 116636710.00547  90885751.98545  22195226.080                    22195226.082
  22195225.958          47.500          35.250
 106638667.01149  83095080.48749  20292651.628    20292654.328    20292651.986
  20292654.123          55.250          55.000
 121238612.47447  94471652.84647  23070941.389    23070944.776    23070940.808
  23070945.348          45.250          44.000
 130106473.31746 101381661.42443  24758433.490                    24758432.871
  24758432.473          40.250          23.000
 123421707.30947  96172727.58147  23486363.084    23486367.422    23486362.530
  23486366.880          43.750          44.000
 112511831.20348  87671564.46046  21410279.951                    21410279.373
  21410279.709          52.000          41.500
 16  9 30  1 14 30.0000000  0 11G24G10G18G31G27G11G32G01G22G08G14
 123983240.85647  96610329.66647  23593215.249    23593217.800    23593215.643
  23593217.650          42.000          42.000
 109503617.50248  85327502.39948  20837832.177    20837834.643    20837832.122
  20837834.869          52.250          53.000
 120571403.74847  93951772.82745  22943963.313                    22943962.706
  22943962.524          42.000          30.000
 129691393.15446 101058228.56846  24679451.754    24679454.547    24679450.925
  24679453.103          41.250          39.000
 130296815.46446 101529962.55546  24794659.505    24794664.354    24794659.485
  24794665.337          37.750          41.000
 116590622.88547  90849839.96345  22186456.331                    22186456.068
  22186454.891          47.500          34.750
 106627124.23249  83086086.12049  20290455.181    20290457.818    20290455.373
  20290457.557          55.250          55.000
 121148211.89647  94401210.85647  23053738.457    23053741.546    23053738.324
  23053742.739          45.250          44.000
 130011530.62946 101307680.12843  24740366.587                    24740365.511
  24740365.569          39.250          22.000
 123491079.12047  96226783.51547  23499563.732    23499567.869    23499563.869
  23499567.597          44.250          43.000
 112447138.60848  87621154.65946  21397969.169                    21397968.672
  21397969.306          52.250          41.500
 16  9 30  1 15  0.0000000  0 11G24G10G18G31G27G11G32G01G22G08G14
 124053080.05446  96664749.84747  23606505.787    23606507.343    23606505.370
  23606507.668          41.750          43.000
 109550861.51748  85364315.91748  20846822.461    20846824.807    20846822.364
  20846825.086          52.000          53.000
 120649828.52046  94012883.02145  22958886.388                    22958886.176
  22958886.529          41.500          30.250
 129574413.19546 100967075.39546  24657190.288    24657191.349    24657190.396
  24657191.837          41.250          39.000
 130399943.25146 101610321.81746  24814283.514    24814289.565    24814282.855
  24814289.362          37.500          40.000
 116545130.11047  90814391.06245  22177799.365                    22177798.943
  22177799.192          47.500          34.500
 106616080.88149  83077480.91749  20288353.724    20288356.315    20288353.902
  20288356.104          55.000          55.000
 121058124.22247  94331012.69047  23036595.138    23036598.688    23036595.808
  23036598.585          44.750          44.000
 129916618.17646 101233722.38443  24722306.140                    24722304.999
  24722302.950          40.750          22.250
 123560833.83647  96281137.80747  23512838.069    23512842.666    23512837.566
  23512842.163          44.000          43.000
 112382827.71048  87571042.28746  21385731.199                    21385730.765
  21385731.263          52.000          41.500
 16  9 30  1 15 30.0000000  0 11G24G10G18G31G27G11G32G01G22G08G14
 124123383.64746  96719531.95047  23619883.561    23619886.377    23619884.419
  23619885.662          41.500          43.000
 109598450.04548  85401397.89048  20855878.305    20855880.672    20855878.321
  20855880.998          52.500          53.000
 120728434.38646  94074134.33944  22973845.114                    22973843.876
  22973843.647          41.500          29.750
 129457437.81646 100875925.80346  24634931.218    24634932.807    24634930.647
  24634931.226          41.000          39.000
 130503106.98346 101690709.09246  24833916.649    24833921.338    24833915.854
  24833920.479          38.750          40.000
 116500233.16047  90779406.40945  22169255.914                    22169255.389
  22169255.181          47.250          34.750
 106605536.63249  83069264.62349  20286347.269    20286349.868    20286347.426
  20286349.510          55.500          55.000
 120968351.95747  94261060.28847  23019511.982    23019514.648    23019511.812
  23019515.784          45.000          44.000
 129821736.72146 101159788.81343  24704250.257                    24704249.011
  24704249.298          40.000          22.500
 123630968.76947  96335788.38447  23526184.440    23526187.290    23526184.348
  23526187.539          44.500          42.000
 112318899.48548  87521228.09946  21373566.075                    21373565.821
  21373566.019          52.000          41.750
 16  9 30  1 16  0.0000000  0 11G24G10G18G31G27G11G32G01G22G08G14
 124194148.89546  96774673.72347  23633350.700    23633352.881    23633350.052
  23633352.547          41.750          43.000
 109646382.59048  85438747.92748  20864999.527    20865002.172    20864999.603
  20865002.193          52.500          53.000
 120807220.26147  94135525.90945  22988836.952                    22988836.372
  22988837.095          42.000          30.250
 129340469.98846 100784782.04946  24612672.890    24612674.601    24612672.574
  24612674.093          40.500          39.000
 130606303.71946 101771122.07746  24853553.037    24853559.911    24853553.380
  24853559.803          38.750          41.000
 116455933.41447  90744887.15045  22160825.700                    22160825.493
  22160825.440          47.000          35.500
 106595491.11949  83061436.95749  20284435.953    20284438.358    20284435.843
  20284437.916          55.500          55.000
 120878897.76447  94191355.74147  23002489.475    23002493.498    23002489.147
  23002493.023          45.500          45.000
 129726887.13946 101085880.07343  24686201.177                    24686200.036
  24686199.827          40.000          22.250
 123701481.19147  96390733.09047  23539602.141    23539605.548    23539601.849
  23539605.632          43.750          42.000
 112255354.90448  87471712.85946  21361473.967                    21361473.431
  21361473.880          51.750          41.500
 16  9 30  1 16 30.0000000  0 11G24G10G18G31G27G11G32G01G22G08G14
 124265373.73946  96830173.65047  23646903.216    23646906.644    23646903.791
  23646905.931          41.000          43.000
 109694658.59748  85476365.59348  20874186.166    20874188.477    20874186.100
  20874188.644          52.500          53.000
 120886186.08146  94197057.70945  23003863.444                    23003863.190
  23003863.676          41.750          30.500
 129223512.46046 100693646.39446  24590415.612    24590418.444    24590416.030
  24590418.398          41.000          38.000
 130709530.47846 101851558.48146  24873197.405    24873202.813    24873196.671
  24873201.984          37.750          41.000
 116412232.74647  90710834.69045  22152509.710                    22152509.299
  22152509.636          45.750          35.750
 106585943.94949  83053997.60949  20282618.938    20282621.427    20282619.025
  20282621.253          55.750          55.000
 120789764.10747  94121900.96247  22985528.192    22985532.108    22985528.698
  22985531.716          45.750          45.000
 129632070.03846 101011996.61943  24668157.869                    24668157.189
  24668156.383          39.000          23.500
 123772368.15747  96445969.64347  23553092.107    23553095.640    23553091.182
  23553094.735          43.250          43.000
 112192194.73148  87422497.15146  21349455.043                    21349454.420
  21349454.881          51.750          41.750
 16  9 30  1 17  0.0000000  0 11G24G10G18G31G27G11G32G01G22G08G14
 124337055.39046  96886029.55747  23660543.977    23660546.556    23660544.658
  23660546.931          41.750          43.000
 109743277.55348  85514250.49748  20883437.957    20883440.359    20883437.943
  20883440.562          53.000          53.000
 120965330.88046  94258728.96445  23018924.548                    23018923.668
  23018924.741          41.000          30.250
 129106568.20446 100602521.05746  24568161.875    24568163.991    24568162.615
  24568164.907          40.000          39.000
 130812784.26746 101932015.92446  24892846.996    24892849.470    24892845.809
  24892850.428          39.500          40.000
 116369132.66247  90677250.23845  22144308.320                    22144307.701
  22144307.856          47.000          35.000
 106576894.73249  83046946.27649  20280896.715    20280899.489    20280896.919
  20280899.217          55.750          55.000
 120700953.53247  94052697.92647  22968627.849    22968631.201    22968627.698
  22968631.866          45.500          45.000
 129537286.50246 100938139.33543  24650120.724                    24650119.818
  24650119.804          38.750          22.750
 123843627.04147  96501496.03547  23566652.360    23566656.416    23566651.941
  23566655.173          44.000          43.000
 112129419.89948  87373581.71947  21337509.162                    21337508.472
  21337509.353          51.750          42.000
 16  9 30  1 17 30.0000000  0 11G24G10G18G31G27G11G32G01G22G08G14
 124409192.53647  96942240.38647  23674272.020    23674272.958    23674271.398
  23674273.638          43.000          42.000
 109792238.95748  85552402.23348  20892754.991    20892757.609    20892755.215
  20892757.507          52.500          53.000
 121044654.15146  94320539.28645  23034019.029                    23034018.761
  23034019.640          40.750          30.250
 128989639.91646 100511408.16346  24545911.306    24545914.337    24545911.584
  24545913.335          40.500          38.000
 130916062.25146 102012492.23446  24912499.663    24912504.362    24912499.779
  24912503.267          38.750          41.000
 116326634.72447  90644134.97545  22136220.753                    22136220.234
  22136220.640          46.000          35.500
 106568343.08049  83040282.65649  20279269.379    20279272.234    20279269.597
  20279271.818          55.500          55.000
 120612468.58647  93983748.64847  22951789.841    22951793.004    22951789.471
  22951793.649          45.000          45.000
 129442537.46146 100864308.92843  24632090.115                    24632089.566
  24632090.623          38.750          22.500
 123915254.64547  96557309.72747  23580282.582    23580286.582    23580281.726
  23580285.411          44.500          43.000
 112067031.36648  87324967.29247  21325637.171                    21325636.878
  21325637.123          52.000          42.000
 16  9 30  1 18  0.0000000  0 11G24G10G18G31G27G11G32G01G22G08G14
 124481781.95047  96998803.61247  23688084.347    23688086.890    23688085.315
  23688086.182          43.000          42.000
 109841542.25548  85590820.39148  20902137.296    20902139.517    20902137.332
  20902139.796          53.500          53.000
 121124155.26847  94382488.19545  23049147.864                    23049147.908
  23049147.531          43.000          30.500
 128872730.47446 100420309.95646  24523664.370    24523667.281    24523663.907
  24523666.289          39.750          37.000
 131019361.44246 102092985.05146  24932156.218    24932160.665    24932155.936
  24932159.944          38.500          40.000
 116284740.57047  90611490.19145  22128248.936                    22128247.782
  22128248.635          45.750          35.750
 106560288.58049  83034006.42949  20277736.598    20277739.529    20277736.912
  20277739.195          55.750          55.000
 120524311.80147  93915055.07947  22935013.897    22935018.574    22935013.950
  22935018.183          44.500          46.000
 129347823.35746 100790505.75143  24614066.216                    24614066.054
  24614066.118          37.500          22.500
 123987248.46747  96613408.78047  23593982.534    23593986.610    23593981.721
  23593986.308          45.500          44.000
 112005029.85448  87276654.44647  21313838.901                    21313837.952
  21313838.560          52.000          42.000
 16  9 30  1 18 30.0000000  0 11G24G10G18G31G27G11G32G01G22G08G14
 124554821.54347  97055717.60847  23701983.182    23701986.089    23701983.309
  23701986.048          42.750          42.000
 109891186.94148  85629504.55848  20911584.359    20911586.559    20911584.237
  20911586.824          52.000          53.000
 121203833.96047  94444575.49245  23064310.422                    23064309.675
  23064309.974          42.000          30.750
 128755842.64846 100329228.57246  24501421.818    24501425.065    24501421.466
  24501423.948          40.500          38.000
 131122678.96946 102173492.14746  24951818.058    24951822.996    24951817.550
  24951821.521          40.250          41.000
 116243451.36547  90579316.79146  22120392.050                    22120391.084
  22120390.750          46.250          36.000
 106552730.78549  83028117.24449  20276298.374    20276301.388    20276298.677
  20276300.910          55.250          55.000
 120436485.73047  93846619.19947  22918301.490    22918304.991    22918301.357
  22918305.157          44.750          45.000
 129253145.45046 100716730.76743  24596050.346                    24596049.930
  24596049.496          37.500          22.000
 124059605.77147  96669791.06147  23607751.645    23607755.278    23607751.562
  23607755.409          45.250          44.000
 111943416.39848  87228643.97947  21302114.028                    21302113.420
  21302113.768          51.750          42.000
 16  9 30  1 19  0.0000000  0 11G24G10G18G31G27G11G32G01G22G08G14
 124628308.81447  97112980.52147  23715968.059    23715969.455    23715967.771
  23715969.384          43.250          42.000
 109941172.44748  85668454.30448  20921096.118    20921098.307    20921096.144
  20921098.616          53.250          53.000
 121283689.53447  94506800.61745  23079506.319                    23079505.459
  23079506.398          42.750          30.250
 128638979.09346 100238166.10646  24479183.392    24479185.590    24479181.027
  24479184.741          40.750          38.000
 131226011.79546 102254011.21446  24971479.579    24971484.689    24971480.374
  24971484.400          38.250          38.000
 116202768.88847  90547616.17345  22112649.682                    22112649.434
  22112649.879          46.250          35.750
 106545669.24649  83022614.75749  20274954.358    20274957.308    20274954.762
  20274957.204          56.000          55.000
 120348992.97047  93778443.04447  22901651.595    22901654.679    22901652.331
  22901655.987          45.500          45.000
 129158504.67146 100642984.71443  24578040.894                    24578039.185
  24578040.211          38.500          23.250
 124132323.42947  96726454.15147  23621588.731    23621593.336    23621588.787
  23621592.275          45.000          43.000
 111882191.69048  87180936.43747  21290462.910                    21290462.618
  21290463.324          51.250          42.000
 16  9 30  1 19 30.0000000  0 11G24G10G18G31G27G11G32G01G22G08G14
 124702241.24947  97170590.25947  23730036.904    23730038.627    23730036.750
  23730038.785          42.750          42.000
 109991498.25748  85707669.22048  20930673.134    20930675.092    20930672.850
  20930675.489          53.000          53.000
 121363721.28346  94569163.02745  23094735.284                    23094734.770
  23094735.919          41.500          30.500
 128522143.01746 100147125.02446  24456949.691    24456952.790    24456949.953
  24456952.439          40.500          38.000
 131329357.09746 102334539.98046  24991146.263    24991150.893    24991146.510
  24991150.324          38.500          38.000
 116162694.52247  90516389.40645  22105023.849                    22105023.947
  22105023.750          46.250          35.750
 106539103.51749  83017498.60949  20273705.059    20273707.909    20273705.388
  20273707.736          55.750          55.000
 120261836.01247  93710528.54347  22885066.254    22885070.220    22885066.588
  22885070.526          45.500          46.000
 129063901.70446 100569268.13143  24560038.950                    24560037.197
  24560037.219          38.750          23.750
 124205398.66247  96783395.86547  23635495.047    23635499.661    23635494.365
  23635498.816          44.750          44.000
 111821356.56648  87133532.46346  21278886.494                    21278886.193
  21278886.707          51.500          41.750
 16  9 30  1 20  0.0000000  0 11G24G10G18G31G27G11G32G01G22G08G14
 124776616.44847  97228545.04747  23744189.440    23744192.037    23744189.045
  23744192.184          43.250          42.000
 110042163.80048  85747148.85948  20940314.295    20940316.205    20940314.249
  20940316.648          53.500          52.000
 121443928.53847  94631662.18745  23109998.829                    23109997.802
  23109999.075          43.250          30.500
 128405336.91346 100056107.29346  24434722.659    24434723.903    24434721.864
  24434725.406          41.250          37.000
 131432712.10546 102415076.31246  25010813.791    25010819.366    25010814.045
  25010819.539          38.500          38.000
 116123229.95447  90485637.79846  22097514.532                    22097513.806
  22097513.916          46.000          36.000
 106533033.12449  83012768.44249  20272550.050    20272553.019    20272550.314
  20272552.528          55.500          55.000
 120175017.38547  93642877.68247  22868544.328    22868549.700    22868544.803
  22868549.011          44.750          46.000
 128969337.28446 100495581.61444  24542045.340                    24542043.352
  24542042.176          39.750          25.250
 124278828.77647  96840614.08947  23649467.583    23649472.166    23649467.493
  23649472.173          44.250          44.000
 111760911.90948  87086432.75647  21267384.059                    21267383.694
  21267384.453          51.250          42.000
 16  9 30  1 20 30.0000000  0 11G24G10G18G31G27G11G32G01G22G08G14
 124851432.51246  97286843.39047  23758426.903    23758428.744    23758426.465
  23758429.008          41.750          42.000
 110093168.56048  85786892.82848  20950020.101    20950022.293    20950020.096
  20950022.590          53.000          53.000
 121524310.81147  94694297.72545  23125295.655                    23125293.792
  23125294.970          43.000          30.250
 128288563.68246  99965115.19446  24412500.723    24412503.564    24412500.759
  24412503.365          41.000          37.000
 131536073.68146 102495617.77346  25030484.439    25030487.797    25030484.060
  25030489.262          40.250          37.000
 116084376.28847  90455362.22246  22090120.468                    22090120.106
  22090120.115          46.000          36.000
 106527457.56749  83008423.86049  20271488.918    20271491.893    20271489.316
  20271491.527          55.750          55.000
 120088539.61447  93575492.44047  22852088.592    22852092.039    22852088.962
  22852093.381          45.250          45.000
 128874812.57646 100421926.03244  24524057.651                    24524055.932
  24524055.534          40.250          26.000
 124352610.38947  96898106.19547  23663508.493    23663513.229    23663506.960
  23663512.765          43.500          44.000
 111700858.81748  87039638.15847  21255956.571                    21255956.112
  21255956.606          51.500          42.000
 16  9 30  1 21  0.0000000  0 11G24G10G18G31G27G11G32G01G22G08G14
 124926686.43246  97345482.83247  23772746.640    23772749.006    23772747.014
  23772749.123          41.750          42.000
 110144511.96348  85826900.67848  20959790.576    20959792.686    20959790.343
  20959792.817          53.250          53.000
 121604867.39747  94757069.08744  23140623.886                    23140623.496
  23140624.083          42.250          29.250
 128171826.24746  99874150.95846  24390286.324    24390289.519    24390285.930
  24390289.330          40.750          36.000
 131639438.96346 102576162.15846  25050152.216    25050158.261    25050152.838
  25050155.882          37.750          37.000
 116046134.90847  90425563.74446  22082843.841                    22082842.954
  22082842.970          46.000          36.250
 106522376.37649  83004464.49849  20270522.011    20270524.981    20270522.364
  20270524.528          56.250          55.000
 120002405.30047  93508374.79347  22835698.619    22835701.343    22835698.173
  22835701.646          45.750          45.000
 128780328.38946 100348301.99744  24506076.692                    24506075.716
  24506075.207          40.500          26.500
 124426741.25447  96955870.46347  23677615.057    23677619.496    23677614.630
  23677618.758          43.250          44.000
 111641197.88048  86993149.13747  21244603.238                    21244602.749
  21244603.259          51.250          42.000
 16  9 30  1 21 30.0000000  0 11G24G10G18G31G27G11G32G01G22G08G14
 125002375.88947  97404461.64947  23787149.043    23787151.711    23787150.625
  23787152.114          42.250          42.000
 110196193.47348  85867171.97948  20969625.004    20969627.594    20969625.100
  20969627.595          53.500          53.000
 121685597.68147  94819975.81444  23155987.049                    23155984.712
  23155986.529          43.500          28.250
 128055127.53446  99783216.87746  24368079.437    24368082.339    24368080.171
  24368082.156          40.000          36.000
 131742805.19746 102656707.25246  25069823.705    25069827.901    25069821.711
  25069827.742          39.500          38.000
 116008507.20847  90396243.46546  22075682.293                    22075682.724
  22075683.309          45.250          36.500
 106517789.03549  83000889.95749  20269648.879    20269652.043    20269649.299
  20269651.759          55.500          55.000
 119916616.95647  93441526.71947  22819373.351    22819377.253    22819373.741
  22819376.640          46.000          45.000
 128685885.55746 100274710.18744  24488105.183                    24488103.494
  24488103.119          39.500          27.250
 124501218.23547  97013904.42847  23691787.466    23691792.150    23691786.812
  23691792.141          43.500          44.000
 111581929.96248  86946966.35647  21233325.034                    21233324.873
  21233325.242          51.500          42.500
 16  9 30  1 22  0.0000000  0 11G24G10G18G31G27G11G32G01G22G08G14
 125078498.28847  97463777.83247  23801635.585    23801637.753    23801636.144
  23801637.766          42.750          42.000
 110248212.52748  85907706.31548  20979523.901    20979526.135    20979523.728
  20979526.485          53.750          52.000
 121766501.01347  94883017.35644  23171381.611                    23171381.115
  23171381.785          42.500          27.500
 127938470.20546  99692315.05746  24345879.811    24345883.794    24345879.607
  24345882.558          40.000          37.000
 131846169.32246 102737250.70346  25089493.625    25089497.413    25089493.007
  25089496.834          40.500          38.000
 115971494.66747  90367402.51746  22068639.962                    22068640.040
  22068639.932          46.250          36.750
 106513695.01049  82997699.80849  20268870.070    20268872.898    20268870.206
  20268872.626          55.750          55.000
 119831177.13047  93374950.23447  22803114.922    22803118.336    22803114.319
  22803118.666          46.500          45.000
 128591484.85046 100201151.22244  24470141.150                    24470139.887
  24470139.053          40.000          26.750
 124576038.35947  97072205.77347  23706025.043    23706029.501    23706024.955
  23706029.703          43.750          43.000
 111523055.49048  86901090.15447  21222121.923                    21222121.137
  21222121.928          51.000          42.500
 16  9 30  1 22 30.0000000  0 11G24G10G18G31G27G11G32G01G22G08G14
 125155051.69947  97523429.84047  23816202.428    23816205.077    23816202.390
  23816205.447          42.500          42.000
 110300568.54448  85948503.21648  20989486.987    20989489.426    20989486.924
  20989489.445          53.500          53.000
 121847576.81747  94946193.29344  23186810.330                    23186809.899
  23186809.953          43.250          27.750
 127821857.30346  99601447.85846  24323689.178    24323692.312    24323689.345
  24323690.781          39.750          37.000
 131949528.62946 102817790.42146  25109161.009    25109165.045    25109160.972
  25109165.628          38.750          37.000
 115935098.42247  90339041.81146  22061713.362                    22061713.531
  22061714.154          46.000          36.500
 106510093.76349  82994893.65049  20268184.743    20268187.683    20268184.882
  20268187.354          55.750          55.000
 119746088.35047  93308647.27247  22786923.264    22786926.230    22786922.877
  22786926.894          45.750          46.000
 128497127.23246 100127625.84944  24452185.477                    24452185.230
  24452182.839          38.250          25.750
 124651198.77247  97130772.27547  23720328.115    23720332.760    23720327.143
  23720333.009          44.250          44.000
 111464575.80148  86855521.58347  21210993.283                    21210992.489
  21210993.502          51.250          42.500
 16  9 30  1 23  0.0000000  0 11G24G10G18G31G27G11G32G01G22G08G14
 125232033.18847  97583415.45847  23830852.637    23830854.405    23830851.653
  23830854.470          42.500          42.000
 110353260.96848  85989562.25748  20999513.788    20999516.402    20999513.830
  20999516.559          53.750          53.000
 121928824.55347  95009503.21844  23202270.840                    23202270.892
  23202270.714          42.750          27.250
 127705291.58746  99510617.45546  24301507.952    24301511.044    24301507.643
  24301510.268          39.500          38.000
 132052880.05446 102898323.96846  25128829.436    25128832.601    25128828.240
  25128834.603          40.250          39.000
 115899320.02247  90311162.53545  22054904.737                    22054905.577
  22054905.256          46.000          35.500
 106506984.74449  82992471.04249  20267593.125    20267596.131    20267593.351
  20267595.611          56.000          55.000
 119661353.12747  93242619.85147  22770798.440    22770801.855    22770799.076
  22770801.609          45.500          46.000
 128402813.71046 100054134.79444  24434237.702                    24434236.672
  24434235.798          38.250          25.250
 124726696.46847  97189601.59247  23734694.798    23734699.141    23734693.901
  23734698.701          44.000          44.000
 111406491.30948  86810260.95147  21199940.474                    21199939.483
  21199940.217          51.000          42.500
 16  9 30  1 23 30.0000000  0 11G24G10G18G31G27G11G32G01G22G08G14
 125309440.50846  97643732.90547  23845582.072    23845584.403    23845582.399
  23845584.404          41.750          42.000
 110406289.23348  86030882.98148  21009605.162    21009607.082    21009604.847
  21009607.632          53.500          53.000
 122010243.37647  95072946.44744  23217763.479                    23217763.406
  23217763.711          42.000          27.000
 127588775.98746  99419826.08846  24279335.336    24279338.700    24279335.746
  24279338.635          38.250          39.000
 132156220.83746 102978849.25146  25148494.616    25148499.799    25148492.999
  25148499.050          40.250          40.000
 115864160.52047  90283765.52746  22048214.269                    22048213.977
  22048214.461          45.250          36.500
 106504367.39349  82990431.55449  20267095.190    20267097.834    20267095.357
  20267097.605          55.750          55.000
 119576974.01247  93176869.90347  22754740.837    22754745.640    22754740.748
  22754745.449          45.000          46.000
 128308545.20646  99980678.85544  24416299.076                    24416298.896
  24416298.001          38.750          26.250
 124802528.60247  97248691.54247  23749124.865    23749128.867    23749125.143
  23749129.179          43.750          43.000
 111348802.77648  86765308.86247  21188962.525                    21188962.090
  21188962.639          51.500          42.500
 16  9 30  1 24  0.0000000  0 11G24G10G18G31G27G11G32G01G22G08G14
 125387270.62547  97704379.76946  23860393.483    23860395.095    23860393.002
  23860394.710          42.500          41.000
 110459652.73349  86072464.93148  21019759.760    21019761.873    21019759.496
  21019762.068          54.000          52.000
 122091832.64647  95136522.49944  23233290.207                    23233289.646
  23233289.466          43.000          27.250
 127472313.21046  99329075.90846  24257173.259    24257175.410    24257172.653
  24257175.276          38.250          40.000
 132259548.19946 103059364.06046  25168155.227    25168160.342    25168155.122
  25168161.624          36.500          38.000
 115829621.54247  90256852.03446  22041642.288                    22041641.756
  22041641.728          45.750          36.500
 106502241.11949  82988774.72449  20266690.447    20266693.098    20266690.757
  20266692.915          55.500          55.000
 119492953.52047  93111399.40047  22738752.785    22738756.715    22738752.880
  22738757.463          46.250          46.000
 128214322.46246  99907258.55244  24398369.347                    24398368.407
  24398368.836          38.750          26.750
 124878692.15447  97308039.71747  23763618.218    23763622.754    23763618.011
  23763622.517          43.750          43.000
 111291510.68148  86720665.68547  21178059.974                    21178059.537
  21178060.084          51.250          42.500
 16  9 30  1 24 30.0000000  0 11G24G10G18G31G27G11G32G01G22G08G14
 125465521.82247  97765354.71347  23875284.074    23875285.468    23875283.433
  23875285.485          42.500          42.000
 110513350.93449  86114307.69148  21029977.993    21029980.166    21029978.036
  21029980.601          54.000          52.000
 122173591.95947  95200231.05544  23248848.418                    23248848.605
  23248849.089          43.000          27.750
 127355906.09646  99238369.11746  24235022.283    24235024.213    24235021.513
  24235024.318          37.250          40.000
 132362859.29546 103139866.20146  25187815.712    25187820.459    25187814.979
  25187819.361          38.000          39.000
 115795704.13747  90230422.88646  22035187.802                    22035187.634
  22035187.756          46.250          36.250
 106500605.35649  82987500.11349  20266378.990    20266381.903    20266379.266
  20266381.669          55.000          55.000
 119409294.22747  93046210.35747  22722833.194    22722836.211    22722833.748
  22722836.406          46.250          46.000
 128120146.66046  99833874.85044  24380448.408                    24380446.841
  24380446.327          38.500          26.500
 124955184.42247  97367644.02547  23778174.451    23778179.311    23778174.212
  23778178.923          44.250          43.000
 111234616.30948  86676332.41347  21167233.004                    21167232.692
  21167233.575          50.750          42.500
 16  9 30  1 25  0.0000000  0 11G24G10G18G31G27G11G32G01G22G08G14
 125544191.03047  97826655.42047  23890254.057    23890256.351    23890253.860
  23890256.360          42.500          42.000
 110567383.23348  86156410.78848  21040259.982    21040262.524    21040260.099
  21040262.505          53.750          52.000
 122255520.68547  95264071.63444  23264439.881                    23264439.504
  23264439.319          44.250          28.000
 127239557.80946  99147708.15646  24212881.512    24212883.703    24212881.723
  24212884.202          38.000          41.000
 132466151.28446 103220353.47146  25207471.996    25207475.187    25207472.679
  25207475.342          39.000          38.000
 115762409.31947  90204478.87546  22028852.111                    22028851.767
  22028852.055          45.750          36.500
 106499459.49249  82986607.23949  20266161.085    20266163.977    20266161.231
  20266163.640          55.000          55.000
 119325998.62047  92981304.68547  22706981.915    22706986.041    22706982.052
  22706985.914          46.500          46.000
 128026018.68946  99760528.41044  24362535.253                    24362534.127
  24362536.018          38.000          24.750
 125032002.14847  97427501.93547  23792791.916    23792797.196    23792791.670
  23792797.167          43.250          43.000
 111178120.36448  86632309.61347  21156482.471                    21156482.098
  21156482.809          51.250          42.500
 16  9 30  1 25 30.0000000  0 11G24G10G18G31G27G11G32G01G22G08G14
 125623276.06446  97888280.15547  23905302.546    23905305.593    23905302.573
  23905305.097          41.500          42.000
 110621749.05449  86198773.77148  21050605.499    21050607.811    21050605.202
  21050608.338          54.000          53.000
 122337618.29247  95328043.78644  23280061.036                    23280060.859
  23280062.361          42.500          27.500
 127123271.20746  99057095.26946  24190752.105    24190755.481    24190752.846
  24190755.216          37.000          40.000
 132569421.24146 103300823.50946  25227123.098    25227127.928    25227122.621
  25227128.255          38.250          39.000
 115729738.62747  90179021.20246  22022634.980                    22022634.607
  22022634.358          46.750          36.250
 106498802.90849  82986095.62849  20266035.988    20266039.049    20266036.239
  20266038.766          55.750          55.000
 119243069.23247  92916684.40047  22691201.241    22691205.468    22691201.848
  22691204.921          47.000          46.000
 127931939.28646  99687219.82244  24344632.990                    24344630.967
  24344631.837          38.750          24.500
 125109142.77447  97487611.48547  23807472.637    23807476.483    23807471.774
  23807475.612          45.000          43.000
 111122023.36448  86588597.67847  21145807.723                    21145807.028
  21145807.825          51.250          43.000
 16  9 30  1 26  0.0000000  0 11G24G10G18G31G27G11G32G01G22G08G14
 125702774.24646  97950226.78847  23920431.188    23920432.881    23920431.081
  23920432.428          40.750          42.000
 110676447.79749  86241396.17048  21061014.235    21061016.984    21061014.153
  21061017.013          54.000          53.000
 122419883.81147  95392146.76144  23295716.675                    23295716.555
  23295716.818          43.750          28.000
 127007049.16246  98966532.70246  24168637.694    24168638.643    24168635.927
  24168638.667          39.250          41.000
 132672666.25746 103381274.18846  25246771.751    25246773.483    25246772.243
  25246774.620          39.500          37.000
 115697693.02747  90154050.61546  22016536.632                    22016536.258
  22016536.494          46.000          36.500
 106498634.96349  82985964.77148  20266004.222    20266007.074    20266004.362
  20266006.814          56.250          53.000
 119160508.59047  92852351.44647  22675490.969    22675494.470    22675490.846
  22675495.171          46.750          46.000
 127837909.32246  99613949.73844  24326740.237                    24326739.666
  24326738.277          39.500          24.000
 125186603.11647  97547970.12347  23822211.759    23822217.025    23822211.755
  23822215.867          44.000          43.000
 111066326.11348  86545197.23747  21135208.670                    21135208.218
  21135209.066          51.250          42.750
 16  9 30  1 26 30.0000000  0 11G24G10G18G31G27G11G32G01G22G08G14
 125782683.03047  98012493.36647  23935637.824    23935639.750    23935637.399
  23935638.614          42.500          42.000
 110731478.85548  86284277.51148  21071486.485    21071489.001    21071486.377
  21071488.927          53.750          52.000
 122502317.06847  95456380.48344  23311403.966                    23311402.469
  23311404.498          44.750          28.250
 126890894.51746  98876022.67547  24146533.695    24146535.879    24146532.660
  24146535.326          40.250          42.000
 132775883.65646 103461703.33946  25266411.221    25266415.516    25266411.963
  25266415.996          38.750          38.000
 115666273.87647  90129568.15946  22010558.168                    22010557.913
  22010558.356          46.500          36.750
 106498955.03549  82986214.19149  20266064.954    20266067.932    20266065.261
  20266067.601          56.250          55.000
 119078319.18347  92788307.75847  22659850.874    22659853.936    22659851.118
  22659854.543          47.250          46.000
 127743929.77446  99540718.93443  24308855.900                    24308855.338
  24308855.901          39.500          23.750
 125264380.26947  97608575.65946  23837012.483    23837016.110    23837012.073
  23837016.362          44.250          41.000
 111011028.89548  86502108.50247  21124685.904                    21124685.424
  21124686.427          50.750          42.750
 16  9 30  1 27  0.0000000  0 11G24G10G18G31G27G11G32G01G22G08G14
 125862999.96546  98075077.97047  23950921.275    23950923.339    23950921.622
  23950924.344          41.250          43.000
 110786841.66548  86327417.37248  21082021.421    21082024.091    21082021.449
  21082024.245          53.750          52.000
 122584917.08847  95520744.10644  23327121.914                    23327121.486
  23327121.142          43.750          29.000
 126774810.06646  98785567.29847  24124443.164    24124445.745    24124442.542
  24124445.089          40.250          42.000
 132879070.54546 103542108.66946  25286047.922    25286052.348    25286047.227
  25286052.291          39.250          38.000
 115635481.68047  90105574.25346  22004698.407                    22004697.893
  22004698.842          46.500          36.750
 106499762.49249  82986843.39149  20266218.623    20266221.633    20266218.908
  20266221.225          55.250          55.000
 118996503.51647  92724555.30347  22644281.536    22644285.866    22644281.790
  22644286.501          46.750          46.000
 127650001.87546  99467528.37844  24290982.489                    24290981.483
  24290980.760          40.500          25.750
 125342471.17147  97669425.64847  23851872.876    23851878.557    23851872.022
  23851876.428          44.750          42.000
 110956132.79348  86459332.34347  21114239.681                    21114239.058
  21114239.882          51.000          43.000
 16  9 30  1 27 30.0000000  0 10G24G10G18G31G11G32G01G22G08G14
 125943722.69446  98137978.75147  23966281.668    23966283.579    23966281.858
  23966284.150          41.500          42.000
 110842535.60849  86370815.24948  21092619.754    21092622.115    21092619.918
  21092622.407          54.250          52.000
 122667683.47647  95585237.41244  23342871.889                    23342870.726
  23342871.786          43.500          28.750
 126658798.95946  98695169.12146  24102367.136    24102369.487    24102366.610
  24102368.552          40.250          41.000
 115605317.99747  90082070.08846  21998958.601                    21998958.286
  21998958.452          46.000          36.750
 106501056.62049  82987851.81649  20266465.023    20266467.834    20266465.254
  20266467.497          56.250          55.000
 118915064.15547  92661096.06347  22628784.051    22628788.279    22628783.991
  22628787.578          46.000          46.000
 127556126.11846  99394378.46244  24273118.341                    24273118.066
  24273116.180          40.750          24.500
 125420872.70947  97730517.73447  23866791.953    23866796.192    23866791.594
  23866796.116          44.750          42.000
 110901638.43548  86416869.22547  21103869.603                    21103869.199
  21103869.830          50.750          42.750
 16  9 30  1 28  0.0000000  0 10G24G10G18G31G11G32G01G22G08G14
 126024848.33547  98201193.53147  23981720.629    23981722.047    23981720.233
  23981721.625          42.250          42.000
 110898560.09649  86414470.70248  21103280.965    21103283.108    21103280.758
  21103283.324          54.250          52.000
 122750615.34147  95649859.63344  23358653.476                    23358652.716
  23358652.700          44.250          28.500
 126542864.06546  98604830.30746  24080305.389    24080306.699    24080304.848
  24080306.566          39.000          40.000
 115575783.91847  90059056.53446  21993338.799                    21993338.272
  21993338.040          47.000          37.000
 106502836.78049  82989238.96749  20266803.844    20266806.393    20266803.984
  20266806.190          56.000          55.000
 118834003.51847  92597931.94447  22613358.960    22613361.743    22613357.904
  22613363.045          46.250          46.000
 127462303.70846  99321270.09044  24255265.130                    24255263.492
  24255262.808          40.250          24.500
 125499582.08347  97791849.66347  23881770.609    23881775.220    23881770.387
  23881774.091          44.750          42.000
 110847546.60648  86374719.76647  21093576.436                    21093575.821
  21093576.540          51.250          43.250
 16  9 30  1 28 30.0000000  0 10G24G10G18G31G11G32G01G22G08G14
 126106374.22247  98264720.15247  23997233.288    23997236.218    23997234.320
  23997236.599          42.000          43.000
 110954914.50149  86458383.22448  21114005.072    21114007.103    21114004.662
  21114007.367          54.250          52.000
 122833712.45847  95714610.63244  23374465.418                    23374465.063
  23374465.394          43.750          27.750
 126427008.07246  98514552.97146  24058258.245    24058260.650    24058257.861
  24058261.136          39.250          39.000
 115546880.40347  90036534.31246  21987838.326                    21987837.754
  21987838.051          46.250          36.500
 106505102.27249  82991004.29949  20267234.940    20267237.584    20267235.137
  20267237.282          55.750          55.000
 118753324.21747  92535064.99447  22598006.158    22598009.906    22598005.754
  22598009.686          46.250          46.000
 127368535.86146  99248204.24244  24237421.532                    24237419.765
  24237419.984          40.000          25.500
 125578596.36847  97853419.20347  23896805.295    23896811.478    23896804.723
  23896810.475          43.000          42.000
 110793857.78748  86332884.34447  21083359.667                    21083359.243
  21083359.751          51.250          43.000
 16  9 30  1 29  0.0000000  0 10G24G10G18G31G11G32G01G22G08G14
 126188297.93547  98328556.80747  24012823.075    24012826.024    24012823.522
  24012826.044          42.000          43.000
 111011598.20749  86502552.35348  21124791.047    21124793.643    21124791.295
  21124793.858          54.000          52.000
 122916973.59147  95779489.44144  23390309.661                    23390309.492
  23390309.402          43.500          26.750
 126311233.78046  98424339.34046  24036226.786    24036228.908    24036226.489
  24036228.074          36.750          39.000
 115518608.43947  90014504.23346  21982458.614                    21982457.857
  21982457.899          46.750          36.500
 106507852.37849  82993147.24849  20267758.099    20267760.892    20267758.362
  20267760.730          56.000          55.000
 118673028.68547  92472497.04547  22582726.151    22582729.973    22582726.490
  22582730.097          46.500          46.000
 127274823.13646  99175181.35744  24219587.788                    24219587.195
  24219586.575          40.250          26.750
 125657912.50047  97915223.92747  23911900.065    23911904.085    23911899.430
  23911904.035          44.000          42.000
 110740572.64348  86291363.47547  21073219.851                    21073219.497
  21073219.671          51.250          43.000
 16  9 30  1 29 30.0000000  0 10G24G10G18G31G11G32G01G22G08G14
 126270616.96946  98392701.45947  24028487.929    24028490.845    24028488.656
  24028490.584          41.750          43.000
 111068610.60149  86546977.59648  21135640.571    21135642.998    21135640.564
  21135643.028          54.000          52.000
 123000398.37147  95844495.77044  23406185.010                    23406183.855
  23406184.200          43.250          26.750
 126195544.30746  98334191.79646  24014211.160    24014214.186    24014212.628
  24014214.251          36.500          39.000
 115490969.13647  89992967.12946  21977198.899                    21977198.759
  21977198.776          46.500          36.750
 106511086.40449  82995667.28549  20268373.721    20268376.387    20268373.795
  20268375.984          56.000          55.000
 118593119.44447  92410230.12147  22567519.868    22567523.167    22567519.903
  22567523.831          46.500          46.000
 127181166.53246  99102202.19544  24201766.991                    24201765.026
  24201764.629          41.250          28.250
 125737527.60647  97977261.64747  23927049.708    23927054.668    23927049.326
  23927053.675          43.250          42.000
 110687691.78948  86250157.64147  21063157.360                    21063156.690
  21063157.040          51.500          43.000
 16  9 30  1 30  0.0000000  0 10G24G10G18G31G11G32G01G22G08G14
 126353328.75546  98457152.22447  24044227.287    24044230.375    24044227.267
  24044230.037          40.000          43.000
 111125951.08649  86591658.50148  21146551.972    21146554.408    21146551.803
  21146554.392          54.000          52.000
 123083986.06747  95909629.04144  23422090.801                    23422090.129
  23422090.667          42.000          26.500
 126079942.49846  98244112.56446  23992212.693    23992215.522    23992213.548
  23992214.591          36.250          39.000
 115463963.17847  89971923.53046  21972059.575                    21972058.866
  21972059.449          46.250          36.750
 106514803.60949  82998563.81649  20269080.837    20269083.823    20269081.111
  20269083.362          55.500          55.000
 118513598.95447  92348266.13247  22552387.524    22552391.778    22552387.758
  22552391.315          46.500          46.000
 127087566.92746  99029267.43544  24183954.984                    24183953.803
  24183953.240          41.000          27.500
 125817438.49847  98039529.83747  23942256.279    23942260.975    23942256.219
  23942260.156          43.000          42.000
 110635216.02848  86209267.45647  21053171.098                    21053170.752
  21053171.306          51.000          43.250
 16  9 30  1 30 30.0000000  0 10G24G10G18G31G11G32G01G22G08G14
 126436430.76146  98521906.98347  24060041.100    24060044.201    24060041.512
  24060043.459          40.750          43.000
 111183619.00749  86636594.54848  21157525.647    21157528.247    21157525.676
  21157528.244          54.000          52.000
 123167735.99147  95974888.71544  23438028.349                    23438028.010
  23438027.585          42.750          27.250
 125964431.42246  98154104.06246  23970233.037    23970234.562    23970231.819
  23970234.261          37.750          39.000
 115437591.63447  89951374.29746  21967041.126                    21967040.847
  21967041.328          46.750          36.500
 106519003.28449  83001836.30449  20269879.949    20269882.772    20269880.317
  20269882.543          55.750          55.000
 118434469.76047  92286607.03047  22537330.313    22537333.875    22537330.222
  22537334.015          47.750          46.000
 126994025.47846  98956378.00044  24166154.616                    24166153.371
  24166153.486          41.000          27.750
 125897642.18547  98102026.17247  23957518.771    23957523.780    23957517.959
  23957523.107          42.250          42.000
 110583145.80948  86168693.28447  21043262.607                    21043261.862
  21043262.765          50.750          43.000
 16  9 30  1 31  0.0000000  0 10G24G10G18G31G11G32G01G22G08G14
 126519920.84646  98586964.19146  24075928.913    24075931.039    24075929.220
  24075931.525          40.000          41.000
 111241613.76149  86681785.26748  21168561.865    21168564.127    21168561.850
  21168564.471          54.000          52.000
 123251647.46747  96040274.28544  23453996.624                    23453995.027
  23453996.290          43.000          27.000
 125849013.91846  98064168.41846  23948269.119    23948272.037    23948270.163
  23948270.169          39.250          40.000
 115411855.61347  89931320.26946  21962144.034                    21962143.318
  21962143.784          46.750          36.750
 106523684.66749  83005484.14049  20270770.783    20270773.582    20270771.057
  20270773.399          56.000          55.000
 118355734.35147  92225254.76947  22522347.539    22522350.734    22522346.671
  22522351.533          46.750          47.000
 126900543.20046  98883534.68444  24148365.167                    24148364.662
  24148362.854          41.000          27.750
 125978135.72147  98164748.34347  23972836.810    23972840.906    23972835.787
  23972840.575          42.000          43.000
 110531481.53948  86128435.43547  21033430.961                    21033430.720
  21033431.165          50.500          43.250
 16  9 30  1 31 30.0000000  0 10G24G10G18G31G11G32G01G22G08G14
 126603795.25946  98652320.82046  24091889.294    24091891.110    24091889.348
  24091891.397          38.750          41.000
 111299934.72249  86727230.17648  21179659.684    21179662.570    21179659.699
  21179662.651          54.000          52.000
 123335719.97247  96105785.34344  23469995.244                    23469994.245
  23469993.942          43.500          26.500
 125733692.81846  97974307.90846  23926324.365    23926327.896    23926324.842
  23926325.394          40.000          40.000
 115386755.88247  89911762.05546  21957367.428                    21957367.401
  21957367.387          46.250          36.750
 106528846.99549  83009506.74349  20271753.153    20271756.126    20271753.410
  20271755.758          56.000          55.000
 118277395.13647  92164211.28047  22507439.507    22507443.246    22507439.575
  22507443.353          47.500          47.000
 126807121.10146  98810738.28044  24130588.173                    24130587.313
  24130586.225          41.250          28.000
 126058916.41647  98227694.28347  23988208.577    23988213.693    23988208.839
  23988213.017          42.750          43.000
 110480224.00448  86088494.52247  21023677.064                    21023676.527
  21023677.095          50.750          43.250
 16  9 30  1 32  0.0000000  0 10G24G10G18G31G11G32G01G22G08G14
 126688052.12446  98717975.43846  24107924.429    24107926.010    24107923.698
  24107925.471          41.000          41.000
 111358581.24348  86772928.76848  21190819.696    21190822.366    21190819.819
  21190822.616          53.500          52.000
 123419952.96047  96171421.40444  23486023.650                    23486022.950
  23486023.642          42.750          25.750
 125618471.09646  97884524.83646  23904398.571    23904400.132    23904399.397
  23904399.716          40.750          40.000
 115362293.14247  89892700.19046  21952711.819                    21952711.417
  21952712.124          47.500          36.750
 106534489.48349  83013903.49549  20272827.012    20272829.776    20272827.092
  20272829.359          56.000          55.000
 118199454.62847  92103478.43347  22492608.070    22492611.595    22492607.964
  22492612.239          47.250          47.000
 126713760.11146  98737989.49144  24112821.192                    24112820.529
  24112819.800          41.000          27.250
 126139980.76447  98290861.25747  24003634.733    24003638.909    24003633.004
  24003638.676          42.250          43.000
 110429373.85448  86048871.05047  21014000.825                    21014000.340
  21014000.494          50.500          43.000
 16  9 30  1 32 30.0000000  0 10G24G10G18G31G11G32G01G22G08G14
 126772688.75946  98783926.02246  24124029.654    24124032.217    24124029.121
  24124032.045          38.750          41.000
 111417552.69148  86818880.55048  21202041.927    21202044.499    21202041.639
  21202044.304          53.750          52.000
 123504345.54147  96237181.86244  23502083.161                    23502082.917
  23502082.797          43.250          26.250
 125503351.98246  97794821.73046  23882492.381    23882493.560    23882492.343
  23882493.501          40.250          41.000
 115338468.52547  89874135.57546  21948179.165                    21948178.586
  21948178.924          46.750          37.250
 106540611.38449  83018673.81849  20273991.864    20273994.614    20273992.108
  20273994.378          55.750          55.000
 118121915.31847  92043058.20247  22477852.456    22477856.442    22477852.892
  22477856.607          47.250          47.000
 126620461.23346  98665289.07444  24095067.267                    24095066.119
  24095066.296          41.000          26.750
 126221325.72447  98354246.88347  24019113.000    24019119.021    24019114.050
  24019117.223          42.250          43.000
 110378931.72748  86009565.51347  21004401.817                    21004401.057
  21004401.864          50.500          43.250
 16  9 30  1 33  0.0000000  0 10G24G10G18G31G11G32G01G22G08G14
 126857702.35046  98850170.16446  24140206.078    24140209.487    24140206.162
  24140209.716          37.500          41.000
 111476848.39548  86865085.00148  21213325.459    21213327.499    21213325.505
  21213328.053          53.750          51.000
 123588897.12947  96303066.26144  23518173.528                    23518172.510
  23518172.485          44.750          26.500
 125388338.23346  97705200.73146  23860605.529    23860607.349    23860606.345
  23860606.698          41.250          41.000
 115315282.62347  89856068.63846  21943766.434                    21943766.065
  21943766.135          46.000          36.750
 106547211.86549  83023817.05649  20275247.833    20275250.831    20275248.109
  20275250.399          55.500          55.000
 118044779.62147  91982952.47947  22463174.172    22463178.028    22463174.346
  22463177.859          47.250          46.000
 126527225.40146  98592637.79444  24077324.992                    24077323.291
  24077323.944          41.750          27.250
 126302948.44947  98417848.92947  24034646.599    24034650.859    24034645.561
  24034650.585          43.000          43.000
 110328897.87648  85970578.11147  20994880.768                    20994880.077
  20994880.637          50.250          43.250
 16  9 30  1 33 30.0000000  0 10G24G10G18G31G11G32G01G22G08G14
 126943090.80546  98916706.62046  24156456.280    24156458.548    24156455.763
  24156457.561          38.250          40.000
 111536467.74648  86911541.64748  21224670.733    21224673.045    21224670.694
  21224673.204          53.750          52.000
 123673607.12947  96369074.06444  23534292.423                    23534292.645
  23534291.876          43.750          25.750
 125273432.40146  97615663.82046  23838739.055    23838742.091    23838739.767
  23838740.934          40.000          41.000
 115292736.07247  89838499.91146  21939476.219                    21939475.618
  21939476.130          46.000          36.500
 106554290.12149  83029332.58949  20276594.982    20276597.554    20276595.123
  20276597.350          56.000          55.000
 117968050.06547  91923163.23447  22448573.296    22448577.148    22448573.644
  22448577.397          47.250          47.000
 126434053.60147  98520036.39744  24059595.473                    24059594.348
  24059594.149          42.000          27.500
 126384846.14947  98481665.28547  24050230.927    24050235.694    24050230.875
  24050235.910          42.500          44.000
 110279272.82548  85931909.25947  20985437.480                    20985436.852
  20985437.377          50.500          43.500
 16  9 30  1 34  0.0000000  0 10G24G10G18G31G11G32G01G22G08G14
 127028851.13046  98983532.80446  24172775.025    24172777.763    24172776.072
  24172777.721          39.000          40.000
 111596410.05849  86958249.95348  21236077.538    21236079.489    21236077.442
  21236079.908          54.250          52.000
 123758474.81447  96435204.72744  23550442.893                    23550441.857
  23550441.058          44.750          25.750
 125158637.78946  97526213.57747  23816894.396    23816896.148    23816894.872
  23816896.335          41.000          42.000
 115270830.05447  89821430.29146  21935307.653                    21935307.374
  21935307.603          47.250          37.000
 106561845.35749  83035219.79749  20278032.567    20278035.258    20278032.818
  20278034.967          56.000          55.000
 117891729.03447  91863692.32547  22434049.579    22434053.494    22434049.310
  22434053.829          47.250          47.000
 126340946.88747  98447485.71644  24041877.287                    24041876.446
  24041875.966          42.750          27.000
 126467015.62147  98545693.40447  24065866.680    24065871.237    24065866.403
  24065870.764          43.250          43.000
 110230057.41848  85893559.60747  20976072.066                    20976071.437
  20976071.993          50.250          43.250
 16  9 30  1 34 30.0000000  0 10G24G10G18G31G11G32G01G22G08G14
 127114980.40046  99050646.44146  24189164.843    24189167.790    24189165.732
  24189168.175          38.500          41.000
 111656674.71748  87005209.42748  21247545.268    21247547.784    21247545.355
  21247547.806          53.750          52.000
 123843499.54947  96501457.79044  23566621.611                    23566621.633
  23566621.797          44.250          26.000
 125043957.27646  97436852.21047  23795071.280    23795073.866    23795072.072
  23795074.105          41.750          42.000
 115249565.08647  89804860.19546  21931261.074                    21931260.530
  21931260.815          45.500          37.000
 106569876.72649  83041478.01649  20279560.913    20279563.876    20279561.068
  20279563.365          55.250          55.000
 117815819.01547  91804541.68047  22419604.056    22419608.400    22419604.503
  22419608.164          47.500          47.000
 126247906.24847  98374986.53544  24024171.633                    24024170.697
  24024171.393          43.000          27.250
 126549453.68847  98609930.79147  24081554.743    24081559.361    24081554.415
  24081558.078          43.250          43.000
 110181252.33448  85855529.68347  20966784.731                    20966784.338
  20966784.545          50.500          43.500
 16  9 30  1 35  0.0000000  0 10G24G10G18G31G11G32G01G22G08G14
 127201476.38346  99118045.82446  24205624.761    24205628.248    24205624.417
  24205627.645          40.000          41.000
 111717261.05548  87052419.57148  21259074.558    21259076.955    21259074.294
  21259077.108          53.750          52.000
 123928680.76547  96567832.77644  23582831.023                    23582830.800
  23582831.463          43.750          24.750
 124929393.74747  97347582.00547  23773270.511    23773272.923    23773271.354
  23773273.047          43.250          42.000
 115228941.78947  89788790.11846  21927336.259                    21927336.098
  21927336.380          46.500          37.250
 106578383.37649  83048106.58249  20281179.621    20281182.384    20281179.900
  20281182.054          55.750          55.000
 117740322.45748  91745713.21747  22405237.765    22405241.896    22405238.153
  22405241.517          48.000          46.000
 126154932.84747  98302539.73444  24006480.110                    24006478.879
  24006478.233          42.750          27.250
 126632157.45047  98674375.23647  24097291.998    24097297.378    24097291.999
  24097296.660          42.750          43.000
 110132857.67848  85817819.57647  20957575.642                    20957574.951
  20957575.583          50.000          43.500
 16  9 30  1 35 30.0000000  0 10G24G10G18G31G11G32G01G22G08G14
 127288336.47346  99185728.87746  24222153.975    24222157.217    24222153.499
  24222156.617          39.000          41.000
 111778168.37648  87099879.82248  21270664.457    21270667.036    21270664.814
  21270667.226          53.500          52.000
 124014017.60747  96634329.03244  23599069.699                    23599069.206
  23599070.223          42.750          25.000
 124814950.25447  97258405.33947  23751492.713    23751494.922    23751492.616
  23751495.368          42.750          42.000
 115208961.17547  89773220.80646  21923534.192                    21923534.069
  21923533.924          46.250          37.250
 106587364.50249  83055104.87049  20282888.666    20282891.461    20282888.907
  20282891.157          56.250          55.000
 117665241.79348  91687208.81347  22390950.791    22390954.203    22390950.412
  22390954.425          48.500          47.000
 126062027.62847  98230146.09344  23988801.235                    23988799.631
  23988799.004          43.250          27.750
 126715123.61947  98739024.17647  24113079.673    24113085.639    24113079.936
  24113085.438          42.250          43.000
 110084874.02148  85780429.72747  20948444.478                    20948444.040
  20948444.542          50.250          43.750
 16  9 30  1 36  0.0000000  0 10G24G10G18G31G11G32G01G22G08G14
 127375558.12146  99253693.68846  24238752.183    24238755.338    24238751.599
  24238754.570          40.000          41.000
 111839396.05349  87147589.71548  21282316.067    21282318.141    21282315.760
  21282318.502          54.000          52.000
 124099509.54947  96700946.13344  23615338.566                    23615337.635
  23615338.899          43.000          26.000
 124700629.92047  97169324.64746  23729738.803    23729740.602    23729738.607
  23729740.209          42.250          41.000
 115189623.55647  89758152.52946  21919854.168                    21919853.927
  21919854.385          45.750          37.000
 106596819.17549  83062472.15349  20284687.915    20284690.465    20284688.064
  20284690.254          56.000          55.000
 117590579.47948  91629030.38447  22376742.872    22376746.582    22376743.000
  22376746.558          48.000          47.000
 125969191.51147  98157806.28744  23971134.410                    23971133.978
  23971132.410          43.000          27.000
 126798349.58347  98803875.51547  24128917.784    24128921.996    24128918.148
  24128921.048          43.250          42.000
 110037301.91448  85743360.56247  20939391.678                    20939391.398
  20939391.837          49.500          43.750
 16  9 30  1 36 30.0000000  0 10G24G10G18G31G11G32G01G22G08G14
 127463138.33746  99321937.96046  24255417.358    24255421.417    24255417.726
  24255420.256          39.250          41.000
 111900943.39748  87195548.69048  21294028.118    21294030.312    21294027.822
  21294030.592          53.750          52.000
 124185155.92247  96767683.57944  23631637.237                    23631636.574
  23631636.711          43.500          26.750
 124586435.31747  97080341.94246  23708007.433    23708010.378    23708007.463
  23708010.481          42.000          41.000
 115170929.76647  89743585.95946  21916297.530                    21916296.824
  21916297.031          46.500          37.500
 106606746.58849  83070207.80549  20286576.974    20286579.830    20286577.163
  20286579.439          55.750          55.000
 117516337.91047  91571179.83747  22362614.866    22362618.764    22362614.827
  22362619.214          47.000          47.000
 125876425.63847  98085521.21244  23953482.014                    23953480.774
  23953479.775          42.750          27.250
 126881831.69247  98868926.46646  24144803.963    24144808.739    24144803.997
  24144808.540          42.500          41.000
 109990141.97148  85706612.56547  20930417.402                    20930416.829
  20930417.572          49.250          43.750
 16  9 30  1 37  0.0000000  0 10G24G10G18G31G11G32G01G22G08G14
 127551074.50046  99390459.42146  24272152.746    24272154.315    24272152.427
  24272154.547          40.000          41.000
 111962809.74048  87243756.24648  21305800.549    21305803.256    21305800.459
  21305803.437          53.000          52.000
 124270955.67047  96834540.55344  23647964.555                    23647963.247
  23647963.722          43.500          25.750
 124472369.54747  96991459.61346  23686301.899    23686304.667    23686301.276
  23686303.598          42.750          41.000
 115152880.26147  89729521.42646  21912862.360                    21912861.852
  21912862.689          46.750          37.500
 106617145.83149  83078311.12249  20288556.020    20288558.755    20288556.138
  20288558.367          56.250          55.000
 117442519.51847  91513659.03147  22348567.672    22348571.596    22348567.822
  22348571.913          47.250          47.000
 125783731.01347  98013291.67444  23935841.540                    23935841.276
  23935840.609          42.750          27.750
 126965567.39047  98934175.03647  24160738.774    24160744.066    24160739.040
  24160743.683          43.000          42.000
 109943394.27848  85670185.80347  20921521.664                    20921521.126
  20921521.802          49.000          43.750
 16  9 30  1 37 30.0000000  0 10G24G10G18G31G11G32G01G22G08G14
 127639364.01146  99459256.30646  24288952.305    24288955.524    24288953.456
  24288955.520          39.750          41.000
 112024994.42248  87292211.84848  21317633.822    21317636.554    21317633.905
  21317636.656          53.750          52.000
 124356908.45447  96901516.75044  23664320.468                    23664319.287
  23664320.064          42.250          25.750
 124358435.69747  96902680.06346  23664621.642    23664623.034    23664620.678
  23664622.542          44.250          41.000
 115135475.62847  89715959.38546  21909550.228                    21909549.901
  21909550.807          47.250          37.500
 106628016.00549  83086781.39249  20290624.436    20290627.388    20290624.638
  20290626.876          56.500          55.000
 117369126.72847  91456469.84448  22334601.577    22334605.935    22334602.126
  22334605.334          47.750          48.000
 125691108.47647  97941118.29044  23918217.081                    23918215.323
  23918214.835          43.500          28.000
 127049553.22347  98999618.49446  24176720.550    24176723.883    24176719.967
  24176724.056          42.000          41.000
 109897059.95648  85634081.15247  20912704.417                    20912704.102
  20912704.562          49.250          43.750
 16  9 30  1 38  0.0000000  0 10G24G10G18G31G11G32G01G22G08G14
 127728004.65746  99528326.90646  24305822.030    24305823.442    24305821.125
  24305822.934          40.500          41.000
 112087496.73348  87340914.95948  21329527.882    21329530.367    21329527.716
  21329530.475          53.750          51.000
 124443013.58547  96968611.65944  23680705.754                    23680704.228
  23680705.217          42.250          25.250
 124244636.69847  96814005.58046  23642965.413    23642967.054    23642966.191
  23642966.926          44.500          41.000
 115118716.47447  89702900.31446  21906361.013                    21906360.773
  21906361.658          46.750          38.000
 106639356.21649  83095617.93649  20292782.451    20292785.234    20292782.606
  20292784.847          56.250          55.000
 117296161.92547  91399614.17547  22320716.805    22320720.561    22320716.987
  22320720.589          47.250          47.000
 125598559.47747  97869002.20944  23900605.599                    23900604.336
  23900603.771          43.500          29.000
 127133786.47247  99065254.73846  24192750.354    24192755.003    24192750.042
  24192754.332          43.000          41.000
 109851138.76648  85598298.41547  20903966.110                    20903965.598
  20903966.061          49.000          44.000
 16  9 30  1 38 30.0000000  0 10G24G10G18G31G11G32G01G22G08G14
 127816993.24246  99597668.69946  24322754.990    24322756.057    24322754.650
  24322756.687          40.000          40.000
 112150316.02948  87389865.07248  21341482.043    21341484.274    21341481.890
  21341484.535          53.500          51.000
 124529270.31547  97035824.71244  23697119.827                    23697118.968
  23697120.099          42.000          25.750
 124130975.34647  96725438.34546  23621336.894    23621337.184    23621336.392
  23621337.920          43.750          40.000
 115102603.39147  89690344.68246  21903295.061                    21903294.773
  21903295.289          47.500          37.500
 106651165.55249  83104820.02449  20295029.641    20295032.182    20295029.726
  20295032.119          57.000          55.000
 117223627.56447  91343093.90147  22306913.855    22306917.725    22306914.066
  22306917.876          47.000          47.000
 125506084.94147  97796944.16944  23883007.191                    23883007.261
  23883006.152          43.500          29.000
 127218263.87446  99131081.25546  24208824.435    24208830.566    24208824.736
  24208829.687          41.000          41.000
 109805631.34348  85562838.10147  20895306.434                    20895305.688
  20895306.243          49.750          43.750
 16  9 30  1 39  0.0000000  0 10G24G10G18G31G11G32G01G22G08G14
 127906327.55146  99667279.88846  24339754.078    24339756.106    24339754.511
  24339757.200          40.500          40.000
 112213451.59848  87439061.62348  21353496.141    21353498.596    21353496.064
  21353499.022          53.000          52.000
 124615677.45147  97103154.95644  23713562.608                    23713561.860
  23713562.194          42.000          25.750
 124017454.65147  96636980.77746  23599734.252    23599735.912    23599734.108
  23599736.027          43.500          41.000
 115087136.79047  89678292.79246  21900351.978                    21900351.485
  21900352.022          47.250          37.500
 106663443.07149  83114386.94149  20297365.858    20297368.502    20297366.111
  20297368.307          56.250          55.000
 117151525.97147  91286910.87047  22293193.285    22293197.295    22293192.767
  22293197.123          47.500          47.000
 125413685.83447  97724944.89345  23865424.810                    23865424.879
  23865424.215          44.000          30.000
 127302982.68746  99197095.87646  24224946.985    24224950.248    24224946.359
  24224951.229          40.250          40.000
 109760538.36448  85527700.72447  20886725.090                    20886724.857
  20886725.427          49.500          43.750
 16  9 30  1 39 30.0000000  0 10G24G10G18G31G11G32G01G22G08G14
 127996004.43046  99737157.92846  24356819.266    24356822.339    24356819.426
  24356822.672          39.250          40.000
 112276902.76148  87488504.10048  21365570.255    21365573.111    21365570.211
  21365573.339          53.000          52.000
 124702234.88947  97170602.31844  23730033.631                    23730033.022
  23730033.544          42.000          25.750
 123904077.62247  96548635.12846  23578159.910    23578160.926    23578159.628
  23578160.752          44.000          41.000
 115072317.25347  89666745.11846  21897531.377                    21897531.363
  21897531.733          47.500          37.500
 106676187.86649  83124317.96049  20299791.018    20299793.954    20299791.367
  20299793.573          56.500          55.000
 117079859.61847  91231066.97847  22279555.429    22279559.483    22279555.654
  22279560.110          47.000          47.000
 125321363.07647  97653005.11644  23847856.371                    23847855.810
  23847855.413          43.500          29.750
 127387939.62746  99263296.02946  24241113.049    24241117.903    24241112.524
  24241117.689          41.250          40.000
 109715860.11848  85492886.51947  20878223.657                    20878222.943
  20878223.519          49.750          44.000
 16  9 30  1 40  0.0000000  0 10G24G10G18G31G11G32G01G22G08G14
 128086021.27046  99807300.96547  24373946.789    24373952.794    24373949.341
  24373951.510          39.750          42.000
 112340668.78948  87538191.92048  21377704.655    21377707.320    21377704.562
  21377707.480          53.250          51.000
 124788942.02747  97238166.30444  23746532.730                    23746532.212
  23746533.205          42.000          24.500
 123790847.42247  96460403.88946  23556612.276    23556614.236    23556612.660
  23556614.208          44.500          41.000
 115058144.87447  89655701.71146  21894834.872                    21894834.369
  21894834.572          47.750          37.250
 106689398.96049  83134612.33649  20302305.176    20302307.805    20302305.308
  20302307.541          56.000          55.000
 117008630.82447  91175564.04047  22266001.819    22266004.822    22266001.676
  22266005.069          47.500          47.000
 125229118.01547  97581125.84844  23830303.012                    23830302.178
  23830301.695          44.000          29.250
 127473131.50246  99329679.26846  24257324.017    24257329.342    24257323.735
  24257329.836          40.000          41.000
 109671597.04348  85458395.82347  20869800.626                    20869799.828
  20869800.403          49.000          44.000
 16  9 30  1 40 30.0000000  0 10G24G10G18G31G11G32G01G22G08G14
 128176375.62246  99877706.90446  24391143.010    24391146.655    24391142.865
  24391146.467          39.750          41.000
 112404748.99748  87588124.56248  21389898.607    21389901.269    21389898.689
  21389901.655          53.250          52.000
 124875797.95147  97305846.26044  23763061.090                    23763060.440
  23763060.662          42.250          24.250
 123677766.61647  96372289.04146  23535094.241    23535095.630    23535094.302
  23535095.395          45.000          41.000
 115044620.28648  89645163.07346  21892261.539                    21892261.163
  21892261.279          48.000          38.000
 106703075.38949  83145269.30649  20304907.610    20304910.294    20304907.870
  20304910.087          56.250          55.000
 116937841.96247  91120403.90247  22252530.314    22252534.277    22252530.196
  22252534.406          46.500          47.000
 125136951.60047  97509307.91544  23812764.292                    23812763.154
  23812762.641          43.000          28.750
 127558555.05046  99396243.04746  24273580.440    24273583.548    24273580.434
  24273585.018          39.500          40.000
 109627749.46448  85424228.88747  20861456.165                    20861456.108
  20861456.488          49.500          44.000
 16  9 30  1 41  0.0000000  0 10G24G10G18G31G11G32G01G22G08G14
 128267064.64346  99948373.63446  24408400.774    24408401.757    24408400.088
  24408403.190          40.000          40.000
 112469142.69248  87638301.47848  21402152.387    21402154.885    21402152.245
  21402155.171          53.250          51.000
 124962801.66447  97373641.39344  23779617.632                    23779616.274
  23779617.729          43.500          24.500
 123564838.36447  96284293.06246  23513603.592    23513605.397    23513604.284
  23513605.531          44.250          41.000
 115031743.91647  89635129.55546  21889811.083                    21889810.978
  21889810.977          47.500          37.750
 106717216.22049  83156288.15049  20307598.490    20307601.275    20307598.692
  20307600.939          56.000          55.000
 116867495.40648  91065588.43547  22239144.686    22239147.869    22239144.427
  22239148.326          48.000          47.000
 125044864.82647  97437551.97844  23795240.973                    23795239.538
  23795239.345          43.750          29.750
 127644207.73146  99462985.34246  24289879.609    24289883.700    24289879.330
  24289883.335          40.000          41.000
 109584317.62648  85390385.90747  20853191.479                    20853191.327
  20853191.599          49.250          43.750
 16  9 30  1 41 30.0000000  0 10G24G10G18G31G11G32G01G22G08G14
 128358085.86946 100019299.31146  24425720.794    24425722.573    24425721.045
  24425723.134          38.750          40.000
 112533849.17148  87688722.11948  21414465.801    21414468.519    21414465.838
  21414468.307          53.250          51.000
 125049952.89847  97441551.44744  23796201.717                    23796201.073
  23796202.311          43.000          24.750
 123452065.60047  96196418.28047  23492144.046    23492145.341    23492144.043
  23492145.295          44.000          42.000
 115019516.20048  89625601.48046  21887483.949                    21887483.290
  21887483.844          48.000          37.500
 106731820.45449  83167668.09049  20310377.574    20310380.286    20310377.750
  20310380.032          56.250          55.000
 116797593.56348  91011119.47547  22225842.445    22225845.811    22225842.548
  22225845.948          48.250          47.000
 124952858.76647  97365858.96745  23777733.262                    23777732.105
  23777730.597          43.750          30.000
 127730086.24546  99529903.61147  24306221.609    24306227.529    24306220.640
  24306226.182          40.250          42.000
 109541302.08548  85356867.31547  20845006.262                    20845005.515
  20845006.147          49.250          43.750
 16  9 30  1 42  0.0000000  0 10G24G10G18G31G11G32G01G22G08G14
 128449436.26746 100090481.58046  24443104.101    24443106.848    24443103.694
  24443108.240          38.500          40.000
 112598867.70648  87739385.92948  21426838.644    21426840.825    21426838.345
  21426841.191          53.500          51.000
 125137250.75847  97509575.82143  23812813.908                    23812812.866
  23812813.110          42.250          23.000
 123339451.27547  96108666.94846  23470714.443    23470715.990    23470713.609
  23470716.058          43.000          41.000
 115007937.25547  89616578.92046  21885280.710                    21885280.200
  21885280.337          47.500          37.750
 106746887.11249  83179408.35949  20313244.588    20313247.329    20313244.832
  20313247.065          56.500          55.000
 116728138.70947  90956998.84247  22212625.524    22212629.057    22212625.709
  22212629.464          47.500          47.000
 124860934.56247  97294229.75645  23760240.362                    23760239.407
  23760238.783          44.500          30.500
 127816187.44546  99596995.42747  24322606.532    24322611.729    24322606.137
  24322610.553          40.500          42.000
 109498703.21448  85323673.40247  20836899.778                    20836899.084
  20836899.942          49.000          44.000
 16  9 30  1 42 30.0000000  0 10G24G10G18G31G11G32G01G22G08G14
 128541113.66946 100161918.63147  24460549.599    24460553.999    24460549.939
  24460552.780          38.750          42.000
 112664197.59148  87790292.33748  21439270.216    21439272.894    21439270.441
  21439272.851          53.500          51.000
 125224694.66547  97577713.93643  23829454.456                    23829453.654
  23829453.885          42.000          23.000
 123226998.48047  96021041.48547  23449315.441    23449317.259    23449314.916
  23449316.761          43.000          42.000
 114997007.45148  89608062.20046  21883200.749                    21883200.182
  21883200.813          48.250          37.750
 106762415.22049  83191508.20449  20316199.519    20316202.212    20316199.768
  20316201.952          56.500          55.000
 116659133.25147  90903228.37847  22199494.545    22199497.859    22199494.445
  22199497.952          47.750          47.000
 124769093.44547  97222665.26945  23742763.450                    23742762.622
  23742762.097          45.000          30.250
 127902508.25346  99664258.36747  24339032.702    24339038.055    24339032.523
  24339038.112          41.000          42.000
 109456521.44048  85290804.49747  20828872.912                    20828872.327
  20828872.787          50.250          44.000
 16  9 30  1 43  0.0000000  0 11G24G10G18G31G12G11G32G01G22G08G14
 128633115.03846 100233608.03546  24478057.715    24478059.975    24478057.218
  24478060.140          39.000          41.000
 112729838.09148  87841440.79348  21451761.338    21451763.535    21451761.212
  21451763.864          53.250          51.000
 125312283.86846  97645965.30443  23846121.551                    23846121.221
  23846121.376          41.500          22.500
 123114710.41147  95933544.37247  23427947.424    23427948.565    23427946.994
  23427948.265          43.000          42.000
 131081051.74945 102141082.45346  24943893.846    24943894.840    24943893.956
  24943893.988          33.250          38.000
 114986727.17748  89600051.60646  21881244.324                    21881243.865
  21881244.464          48.250          37.750
 106778403.73049  83203966.80149  20319242.088    20319244.924    20319242.184
  20319244.601          56.750          55.000
 116590579.48747  90849809.88048  22186448.915    22186452.734    22186448.649
  22186453.147          47.250          48.000
 124677336.48147  97151166.34745  23725302.730                    23725301.003
  23725301.489          45.000          30.250
 127989045.45146  99731689.88446  24355501.142    24355504.413    24355498.932
  24355504.722          41.250          41.000
 109414756.98748  85258260.77847  20820925.075                    20820924.821
  20820925.282          49.500          44.000
 16  9 30  1 43 30.0000000  0 11G24G10G18G31G12G11G32G01G22G08G14
 128725437.64646 100305547.85846  24495625.547    24495628.564    24495625.670
  24495628.359          38.750          41.000
 112795788.50948  87892830.74148  21464311.218    21464314.008    21464311.195
  21464314.033          53.500          51.000
 125400017.53646  97714329.24743  23862816.739                    23862816.136
  23862817.289          41.000          21.750
 123002589.93547  95846177.84747  23406612.042    23406613.398    23406611.387
  23406612.482          43.000          42.000
 131012030.51945 102087299.78446  24930760.475    24930758.333    24930759.113
  24930759.274          35.250          36.000
 114977096.63048  89592547.28146  21879411.583                    21879411.698
  21879411.337          48.250          37.250
 106794851.67149  83216783.39749  20322372.115    20322374.925    20322372.246
  20322374.576          56.750          55.000
 116522479.73947  90796745.18147  22173489.806    22173493.039    22173489.845
  22173493.933          47.750          47.000
 124585664.58447  97079733.71645  23707857.781                    23707856.609
  23707856.253          44.500          30.000
 128075796.34246  99799287.95247  24372007.934    24372014.037    24372007.665
  24372012.373          41.000          42.000
 109373410.14348  85226042.46647  20813057.210                    20813056.917
  20813056.956          50.000          44.000
 16  9 30  1 44  0.0000000  0 11G24G10G18G31G12G11G32G01G22G08G14
 128818078.64546 100377735.67046  24513254.992    24513257.579    24513254.591
  24513255.694          39.250          40.000
 112862048.09948  87944461.60648  21476920.040    21476922.445    21476919.868
  21476922.664          53.250          51.000
 125487894.94346  97782805.14343  23879539.331                    23879539.088
  23879540.492          41.250          22.000
 122890639.43147  95758943.76547  23385307.581    23385309.011    23385308.602
  23385309.003          42.250          42.000
 130943382.72346 102033807.97146  24917698.567    24917695.099    24917696.804
  24917695.300          36.750          37.000
 114968115.85548  89585549.26846  21877703.103                    21877702.508
  21877702.880          48.250          37.500
 106811757.98649  83229957.17049  20325589.265    20325591.745    20325589.342
  20325591.759          56.500          55.000
 116454836.34647  90744036.08048  22160617.809    22160621.462    22160618.207
  22160621.370          47.750          48.000
 124494079.05747  97008368.37644  23690429.568                    23690429.243
  23690428.035          44.750          29.750
 128162757.49346  99867049.84647  24388557.230    24388562.712    24388556.358
  24388561.498          41.500          43.000
 109332481.35148  85194149.91947  20805268.589                    20805268.186
  20805268.752          49.750          44.000
 16  9 30  1 44 30.0000000  0 11G24G10G18G31G12G11G32G01G22G08G14
 128911035.18046 100450169.36046  24530944.183    24530945.775    24530943.779
  24530946.363          38.500          40.000
 112928616.12048  87996332.81048  21489587.676    21489589.783    21489587.594
  21489590.046          53.500          51.000
 125575915.15246  97851392.34143  23896289.246                    23896287.647
  23896289.606          41.250          23.000
 122778862.39847  95671844.85747  23364037.201    23364038.582    23364037.481
  23364037.793          42.500          42.000
 130875111.45246 101980609.60046  24904704.973    24904705.240    24904704.158
  24904704.061          36.500          37.000
 114959785.40348  89579057.99846  21876117.239                    21876117.366
  21876117.663          48.750          37.250
 106829121.64549  83243487.31349  20328893.393    20328896.226    20328893.574
  20328895.688          56.250          55.000
 116387651.59348  90691684.35147  22147832.879    22147836.659    22147832.984
  22147836.598          48.000          47.000
 124402581.05547  96937071.22744  23673018.930                    23673017.589
  23673016.085          45.000          29.750
 128249925.84846  99934973.19147  24405144.564    24405149.317    24405144.609
  24405148.156          41.500          42.000
 109291970.85348  85162583.30947  20797559.781                    20797559.193
  20797559.778          49.000          44.000
 16  9 30  1 45  0.0000000  0 11G24G10G18G31G12G11G32G01G22G08G14
 129004305.19546 100522847.29746  24548691.212    24548694.756    24548691.721
  24548694.625          37.250          40.000
 112995491.87248  88048443.79648  21502313.366    21502316.055    21502313.435
  21502316.306          53.500          51.000
 125664078.03846  97920090.71243  23913066.433                    23913065.172
  23913066.731          40.000          23.000
 122667261.75547  95584883.39047  23342800.339    23342801.479    23342800.037
  23342801.344          43.000          43.000
 130807219.77346 101927706.97846  24891786.379    24891786.016    24891785.916
  24891785.878          36.250          37.000
 114952105.17248  89573073.40046  21874656.189                    21874655.538
  21874655.397          49.000          37.500
 106846941.63449  83257373.03949  20332284.291    20332287.191    20332284.531
  20332286.699          56.500          55.000
 116320927.78047  90639691.79748  22135135.579    22135139.446    22135135.932
  22135139.692          47.750          48.000
 124311171.40547  96865842.93744  23655623.405                    23655622.388
  23655621.065          44.750          29.250
 128337298.55246 100003055.79246  24421770.553    24421775.620    24421770.932
  24421775.614          40.250          41.000
 109251879.02548  85131342.94047  20789930.534                    20789930.081
  20789930.310          49.750          44.250
 16  9 30  1 45 30.0000000  0 11G24G10G18G31G12G11G32G01G22G08G14
 129097885.18346 100595766.77846  24566500.048    24566502.213    24566498.943
  24566503.460          38.000          40.000
 113062674.57948  88100793.97548  21515098.084    21515100.190    21515097.856
  21515100.533          53.750          51.000
 125752382.53946  97988899.41243  23929868.628                    23929867.483
  23929869.768          38.750          23.000
 122555840.49747  95498061.71347  23321597.414    23321599.030    23321598.101
  23321598.751          42.500          43.000
 130739711.43745 101875103.10846  24878939.548    24878937.630    24878939.784
  24878938.080          35.000          36.000
 114945075.33148  89567595.58946  21873318.360                    21873317.941
  21873318.110          48.750          37.750
 106865216.87749  83271613.50649  20335761.948    20335764.689    20335762.294
  20335764.479          56.750          55.000
 116254667.21747  90588060.22248  22122526.855    22122530.786    22122526.920
  22122530.920          47.500          48.000
 124219851.59547  96794684.67544  23638245.479                    23638244.487
  23638245.120          44.250          29.750
 128424872.25546 100071294.99546  24438436.208    24438440.102    24438436.106
  24438439.146          40.500          41.000
 109212205.96448  85100428.88247  20782380.901                    20782380.595
  20782380.984          49.000          44.250
 16  9 30  1 46  0.0000000  0 11G24G10G18G31G12G11G32G01G22G08G14
 129191773.45046 100668926.48646  24584365.702    24584369.704    24584366.472
  24584369.088          37.750          41.000
 113130163.52848  88153382.78448  21527940.548    21527942.720    21527940.479
  21527943.055          53.250          51.000
 125840827.74046  98057817.76643  23946701.302                    23946699.306
  23946701.056          39.750          23.250
 122444601.42247  95411381.97847  23300429.393    23300430.754    23300429.715
  23300430.151          42.750          42.000
 130672588.56146 101822799.55646  24866168.775    24866167.863    24866167.758
  24866166.492          38.250          38.000
 114938696.02648  89562624.70346  21872104.306                    21872103.892
  21872104.118          48.500          37.750
 106883946.31649  83286207.90049  20339326.163    20339328.755    20339326.350
  20339328.482          57.250          55.000
 116188872.16847  90536791.39048  22110006.328    22110009.917    22110006.672
  22110010.518          46.750          48.000
 124128622.59547  96723597.16544  23620885.114                    23620884.329
  23620883.940          43.750          29.500
 128512644.08546 100139688.57447  24455138.343    24455143.487    24455137.026
  24455142.087          40.000          42.000
 109172952.15248  85069841.51647  20774911.143                    20774910.719
  20774911.191          49.750          44.000
 16  9 30  1 46 30.0000000  0 11G24G10G18G31G12G11G32G01G22G08G14
 129285966.62446 100742323.76646  24602290.041    24602293.211    24602290.514
  24602293.198          38.000          41.000
 113197957.95848  88206209.63448  21540841.734    21540843.730    21540841.463
  21540843.904          53.750          51.000
 125929412.92646  98126845.17843  23963558.325                    23963556.977
  23963557.591          40.250          23.750
 122333547.65347  95324846.64946  23279296.648    23279296.614    23279296.942
  23279297.805          43.500          41.000
 130605854.38846 101770798.97546  24853467.506    24853467.275    24853466.771
  24853466.551          36.250          37.000
 114932967.43648  89558160.87046  21871014.256                    21871013.535
  21871014.020          48.500          37.500
 106903128.90449  83301155.38649  20342976.527    20342979.235    20342976.521
  20342978.737          56.500          55.000
 116123544.92947  90485887.07748  22097574.982    22097578.856    22097575.072
  22097578.995          47.750          48.000
 124037485.44147  96652581.21144  23603542.343                    23603541.556
  23603540.568          43.750          29.250
 128600610.90846 100208234.12147  24471878.095    24471882.781    24471877.552
  24471882.480          39.500          42.000
 109134117.88448  85039581.07047  20767521.150                    20767520.800
  20767521.281          49.250          44.000
 16  9 30  1 47  0.0000000  0 11G24G10G18G31G12G11G32G01G22G08G14
 129380462.09346 100815956.60346  24620272.346    24620275.671    24620273.300
  24620274.714          38.500          40.000
 113266057.11948  88259273.92548  21553800.128    21553802.339    21553800.299
  21553802.688          53.250          51.000
 126018137.43046  98195981.15244  23980441.214                    23980440.243
  23980441.640          40.250          24.500
 122222682.26547  95238458.08746  23258199.666    23258199.977    23258199.547
  23258200.113          43.250          41.000
 130539511.58946 101719103.34345  24840843.751    24840842.102    24840843.138
  24840841.072          38.500          35.000
 114927889.67448  89554204.16646  21870048.431                    21870047.862
  21870047.687          49.250          37.750
 106922763.52649  83316455.11049  20346712.752    20346715.426    20346713.051
  20346714.931          56.250          55.000
 116058687.70547  90435349.01748  22085232.713    22085236.466    22085233.215
  22085237.047          47.750          48.000
 123946441.41947  96581637.85145  23586217.655                    23586216.621
  23586215.736          44.000          30.000
 128688769.37846 100276928.98546  24488653.296    24488658.162    24488652.680
  24488657.308          38.500          41.000
 109095703.13848  85009647.52347  20760211.321                    20760210.722
  20760211.276          48.750          44.250
 16  9 30  1 47 30.0000000  0 11G24G10G18G31G12G11G32G01G22G08G14
 129475257.11446 100889822.81646  24638311.779    24638315.194    24638312.328
  24638314.617          38.750          40.000
 113334460.27148  88312575.09548  21566817.235    21566819.359    21566817.152
  21566819.272          53.500          51.000
 126107000.95946  98265225.45444  23997351.699                    23997351.052
  23997352.110          41.000          24.250
 122112008.52347  95152218.86647  23237139.584    23237139.881    23237139.646
  23237139.105          44.250          42.000
 130473562.82546 101667714.75845  24828294.117    24828292.646    24828292.853
  24828291.696          37.750          35.000
 114923462.43848  89550754.37746  21869205.618                    21869205.192
  21869205.777          49.500          38.000
 106942849.11549  83332106.23249  20350534.788    20350537.458    20350535.142
  20350537.264          56.500          55.000
 115994302.79747  90385178.97648  22072980.896    22072984.230    22072981.149
  22072985.003          47.500          48.000
 123855491.72647  96510767.98745  23568910.722                    23568909.928
  23568909.505          43.750          30.000
 128777116.64746 100345770.95746  24505465.622    24505471.337    24505464.416
  24505470.003          39.000          41.000
 109057708.33848  84980041.20747  20752980.893                    20752980.511
  20752980.819          49.500          44.250
 16  9 30  1 48  0.0000000  0 11G24G10G18G31G12G11G32G01G22G08G14
 129570349.21846 100963920.47746  24656407.896    24656409.085    24656407.056
  24656409.661          39.500          39.000
 113403166.63648  88366112.52848  21579891.426    21579893.874    21579891.308
  21579893.799          53.250          51.000
 126196002.45546  98334577.28244  24014288.031                    24014287.434
  24014288.352          40.750          24.500
 122001528.57947  95066130.63947  23216115.607    23216116.681    23216115.284
  23216116.231          44.000          42.000
 130408011.63846 101616635.95345  24815818.642    24815818.670    24815818.503
  24815818.442          37.750          35.000
 114919686.07648  89547811.75146  21868486.797                    21868486.816
  21868486.808          49.250          37.750
 106963384.57749  83348107.90649  20354442.623    20354445.178    20354442.830
  20354444.947          56.000          55.000
 115930392.44447  90335378.72048  22060819.253    22060822.905    22060819.524
  22060822.867          47.750          48.000
 123764637.28647  96439972.35445  23551621.616                    23551620.129
  23551620.469          43.500          30.500
 128865649.58246 100414757.61546  24522312.837    24522318.403    24522313.392
  24522317.349          38.250          41.000
 109020133.83748  84950762.40347  20745830.776                    20745830.525
  20745830.775          49.000          44.250
 16  9 30  1 48 30.0000000  0 11G24G10G18G31G12G11G32G01G22G08G14
 129665735.73046 101038247.73846  24674559.899    24674561.462    24674558.425
  24674561.738          39.500          40.000
 113472175.47048  88419885.65948  21593023.095    21593025.856    21593023.187
  21593025.838          53.000          51.000
 126285140.88646  98404035.81643  24031250.516                    24031249.939
  24031249.933          41.000          23.750
 121891245.89647  94980196.16147  23195129.246    23195130.060    23195129.177
  23195130.174          44.000          42.000
 130342860.68546 101565868.95946  24803421.812    24803422.481    24803420.557
  24803420.723          38.250          37.000
 114916560.25148  89545376.05246  21867892.061                    21867891.885
  21867892.134          49.000          37.500
 106984368.80849  83364459.26749  20358435.653    20358438.496    20358436.042
  20358438.165          56.250          55.000
 115866958.83848  90285949.95748  22048748.542    22048751.600    22048748.351
  22048751.683          48.000          48.000
 123673879.36147  96369251.92045  23534351.041                    23534350.081
  23534349.750          43.000          31.000
 128954365.17646 100483886.60446  24539194.237    24539200.308    24539193.586
  24539199.301          37.750          40.000
 108982979.76448  84921811.18747  20738760.698                    20738760.108
  20738760.535          49.250          44.250
 16  9 30  1 49  0.0000000  0 11G24G10G18G31G12G11G32G01G22G08G14
 129761413.68746 101112801.96446  24692766.965    24692768.164    24692766.118
  24692767.165          39.250          40.000
 113541486.01348  88473893.87948  21606212.349    21606215.143    21606212.530
  21606215.301          53.000          51.000
 126374415.90046  98473600.79944  24048237.932                    24048237.984
  24048238.493          40.250          24.000
 121781163.44747  94894417.70147  23174181.314    23174182.955    23174181.317
  23174181.637          44.250          42.000
 130278112.85046 101515416.08545  24791098.850    24791098.376    24791099.781
  24791097.460          37.250          33.000
 114914085.04948  89543447.32946  21867421.057                    21867421.087
  21867420.771          49.750          38.000
 107005800.70149  83381159.46449  20362514.137    20362516.697    20362514.354
  20362516.449          56.500          55.000
 115804004.26347  90236894.46248  22036768.481    22036771.451    22036768.587
  22036771.713          47.500          48.000
 123583219.15947  96298607.61945  23517099.183                    23517097.537
  23517097.387          43.000          31.500
 129043260.32146 100553155.51946  24556111.759    24556116.397    24556109.652
  24556114.454          38.250          40.000
 108946246.17648  84893187.62847  20731770.701                    20731769.913
  20731770.366          49.500          44.500
 16  9 30  1 49 30.0000000  0 11G24G10G18G31G12G11G32G01G22G08G14
 129857380.36246 101187581.13646  24711027.044    24711029.145    24711027.457
  24711029.707          39.250          40.000
 113611097.46948  88528136.58548  21619459.254    21619461.175    21619459.227
  21619461.707          52.750          51.000
 126463826.48846  98543271.39343  24065254.300                    24065252.028
  24065253.360          41.000          23.000
 121671284.00647  94808797.44647  23153272.175    23153272.251    23153271.418
  23153272.090          44.500          43.000
 130213770.57846 101465279.25745  24778856.891    24778853.877    24778855.393
  24778854.711          39.000          34.000
 114912260.25448  89542025.40546  21867073.979                    21867073.120
  21867073.874          48.250          37.750
 107027679.09649  83398207.58149  20366677.436    20366680.015    20366677.689
  20366679.775          56.250          55.000
 115741530.88047  90188213.92548  22024880.206    22024883.439    22024879.922
  22024883.784          47.250          48.000
 123492657.81547  96228040.37845  23499865.932                    23499864.065
  23499864.188          43.000          31.750
 129132331.75046 100622561.77446  24573060.494    24573065.246    24573061.473
  24573065.601          37.750          39.000
 108909933.49448  84864892.04947  20724860.403                    20724859.789
  20724860.298          48.750          44.500
 16  9 30  1 50  0.0000000  0 11G24G10G18G31G12G11G32G01G22G08G14
 129953632.97946 101262583.13446  24729342.123    24729345.185    24729342.921
  24729345.068          38.250          39.000
 113681009.07948  88582613.18348  21632762.893    21632765.198    21632762.825
  21632765.388          52.500          51.000
 126553371.88646  98613047.03343  24082294.070                    24082293.006
  24082294.157          41.000          22.750
 121561610.93347  94723337.94947  23132401.717    23132402.178    23132401.015
  23132401.981          44.250          42.000
 130149837.34746 101415461.07546  24766690.893    24766690.384    24766689.819
  24766690.120          39.500          36.000
 114911085.94147  89541110.36646  21866850.050                    21866849.662
  21866850.054          47.000          37.500
 107050002.94449  83415602.80849  20370925.545    20370928.188    20370925.747
  20370927.800          57.000          55.000
 115679540.92547  90139910.08648  22013083.221    22013087.100    22013083.946
  22013087.238          47.500          48.000
 123402196.45847  96157551.00845  23482651.380                    23482649.784
  23482649.689          43.750          32.500
 129221576.30546 100692102.91146  24590043.302    24590049.576    24590044.267
  24590047.831          37.250          40.000
 108874041.81048  84836924.51547  20718030.520                    20718029.812
  20718030.400          49.750          44.250
 16  9 30  1 50 30.0000000  0 11G24G10G18G31G12G11G32G01G22G08G14
 130050169.31246 101337806.32646  24747712.839    24747715.885    24747713.715
  24747715.556          38.500          39.000
 113751220.08148  88637323.06048  21646123.395    21646125.842    21646123.405
  21646126.210          52.500          50.000
 126643051.40846  98682927.20143  24099358.370                    24099358.521
  24099358.504          39.750          21.000
 121452146.79747  94638041.28547  23111570.755    23111572.024    23111571.454
  23111572.198          44.000          43.000
 130086315.09046 101365963.17745  24754601.553    24754601.038    24754601.653
  24754600.610          38.000          35.000
 114910562.04747  89540702.14846  21866750.607                    21866750.083
  21866750.635          47.500          37.750
 107072771.02349  83433344.18649  20375258.083    20375260.628    20375258.308
  20375260.337          56.500          55.000
 115618036.54947  90091984.62148  22001379.964    22001383.330    22001380.020
  22001383.622          47.750          48.000
 123311836.22347  96087140.45445  23465456.695                    23465455.769
  23465454.910          44.000          32.000
 129310991.20046 100761776.84046  24607057.920    24607063.358    24607057.792
  24607063.036          36.250          38.000
 108838571.45648  84809285.28947  20711280.544                    20711280.213
  20711280.574          49.250          44.500
 16  9 30  1 51  0.0000000  0 11G24G10G18G31G12G11G32G01G22G08G14
 130146986.36846 101413248.27246  24766137.892    24766139.820    24766136.192
  24766139.977          38.500          40.000
 113821729.66448  88692265.60648  21659540.878    21659543.424    21659540.909
  21659543.555          52.500          50.000
 126732864.89046  98752911.78643  24116449.800                    24116449.647
  24116449.693          38.250          18.750
 121342894.63247  94552909.79347  23090781.397    23090782.575    23090781.467
  23090782.134          44.500          44.000
 130023207.66246 101316788.55146  24742593.601    24742592.923    24742592.971
  24742592.504          38.250          36.000
 114910688.32947  89540800.55746  21866774.817                    21866773.852
  21866774.331          47.250          37.500
 107095982.26449  83451430.88749  20379674.952    20379677.721    20379675.244
  20379677.316          56.000          55.000
 115557019.97347  90044439.25848  21989768.743    21989772.315    21989769.151
  21989772.244          47.750          48.000
 123221578.63447  96016809.88145  23448280.733                    23448279.852
  23448279.545          44.250          32.500
 129400573.36146 100831581.08746  24624105.185    24624111.764    24624104.782
  24624110.526          36.500          41.000
 108803522.40948  84781974.36147  20704611.009                    20704610.445
  20704610.958          48.750          44.500
 16  9 30  1 51 30.0000000  0 11G24G10G18G31G12G11G32G01G22G08G14
 130244081.25946 101488906.64146  24784613.265    24784615.902    24784615.119
  24784617.267          38.750          39.000
 113892537.09748  88747440.23848  21673015.755    21673017.532    21673015.447
  21673017.861          53.000          51.000
 126822810.81046  98822999.50543  24133566.313                    24133564.716
  24133565.097          38.000          18.750
 121233857.34947  94467945.76047  23070032.135    23070032.728    23070032.213
  23070033.761          45.000          44.000
 129960517.87646 101267939.37246  24730663.715    24730664.252    24730662.857
  24730662.705          36.500          37.000
 114911464.34047  89541405.24746  21866922.491                    21866922.312
  21866922.234          47.750          38.000
 107119635.48049  83469861.99449  20384175.899    20384178.770    20384176.373
  20384178.347          56.250          55.000
 115496493.33348  89997275.66548  21978250.949    21978254.365    21978251.020
  21978254.568          48.000          48.000
 123131424.34847  95946559.79645  23431126.020                    23431124.601
  23431123.350          44.500          33.500
 129490319.53446 100901513.10846  24641184.308    24641188.987    24641183.003
  24641188.277          37.500          39.000
 108768894.97748  84754991.95247  20698021.355                    20698021.193
  20698021.673          48.750          44.500
 16  9 30  1 52  0.0000000  0 11G24G10G18G31G12G11G32G01G22G08G14
 130341451.76346 101564779.85746  24803144.049    24803144.487    24803142.889
  24803143.962          40.000          38.000
 113963641.52748  88802846.29648  21686545.919    21686548.429    21686546.099
  21686548.565          52.250          50.000
 126912888.67046  98893190.06243  24150705.680                    24150706.086
  24150707.202          37.000          19.000
 121125038.44347  94383151.87447  23049324.513    23049324.842    23049324.717
  23049325.490          45.000          44.000
 129898248.17446 101219417.48045  24718814.511    24718813.359    24718814.311
  24718813.106          37.750          35.000
 114912890.18547  89542516.30746  21867193.257                    21867193.287
  21867193.538          47.250          37.500
 107143729.51149  83488636.58749  20388760.984    20388763.679    20388761.273
  20388763.233          56.500          55.000
 115436458.81047  89950495.53348  21966826.605    21966830.351    21966826.749
  21966830.310          47.750          48.000
 123041374.83047  95876391.35745  23413989.464                    23413988.197
  23413987.943          44.500          33.000
 129580226.63646 100971570.56846  24658292.541    24658297.221    24658292.918
  24658296.675          37.000          38.000
 108734689.26148  84728338.16147  20691512.673                    20691511.963
  20691512.424          49.500          44.500
 16  9 30  1 52 30.0000000  0 11G24G10G18G31G12G11G32G01G22G08G14
 130439094.43346 101640865.02746  24821722.513    24821725.991    24821723.211
  24821724.753          38.750          38.000
 114035042.20648  88858483.20948  21700133.256    21700135.231    21700133.209
  21700135.701          52.750          50.000
 127003097.53046  98963482.69443  24167872.898                    24167871.844
  24167872.944          37.500          19.250
 121016440.53147  94298530.18047  23028659.035    23028659.823    23028659.061
  23028659.451          44.750          44.000
 129836401.18946 101171224.95346  24707044.460    24707045.153    24707045.523
  24707044.744          36.500          36.000
 114914965.53148  89544133.47046  21867588.559                    21867587.932
  21867588.275          49.000          37.250
 107168263.18749  83507753.76349  20393429.624    20393432.234    20393429.966
  20393431.912          56.250          55.000
 115376918.53748  89904100.54148  21955496.429    21955499.931    21955496.930
  21955500.513          48.500          48.000
 122951431.54447  95806305.69645  23396873.839                    23396872.861
  23396871.475          44.250          32.750
 129670291.59246 101041751.01946  24675432.222    24675437.138    24675432.078
  24675435.851          37.500          40.000
 108700905.35948  84702013.05747  20685083.880                    20685083.157
  20685083.504          49.000          44.750
 16  9 30  1 53  0.0000000  0 11G24G10G18G31G12G11G32G01G22G08G14
 130537006.88946 101717160.44246  24840355.804    24840358.259    24840356.335
  24840357.590          38.500          38.000
 114106738.32148  88914350.32648  21713776.488    21713778.500    21713776.356
  21713779.074          52.250          50.000
 127093436.61046  99033876.78643  24185063.993                    24185061.637
  24185062.272          38.250          19.250
 120908066.49647  94214082.95347  23008035.693    23008037.247    23008035.608
  23008036.177          44.500          45.000
 129774979.55046 101123363.99446  24695357.295    24695357.947    24695356.290
  24695356.004          37.750          38.000
 114917690.04648  89546256.47246  21868106.861                    21868106.796
  21868106.386          49.750          38.000
 107193235.32849  83527212.60549  20398181.788    20398184.352    20398181.947
  20398183.944          56.250          54.000
 115317874.65548  89858092.34548  21944260.924    21944263.824    21944261.316
  21944264.474          48.500          48.000
 122861595.60247  95736303.67345  23379777.988                    23379777.000
  23379776.555          44.500          32.750
 129760511.28146 101112052.01746  24692599.637    24692604.369    24692599.337
  24692603.596          36.500          40.000
 108667543.43448  84676016.76947  20678735.200                    20678734.419
  20678735.007          48.500          44.500
 16  9 30  1 53 30.0000000  0 11G24G10G18G31G12G11G32G01G22G08G14
 130635187.12246 101793664.56746  24859037.559    24859041.624    24859038.582
  24859040.968          38.000          38.000
 114178729.06248  88970447.02648  21727475.777    21727478.212    21727475.912
  21727478.405          52.250          51.000
 127183905.27146  99104371.86543  24202279.611                    24202277.674
  24202279.499          37.750          20.000
 120799919.60447  94129812.73247  22987456.568    22987457.457    22987455.828
  22987456.806          45.250          45.000
 129713986.45346 101075836.91346  24683751.918    24683751.368    24683750.365
  24683749.993          38.250          37.000
 114921063.53548  89548885.17846  21868749.078                    21868748.746
  21868748.738          49.500          37.750
 107218644.74749  83547012.18049  20403016.831    20403019.426    20403017.086
  20403019.305          56.500          55.000
 115259329.23848  89812472.56948  21933119.755    21933123.389    21933119.750
  21933123.327          48.000          48.000
 122771867.78947  95666385.90145  23362703.540                    23362703.162
  23362701.774          44.500          32.500
 129850882.64146 101182471.23446  24709797.266    24709802.344    24709797.654
  24709801.040          36.500          40.000
 108634603.66448  84650349.43447  20672466.791                    20672466.232
  20672466.741          49.250          44.750
