     2.11           OBSERVATION DATA    M (MIXED)           RINEX VERSION / TYPE
teqc  2016Apr1      anonyme             20160926 12:24:12UTCPGM / RUN BY / DATE
Linux 2.4.21-27.ELsmp|Opteron|gcc|Linux x86_64|=+           COMMENT
teqc  2016Apr1      Administrateur RGP  20160915 01:27:23UTCCOMMENT
teqc  2016Apr1      Administrateur RGP  20160914 01:05:09UTCCOMMENT
teqc  2016Apr1      SIRTA               20160914 01:05:08UTCCOMMENT
   0.000      (antenna height)                              COMMENT
 +48.71217131 (latitude)                                    COMMENT
  +2.20850529 (longitude)                                   COMMENT
0218.256      (elevation)                                   COMMENT
BIT 2 OF LLI FLAGS DATA COLLECTED UNDER A/S CONDITION       COMMENT
SIRT (COGO code)                                            COMMENT
SIRT                                                        MARKER NAME
19988M001                                                   MARKER NUMBER
Automatic           IPSL/LMD/EP                             OBSERVER / AGENCY
5103K73227          TRIMBLE NETR9       4.43                REC # / TYPE / VERS
14411112166         TRM57971.00     NONE                    ANT # / TYPE
  4213551.1590   162494.2700  4769661.5530                  APPROX POSITION XYZ
        0.0000        0.0000        0.0000                  ANTENNA: DELTA H/E/N
     1     1                                                WAVELENGTH FACT L1/2
     7    L1    L2    C1    P1    P2    S1    S2            # / TYPES OF OBSERV
    30.0000                                                 INTERVAL
    17                                                      LEAP SECONDS
 SNR is mapped to RINEX snr flag value [0-9]                COMMENT
  L1 & L2: min(max(int(snr_dBHz/6), 0), 9)                  COMMENT
Forced Modulo Decimation to 30 seconds                      COMMENT
teqc edited: all GLONASS satellites excluded                COMMENT
teqc edited: all SBAS satellites excluded                   COMMENT
teqc edited: all Galileo satellites excluded                COMMENT
  2016     9    14     0     0    0.0000000     GPS         TIME OF FIRST OBS
                                                            END OF HEADER
 16  9 14  0  0  0.0000000  0 10G15G30G28G21G13G20G08G24G18G05
 111144529.378 8  86606160.26946  21150095.984                    21150099.484
        48.600          36.900
 120552307.534 7  93936937.72744  22940335.867                    22940342.395
        42.900          29.200
 112501602.623 8  87663527.46146  21408316.820                    21408320.281
        49.800          37.100
 133377606.833 5 103930640.44942  25380920.820                    25380924.938
        35.500          16.300
 105722089.314 8  82380934.48746  20118245.320                    20118248.805
        49.400          41.200
 112092853.448 8  87345112.88045  21330559.906                    21330563.000
        49.100          35.700
 132848865.853 5 103518670.00642  25280308.047                    25280313.473
        35.000          15.600
 123939195.979 7  96576063.58944  23584852.227                    23584859.137
        42.500          25.600
 129512306.043 6 100918717.78443  24645377.070                    24645380.379
        41.700          19.600
 118668065.830 7  92468655.56945  22581783.563                    22581787.207
        46.100          32.700
 16  9 14  0  0 30.0000000  0 10G15G30G28G21G13G20G08G24G18G05
 111086899.342 8  86561253.75546  21139129.320                    21139133.035
        48.500          37.400
 120642381.744 7  94007125.40244  22957476.688                    22957482.656
        43.000          29.000
 112517038.709 8  87675555.59446  21411254.000                    21411257.473
        49.600          36.100
 133412695.532 5 103957982.34342  25387599.336                    25387601.426
        35.900          17.400
 105717686.253 8  82377503.53046  20117407.469                    20117411.238
        49.700          40.700
 112102368.309 8  87352527.04745  21332370.164                    21332373.254
        48.800          34.300
 132886399.138 5 103547916.67142  25287449.484                    25287456.387
        34.900          14.800
 123843830.995 7  96501753.23444  23566705.414                    23566711.027
        42.400          26.700
 129428112.333 6 100853112.29843  24629355.672                    24629357.410
        40.900          18.300
 118764825.742 7  92544052.89845  22600195.531                    22600200.121
        45.800          32.700
 16  9 14  0  1  0.0000000  0 10G15G30G28G21G13G20G08G24G18G05
 111029623.978 8  86516623.59546  21128230.688                    21128233.809
        49.800          37.700
 120732595.845 7  94077422.07944  22974643.664                    22974650.004
        42.500          28.600
 112533010.611 8  87688001.23346  21414293.211                    21414296.438
        48.900          36.000
 133448147.132 6 103985606.90242  25394344.680                    25394348.797
        36.100          17.800
 105713714.710 8  82374408.81546  20116651.523                    20116654.844
        49.500          40.900
 112112491.743 8  87360415.44145  21334296.430                    21334299.422
        48.100          34.100
 132924443.303 5 103577561.49042  25294689.977                    25294695.730
        35.500          17.400
 123748630.061 6  96427570.72144  23548588.938                    23548595.109
        41.800          26.800
 129344178.828 6 100787709.58043  24613383.188                    24613385.945
        40.900          19.000
 118861867.570 7  92619669.90945  22618661.953                    22618666.059
        45.000          30.600
 16  9 14  0  1 30.0000000  0 10G15G30G28G21G13G20G08G24G18G05
 110972704.498 8  86472270.73446  21117398.945                    21117402.355
        48.700          37.900
 120822948.104 7  94147826.43144  22991836.828                    22991843.703
        42.100          29.400
 112549517.116 8  87700863.45246  21417434.328                    21417437.734
        49.000          36.000
 133483959.523 6 104013512.71542  25401161.117                    25401164.375
        39.100          17.400
 105710175.076 8  82371650.65146  20115978.281                    20115981.223
        48.500          40.900
 112123223.478 7  87368777.81945  21336338.398                    21336342.172
        47.700          33.900
 132962997.228 5 103607603.49842  25302026.523                    25302032.410
        35.400          16.300
 123653594.193 6  96353516.82244  23530504.344                    23530511.309
        40.900          25.600
 129260508.005 6 100722511.54043  24597461.133                    24597464.113
        40.200          19.600
 118959188.253 7  92695504.18545  22637181.313                    22637185.805
        44.800          31.500
 16  9 14  0  2  0.0000000  0  9G15G30G28G21G13G20G24G18G05
 110916142.775 8  86428196.66946  21106635.672                    21106639.402
        49.100          38.200
 120913437.377 7  94218337.52545  23009057.586                    23009063.867
        43.800          30.400
 112566557.888 8  87714141.98146  21420676.977                    21420680.566
        50.000          36.000
 133520131.211 6 104041698.37443  25408044.531                    25408046.820
        39.800          19.000
 105707068.278 8  82369229.77246  20115386.992                    20115390.410
        50.200          41.100
 112134563.385 7  87377614.09645  21338496.305                    21338499.824
        47.900          34.200
 123558724.584 6  96279592.48044  23512449.641                    23512457.840
        39.400          25.300
 129177101.879 6 100657519.74243  24581589.375                    24581592.418
        41.500          20.100
 119056784.987 7  92771553.56545  22655753.719                    22655758.367
        45.600          31.400
 16  9 14  0  2 30.0000000  0  9G15G30G28G21G13G20G24G18G05
 110859940.385 8  86384402.59146  21095940.922                    21095944.922
        49.500          38.600
 121004062.077 7  94288954.15845  23026302.313                    23026308.660
        42.100          30.400
 112584131.739 8  87727835.90346  21424021.453                    21424024.426
        49.800          36.100
 133556660.450 6 104070162.71143  25414995.695                    25414998.051
        40.500          18.600
 105704395.094 7  82367146.76346  20114878.586                    20114881.410
        47.300          40.600
 112146510.765 8  87386923.73845  21340770.094                    21340773.816
        48.400          35.100
 123464022.417 6  96205798.61944  23494429.195                    23494436.387
        40.400          26.200
 129093962.365 6 100592735.70843  24565769.727                    24565772.770
        41.700          20.400
 119154655.478 7  92847816.27045  22674378.094                    22674382.465
        46.000          31.300
 16  9 14  0  3  0.0000000  0  9G15G30G28G21G13G20G24G18G05
 110804098.426 8  86340889.39046  21085314.234                    21085318.230
        49.000          38.900
 121094820.379 7  94359674.88745  23043573.586                    23043580.391
        43.900          30.200
 112602237.341 8  87741944.18045  21427466.352                    21427469.527
        49.700          35.400
 133593544.922 6 104098903.81943  25422014.547                    25422017.379
        39.200          19.000
 105702155.544 8  82365401.65646  20114452.164                    20114455.797
        48.300          40.500
 112159064.513 8  87396705.86445  21343158.969                    21343162.969
        49.000          35.500
 123369487.974 6  96132135.43444  23476440.477                    23476446.664
        39.700          24.700
 129011091.678 7 100528161.16743  24549999.789                    24550002.258
        42.100          20.100
 119252796.689 7  92924289.93645  22693053.797                    22693058.043
        46.000          31.500
 16  9 14  0  3 30.0000000  0  9G15G30G28G21G13G20G24G18G05
 110748618.699 8  86297658.45146  21074756.438                    21074761.188
        49.300          38.600
 121185711.213 7  94430498.89445  23060869.414                    23060876.188
        44.200          31.100
 112620873.765 8  87756466.08145  21431013.242                    21431016.102
        50.000          35.800
 133630783.181 6 104127920.61642  25429100.648                    25429103.145
        37.900          17.800
 105700350.704 8  82363995.28246  20114108.320                    20114111.891
        48.300          40.900
 112172224.543 8  87406960.41345  21345663.547                    21345666.938
        49.100          35.400
 123275122.172 6  96058603.69744  23458482.891                    23458489.539
        39.800          25.600
 128928492.110 6 100463797.85843  24534281.297                    24534284.570
        41.200          19.900
 119351206.163 7  93000972.63845  22711780.586                    22711785.078
        45.200          30.200
 16  9 14  0  4  0.0000000  0  9G15G30G28G21G13G20G24G18G05
 110693503.071 8  86254711.21646  21064268.617                    21064273.078
        49.800          39.200
 121276733.172 7  94501425.09045  23078190.383                    23078197.348
        44.300          31.400
 112640040.540 8  87771401.24845  21434660.313                    21434663.313
        49.500          35.800
 133668373.360 6 104157211.63442  25436253.789                    25436256.883
        38.800          17.800
 105698981.347 8  82362928.24846  20113848.219                    20113851.324
        48.300          40.900
 112185990.435 8  87417687.07545  21348282.508                    21348287.090
        48.300          35.100
 123180926.851 6  95985204.75544  23440558.617                    23440565.320
        41.000          26.900
 128846165.838 6 100399647.51443  24518615.297                    24518617.945
        41.500          20.400
 119449881.020 7  93077862.11745  22730557.547                    22730562.199
        44.900          31.900
 16  9 14  0  4 30.0000000  0  9G15G30G28G21G13G20G24G18G05
 110638753.342 8  86212049.09646  21053850.523                    21053854.508
        49.700          38.900
 121367885.058 7  94572452.51345  23095536.625                    23095542.422
        44.300          31.100
 112659736.643 8  87786748.87246  21438408.727                    21438411.699
        49.700          36.200
 133706313.793 6 104186775.55042  25443474.125                    25443477.320
        37.700          16.900
 105698048.461 7  82362201.31846  20113670.633                    20113673.953
        47.900          40.700
 112200361.800 8  87428885.53545  21351017.273                    21351021.621
        48.600          34.800
 123086902.229 7  95911938.85244  23422665.789                    23422673.078
        42.300          28.500
 128764115.476 6 100335712.16943  24503000.813                    24503004.023
        40.100          18.300
 119548819.035 7  93154956.65945  22749385.063                    22749389.633
        45.500          32.300
 16  9 14  0  5  0.0000000  0  9G15G30G28G21G13G20G24G18G05
 110584370.918 8  86169673.18146  21043501.258                    21043505.766
        49.000          39.800
 121459165.301 7  94643579.96345  23112906.570                    23112912.453
        45.800          32.200
 112679961.213 8  87802508.30046  21442256.891                    21442260.422
        49.800          36.800
 133744602.115 6 104216610.60143  25450758.789                    25450763.785
        37.100          18.600
 105697552.430 8  82361814.79347  20113576.359                    20113579.359
        48.400          42.500
 112215337.465 8  87440554.86945  21353867.477                    21353871.016
        48.200          35.400
 122993049.664 7  95838807.02344  23404806.500                    23404813.160
        42.800          29.800
 128682342.958 6 100271993.34143  24487439.680                    24487442.934
        40.100          20.900
 119648017.234 7  93232253.92645  22768262.172                    22768266.105
        46.000          32.000
 16  9 14  0  5 30.0000000  0  9G15G30G28G21G13G20G24G18G05
 110530357.089 8  86127584.49546  21033222.844                    21033227.277
        49.200          39.800
 121550572.234 7  94714806.11845  23130300.680                    23130306.859
        46.000          32.300
 112700712.904 8  87818678.45746  21446205.992                    21446209.016
        49.800          36.800
 133783236.783 6 104246715.52343  25458111.961                    25458116.055
        38.200          20.100
 105697493.568 8  82361768.92547  20113565.156                    20113567.879
        48.700          42.000
 112230917.086 8  87452694.83245  21356832.195                    21356835.617
        48.100          35.000
 122899369.693 7  95765809.66045  23386980.148                    23386986.715
        42.700          30.600
 128600850.478 6 100208492.73343  24471931.680                    24471935.316
        37.900          19.900
 119747472.950 7  93309751.85645  22787187.266                    22787191.711
        45.000          32.300
 16  9 14  0  6  0.0000000  0  9G15G30G28G21G13G20G24G18G05
 110476713.987 8  86085784.67046  21023015.109                    21023019.508
        49.900          40.600
 121642104.857 7  94786130.21745  23147718.422                    23147724.918
        45.700          31.500
 112721991.107 8  87835258.88246  21450254.641                    21450257.625
        49.500          36.600
 133822216.224 6 104277089.15743  25465529.266                    25465534.273
        37.400          20.600
 105697872.812 8  82362064.44046  20113637.508                    20113640.395
        49.300          41.700
 112247100.202 7  87465305.05245  21359911.641                    21359914.949
        47.600          34.700
 122805863.196 7  95692947.49045  23369186.445                    23369193.180
        42.300          30.700
 128519640.263 6 100145212.06843  24456478.625                    24456481.617
        36.500          19.900
 119847183.651 7  93387448.49645  22806161.633                    22806166.188
        44.300          32.100
 16  9 14  0  6 30.0000000  0  9G15G30G28G21G13G20G24G18G05
 110423443.119 8  86044274.90846  21012878.359                    21012882.121
        49.700          41.200
 121733761.730 7  94857551.13545  23165160.219                    23165166.094
        46.000          31.600
 112743794.502 8  87852248.55046  21454403.820                    21454407.461
        49.400          37.100
 133861538.420 6 104307729.77843  25473012.438                    25473016.145
        37.600          19.900
 105698691.037 8  82362702.02147  20113792.813                    20113796.410
        49.100          42.100
 112263886.054 8  87478384.91545  21363105.453                    21363109.426
        48.100          34.500
 122712531.517 7  95620221.54545  23351425.578                    23351432.633
        42.300          30.200
 128438715.000 6 100082153.45243  24441078.836                    24441082.938
        36.900          20.600
 119947146.304 7  93465341.46245  22825183.930                    22825188.734
        44.600          32.300
 16  9 14  0  7  0.0000000  0  9G15G30G28G21G13G20G24G18G05
 110370546.080 8  86003056.44746  21002812.289                    21002816.277
        50.200          40.200
 121825541.391 7  94929067.72845  23182625.523                    23182631.344
        45.300          30.500
 112766122.250 8  87869646.79746  21458652.391                    21458656.109
        48.900          37.100
 133901201.290 6 104338635.91142  25480559.016                    25480563.660
        37.900          17.800
 105699948.440 8  82363681.80547  20114032.563                    20114035.617
        50.000          42.200
 112281273.840 8  87491933.82545  21366414.742                    21366417.859
        49.100          35.600
 122619375.246 7  95547632.25845  23333698.531                    23333705.559
        43.000          30.700
 128358076.508 6 100019318.24243  24425735.438                    24425737.914
        37.000          20.600
 120047358.465 7  93543428.84345  22844253.969                    22844258.250
        45.000          32.100
 16  9 14  0  7 30.0000000  0  9G15G30G28G21G13G20G24G18G05
 110318023.872 8  85962130.05346  20992817.250                    20992821.258
        49.600          40.200
 121917442.134 7  95000678.65545  23200112.836                    23200118.551
        45.000          30.000
 112788972.648 8  87887452.30646  21463000.758                    21463004.180
        48.200          36.600
 133941202.575 5 104369805.78542  25488170.320                    25488174.398
        34.200          16.300
 105701645.329 8  82365004.04547  20114354.867                    20114358.148
        49.500          42.600
 112299262.532 8  87505950.96545  21369838.430                    21369841.156
        49.100          35.500
 122526395.275 7  95475180.34745  23316004.914                    23316011.730
        42.800          31.200
 128277726.781 6  99956708.05743  24410445.633                    24410448.441
        39.400          20.400
 120147817.351 7  93621708.47245  22863370.969                    22863375.262
        45.700          31.900
 16  9 14  0  8  0.0000000  0 10G15G30G28G21G13G20G17G24G18G05
 110265878.677 8  85921497.43546  20982894.313                    20982898.430
        49.100          40.000
 122009463.028 7  95072383.21644  23217624.938                    23217630.582
        44.600          29.900
 112812345.219 8  87905664.70346  21467448.656                    21467452.211
        48.900          37.100
 133981540.941 6 104401238.19242  25495847.445                    25495850.887
        37.400          17.800
 105703782.733 8  82366669.53747  20114761.531                    20114765.230
        48.600          42.100
 112317852.032 8  87520436.27046  21373375.531                    21373378.602
        49.300          36.100
 133125403.353 6 103734113.16443  25332925.922                    25332930.770
        39.900          21.700
 122433592.396 7  95402866.45745  23298345.430                    23298352.641
        42.000          30.800
 128197667.971 6  99894324.60343  24395208.930                    24395213.227
        37.100          20.600
 120248520.552 7  93700178.49145  22882533.734                    22882538.477
        44.600          32.100
 16  9 14  0  8 30.0000000  0 10G15G30G28G21G13G20G17G24G18G05
 110214112.021 8  85881159.78546  20973043.547                    20973047.438
        49.900          40.700
 122101602.783 7  95144180.39244  23235157.844                    23235163.578
        44.500          29.300
 112836238.903 8  87924283.16746  21471995.328                    21471998.816
        49.100          37.100
 134022214.371 6 104432931.76542  25503586.766                    25503589.543
        36.800          16.300
 105706361.534 8  82368678.98746  20115252.539                    20115255.609
        49.800          41.500
 112337041.445 8  87535389.05245  21377027.680                    21377030.699
        49.600          35.900
 133037343.760 6 103665495.36043  25316168.477                    25316173.691
        39.500          20.100
 122340968.092 7  95330691.70245  23280718.719                    23280725.980
        42.300          30.200
 128117902.357 6  99832169.61643  24380029.758                    24380034.297
        36.500          21.100
 120349465.374 7  93778836.77045  22901742.766                    22901747.750
        43.300          30.400
 16  9 14  0  9  0.0000000  0 10G15G30G28G21G13G20G17G24G18G05
 110162725.736 8  85841118.51746  20963265.055                    20963269.320
        49.800          40.500
 122193860.050 7  95216069.15344  23252714.070                    23252720.148
        43.900          28.900
 112860652.423 8  87943306.69146  21476641.016                    21476644.680
        48.400          36.500
 134063221.260 5 104464885.12642  25511389.805                    25511392.793
        35.900          17.400
 105709382.228 8  82371032.76347  20115827.109                    20115830.605
        49.500          42.200
 112356829.644 8  87550808.41646  21380792.797                    21380796.422
        48.300          36.200
 132949325.779 6 103596909.92443  25299418.906                    25299424.922
        39.400          21.300
 122248522.996 7  95258656.59945  23263128.117                    23263134.398
        42.700          30.700
 128038432.436 6  99770245.02243  24364907.281                    24364911.719
        37.500          22.200
 120450649.184 7  93857681.27645  22920997.266                    22921002.172
        44.200          32.000
 16  9 14  0  9 30.0000000  0 10G15G30G28G21G13G20G17G24G18G05
 110111721.031 8  85801374.59246  20953559.305                    20953563.895
        49.700          41.300
 122286233.140 7  95288048.11244  23270291.430                    23270298.598
        42.800          28.900
 112885584.562 8  87962734.33346  21481385.391                    21481389.316
        49.500          37.100
 134104559.124 6 104497096.36042  25519256.938                    25519259.656
        36.200          17.400
 105712845.074 8  82373731.08947  20116486.328                    20116489.621
        49.800          42.200
 112377215.883 8  87566693.79046  21384672.438                    21384675.582
        48.500          36.200
 132861351.851 6 103528358.83343  25282678.648                    25282683.570
        39.800          21.100
 122156258.043 7  95186761.85345  23245570.430                    23245577.129
        43.000          31.600
 127959260.020 6  99708552.22743  24349840.813                    24349845.801
        39.200          21.800
 120552068.737 7  93936709.48145  22940297.727                    22940301.531
        44.800          31.500
 16  9 14  0 10  0.0000000  0 10G15G30G28G21G13G20G17G24G18G05
 110061099.354 8  85761929.13046  20943925.969                    20943930.422
        49.800          41.100
 122378720.801 7  95360116.38844  23287891.555                    23287897.324
        42.600          29.300
 112911033.981 8  87982565.04846  21486228.422                    21486232.523
        49.100          37.300
 134146225.964 6 104529563.99542  25527186.023                    25527188.598
        36.300          17.800
 105716750.680 8  82376774.40646  20117229.391                    20117232.871
        49.600          41.800
 112398199.454 8  87583044.62345  21388665.086                    21388668.781
        48.500          35.700
 132773424.099 6 103459843.71443  25265945.586                    25265951.707
        38.600          20.400
 122064174.002 7  95115008.08845  23228047.922                    23228054.313
        42.200          31.800
 127880387.568 6  99647093.17543  24334833.313                    24334836.898
        38.000          21.300
 120653721.606 7  94015919.49045  22959640.805                    22959646.016
        44.500          31.700
 16  9 14  0 10 30.0000000  0 10G15G30G28G21G13G20G17G24G18G05
 110010862.189 8  85722783.28646  20934366.531                    20934370.633
        50.000          41.300
 122471321.704 7  95432272.90344  23305512.859                    23305519.117
        42.600          29.100
 112936999.816 8  88002798.17846  21491169.672                    21491172.902
        49.500          37.800
 134188219.716 6 104562286.38242  25535178.125                    25535180.449
        37.000          17.400
 105721099.827 8  82380163.34746  20118057.648                    20118060.875
        49.100          41.900
 112419779.257 8  87599860.04346  21392771.430                    21392775.480
        49.100          36.400
 132685546.323 6 103391367.53943  25249224.438                    25249229.504
        40.000          21.100
 121972271.852 7  95043396.04845  23210559.141                    23210565.570
        44.100          31.600
 127801816.870 6  99585869.27543  24319881.469                    24319884.441
        39.700          22.000
 120755605.132 7  94095309.23045  22979029.164                    22979033.477
        44.900          31.300
 16  9 14  0 11  0.0000000  0 10G15G30G28G21G13G20G17G24G18G05
 109961011.547 8  85683938.63346  20924880.375                    20924884.547
        49.000          41.300
 122564034.574 7  95504516.67545  23323156.078                    23323161.809
        43.900          30.200
 112963480.525 8  88023432.51746  21496208.797                    21496212.094
        49.100          37.100
 134230538.552 6 104595262.03342  25543230.633                    25543233.625
        37.300          17.800
 105725892.776 8  82383898.10147  20118969.570                    20118972.145
        49.600          42.200
 112441954.847 8  87617139.72746  21396992.078                    21396995.281
        49.100          37.100
 132597721.062 6 103322932.32343  25232512.148                    25232516.645
        39.900          22.200
 121880552.422 7  94971926.37445  23193105.422                    23193111.676
        43.000          31.800
 127723550.205 6  99524882.24643  24304988.203                    24304990.965
        40.600          22.300
 120857716.529 7  94174876.53545  22998460.102                    22998464.922
        44.100          31.500
 16  9 14  0 11 30.0000000  0 10G15G30G28G21G13G20G17G24G18G05
 109911548.518 8  85645396.01946  20915467.719                    20915472.344
        49.000          40.800
 122656857.813 7  95576846.44445  23340819.672                    23340824.879
        43.400          30.300
 112990475.163 8  88044467.30846  21501345.328                    21501349.148
        49.000          36.700
 134273180.382 6 104628489.45242  25551344.602                    25551347.320
        37.200          16.900
 105731129.755 8  82387978.85447  20119965.930                    20119968.930
        49.100          42.000
 112464724.399 8  87634882.21646  21401324.898                    21401327.965
        49.900          36.200
 132509951.253 6 103254540.25843  25215809.992                    25215812.430
        39.600          20.400
 121789016.396 7  94900599.62445  23175686.719                    23175693.141
        44.300          31.700
 127645589.797 6  99464133.88643  24290152.711                    24290155.004
        40.800          22.800
 120960052.969 7  94254619.20445  23017934.438                    23017938.359
        44.100          31.600
 16  9 14  0 12  0.0000000  0 10G15G30G28G21G13G20G17G24G18G05
 109862475.239 8  85607157.09646  20906129.070                    20906133.492
        48.600          41.000
 122749790.534 7  95649261.53845  23358504.070                    23358510.000
        43.900          30.000
 113017982.821 8  88065901.85846  21506579.641                    21506583.535
        48.600          36.300
 134316143.518 6 104661967.15443  25559521.289                    25559523.781
        39.200          18.300
 105736811.925 8  82392406.50946  20121047.016                    20121050.434
        49.500          41.800
 112488087.931 8  87653087.54846  21405770.398                    21405773.758
        49.400          36.000
 132422240.205 6 103186193.97743  25199119.141                    25199121.730
        39.700          20.600
 121697664.796 7  94829416.58145  23158302.891                    23158309.273
        43.500          32.500
 127567937.975 6  99403625.97244  24275375.977                    24275378.496
        41.700          24.700
 121062611.960 7  94334535.30545  23037450.961                    23037454.199
        44.800          31.000
 16  9 14  0 12 30.0000000  0 10G15G30G28G21G13G20G17G24G18G05
 109813792.825 8  85569222.74246  20896865.602                    20896869.895
        49.300          41.300
 122842831.046 7  95721760.58144  23376209.367                    23376215.125
        43.700          28.900
 113046001.372 8  88087734.51046  21511911.938                    21511915.063
        48.100          36.100
 134359425.281 6 104695693.18442  25567756.852                    25567761.371
        38.600          17.800
 105742939.399 8  82397181.16447  20122213.156                    20122216.469
        49.500          42.100
 112512043.574 7  87671754.26945  21410329.063                    21410332.039
        47.800          35.700
 132334590.123 6 103117895.24343  25182438.758                    25182442.551
        38.900          20.600
 121606498.736 7  94758378.10745  23140954.117                    23140961.367
        43.700          31.600
 127490596.739 7  99343360.05744  24260658.758                    24260661.594
        42.900          24.600
 121165390.799 7  94414622.70445  23057008.961                    23057012.738
        45.900          31.200
 16  9 14  0 13  0.0000000  0 10G15G30G28G21G13G20G17G24G18G05
 109765502.861 8  85531594.19546  20887676.063                    20887680.512
        48.000          41.200
 122935978.232 7  95794342.78744  23393934.813                    23393940.512
        44.200          29.400
 113074530.076 7  88109964.67146  21517340.617                    21517343.863
        47.000          36.300
 134403024.202 6 104729666.30643  25576053.484                    25576057.871
        36.300          19.000
 105749512.990 8  82402303.43346  20123464.227                    20123467.223
        50.000          41.800
 112536590.860 7  87690882.00945  21415000.336                    21415003.504
        47.100          35.500
 132247004.458 6 103049646.70343  25165771.914                    25165776.492
        39.200          19.600
 121515519.039 7  94687484.85245  23123641.516                    23123648.953
        43.300          32.300
 127413568.361 7  99283337.94744  24246000.813                    24246003.570
        42.900          24.800
 121268386.646 7  94494879.20845  23076608.258                    23076612.242
        44.900          30.700
 16  9 14  0 13 30.0000000  0 10G15G30G28G21G13G20G17G24G18G05
 109717606.991 8  85494272.73546  20878561.719                    20878566.336
        48.800          41.400
 123029230.794 7  95867007.07044  23411680.289                    23411686.324
        43.400          28.500
 113103567.561 8  88132591.28346  21522866.328                    21522869.617
        48.500          36.400
 134446938.165 6 104763884.99443  25584408.953                    25584414.773
        37.500          18.300
 105756533.238 8  82407773.75747  20124800.195                    20124803.227
        50.000          42.200
 112561728.634 7  87710469.86745  21419783.383                    21419786.781
        47.300          35.700
 132159485.876 6 102981450.41043  25149116.570                    25149122.547
        38.400          20.900
 121424726.476 7  94616737.41345  23106364.203                    23106371.441
        43.400          32.100
 127336854.925 7  99223561.25943  24231401.883                    24231405.242
        43.000          23.600
 121371597.015 7  94575302.85345  23096248.789                    23096253.219
        44.900          30.800
 16  9 14  0 14  0.0000000  0 10G15G30G28G21G13G20G17G24G18G05
 109670107.131 8  85457259.85546  20869522.727                    20869527.168
        49.500          41.100
 123122587.563 7  95939752.56644  23429445.344                    23429450.973
        43.800          28.500
 113133112.890 8  88155613.62946  21528488.531                    21528492.199
        48.000          36.800
 134491165.079 6 104798347.52542  25592824.898                    25592830.754
        36.100          15.600
 105764000.666 8  82413592.52847  20126221.359                    20126224.484
        49.900          42.700
 112587456.142 7  87730517.27045  21424678.891                    21424682.859
        47.800          35.600
 132072037.460 6 102913308.79643  25132477.250                    25132482.434
        39.700          20.600
 121334122.169 7  94546136.67945  23089123.695                    23089129.910
        44.400          32.200
 127260458.647 6  99164031.70343  24216864.039                    24216867.496
        41.900          23.200
 121475018.958 7  94655891.36445  23115928.922                    23115934.242
        44.300          30.800
 16  9 14  0 14 30.0000000  0 10G15G30G28G21G13G20G17G24G18G05
 109623004.297 8  85420556.33546  20860559.844                    20860563.941
        49.500          41.100
 123216046.999 7  96012578.08644  23447229.789                    23447236.023
        42.800          28.900
 113163164.214 8  88179030.24846  21534207.117                    21534210.703
        48.400          36.600
 134535702.910 5 104833052.29842  25601300.828                    25601306.977
        35.300          16.900
 105771915.142 8  82419759.64946  20127726.953                    20127730.320
        50.000          41.800
 112613772.108 7  87751023.20745  21429686.656                    21429691.129
        46.900          35.400
 131984661.804 6 102845223.89443  25115850.383                    25115855.109
        40.400          22.500
 121243706.986 7  94475683.30045  23071917.945                    23071924.145
        44.100          33.600
 127184381.370 7  99104750.71743  24202387.922                    24202390.742
        43.100          23.800
 121578649.648 7  94736642.52045  23135648.813                    23135654.063
        43.400          30.000
 16  9 14  0 15  0.0000000  0 10G15G30G28G21G13G20G17G24G18G05
 109576300.228 8  85384163.54646  20851671.898                    20851676.516
        49.600          40.800
 123309607.923 7  96085482.65844  23465034.008                    23465040.660
        44.700          28.900
 113193720.446 7  88202840.29446  21540021.867                    21540025.648
        47.700          36.400
 134580549.500 6 104867997.66043  25609835.742                    25609840.086
        38.100          19.000
 105780277.536 8  82426275.79147  20129318.484                    20129321.695
        49.500          42.100
 112640675.750 7  87771987.07745  21434806.914                    21434810.770
        47.700          35.900
 131897361.863 6 102777197.98743  25099236.484                    25099244.055
        38.800          22.200
 121153481.576 7  94405377.81345  23054748.117                    23054754.895
        44.700          33.600
 127108625.544 7  99045720.18643  24187971.438                    24187974.309
        42.300          22.900
 121682486.462 7  94817554.29344  23155408.406                    23155413.316
        44.000          29.400
 16  9 14  0 15 30.0000000  0 10G15G30G28G21G13G20G17G24G18G05
 109529996.497 8  85348082.71246  20842861.047                    20842865.102
        49.800          41.000
 123403269.119 7  96158465.37645  23482857.273                    23482863.492
        43.500          30.100
 113224780.396 7  88227042.85546  21545932.164                    21545936.066
        46.700          36.300
 134625702.822 6 104903182.04642  25618427.500                    25618432.590
        37.100          15.600
 105789088.590 8  82433141.54047  20130995.008                    20130998.375
        49.900          42.000
 112668165.389 8  87793407.55546  21440037.922                    21440042.305
        48.000          36.100
 131810140.850 6 102709233.56443  25082639.852                    25082646.094
        40.200          21.800
 121063447.110 7  94335221.11445  23037615.438                    23037621.988
        45.100          34.600
 127033193.174 7  98986941.68543  24173617.172                    24173620.035
        42.900          22.600
 121786527.084 7  94898624.86844  23175207.086                    23175211.480
        45.200          29.700
 16  9 14  0 16  0.0000000  0  9G15G30G28G13G20G17G24G18G05
 109484094.385 8  85312314.82546  20834126.117                    20834130.492
        50.000          41.200
 123497029.264 7  96231525.18244  23500699.297                    23500706.246
        43.500          29.800
 113256342.415 7  88251636.64146  21551938.500                    21551941.949
        47.600          37.300
 105798348.329 8  82440356.92447  20132757.547                    20132760.484
        50.000          42.300
 112696240.088 7  87815283.91146  21445380.547                    21445384.234
        47.500          36.400
 131723001.568 6 102641332.86843  25066057.758                    25066064.039
        39.600          23.500
 120973603.970 7  94265213.47745  23020518.859                    23020525.160
        44.200          33.800
 126958086.791 7  98928417.25943  24159325.703                    24159327.375
        43.000          22.500
 121890768.301 7  94979851.77845  23195043.797                    23195047.695
        45.200          30.700
 16  9 14  0 16 30.0000000  0  9G15G30G28G13G20G17G24G18G05
 109438595.621 8  85276861.24046  20825467.648                    20825471.941
        50.100          41.700
 123590887.068 7  96304661.09544  23518559.625                    23518566.402
        43.100          28.500
 113288405.461 8  88276620.82846  21558039.867                    21558043.719
        48.000          37.100
 105808057.475 8  82447922.48447  20134604.539                    20134608.191
        49.700          42.400
 112724898.737 7  87837615.30946  21450834.625                    21450837.832
        47.300          36.400
 131635946.992 6 102573498.13543  25049491.727                    25049496.387
        39.600          21.500
 120883953.275 7  94195355.80745  23003458.750                    23003465.414
        43.100          32.900
 126883307.903 7  98870148.00243  24145094.820                    24145097.875
        42.600          23.300
 121995207.807 7  95061233.20945  23214917.570                    23214922.121
        44.600          30.700
 16  9 14  0 17  0.0000000  0  9G15G30G28G13G20G17G24G18G05
 109393501.787 8  85241723.19447  20816886.773                    20816890.746
        50.900          42.600
 123684841.458 7  96377872.27944  23536438.195                    23536445.047
        42.600          29.300
 113320968.214 7  88301994.41046  21564236.602                    21564239.918
        46.800          37.100
 105818216.642 8  82455838.71947  20136538.008                    20136541.266
        49.500          42.100
 112754140.257 7  87860400.90045  21456398.094                    21456402.266
        45.500          35.900
 131548980.060 6 102505731.68343  25032941.734                    25032947.004
        39.600          21.800
 120794496.142 7  94125648.96745  22986435.375                    22986442.242
        43.600          33.100
 126808859.079 7  98812135.92343  24130928.469                    24130930.730
        43.600          22.500
 122099842.659 7  95142766.84145  23234829.180                    23234833.824
        44.100          30.200
 16  9 14  0 17 30.0000000  0  9G15G30G28G13G20G17G24G18G05
 109348814.262 8  85206901.74447  20808383.227                    20808387.230
        51.200          42.100
 123778890.978 7  96451157.59944  23554335.648                    23554342.223
        43.500          29.700
 113354028.759 8  88327755.87746  21570527.469                    21570531.184
        48.400          37.100
 105828825.948 8  82464105.69646  20138556.961                    20138560.355
        49.900          41.400
 112783963.308 7  87883639.61545  21462073.977                    21462077.227
        47.600          35.900
 131462103.252 6 102438035.48543  25016409.891                    25016415.281
        40.200          22.600
 120705233.318 7  94056093.51645  22969449.414                    22969455.715
        43.500          32.500
 126734742.461 7  98754382.70943  24116823.711                    24116827.188
        42.400          22.900
 122204669.878 7  95224450.35544  23254776.961                    23254781.492
        44.100          29.400
 16  9 14  0 18  0.0000000  0  9G15G30G28G13G20G17G24G18G05
 109304534.735 8  85172398.21347  20799957.000                    20799960.941
        51.200          42.300
 123873034.537 7  96524516.19744  23572250.453                    23572256.824
        43.600          28.800
 113387586.271 8  88353904.59546  21576913.164                    21576916.496
        48.300          36.800
 105839886.034 8  82472723.94046  20140661.164                    20140664.742
        49.400          41.500
 112814366.921 7  87907330.73645  21467858.836                    21467863.391
        47.600          35.400
 131375319.568 6 102370411.83643  24999895.125                    24999900.777
        38.300          22.200
 120616165.966 7  93986690.39745  22952499.586                    22952507.008
        42.700          31.500
 126660960.053 7  98696889.95043  24102783.055                    24102786.227
        43.000          22.800
 122309687.105 7  95306281.95545  23274761.602                    23274765.828
        45.100          30.200
 16  9 14  0 18 30.0000000  0  9G15G30G28G13G20G17G24G18G05
 109260664.229 8  85138213.41146  20791608.781                    20791612.684
        51.300          41.800
 123967270.566 7  96597946.81644  23590182.891                    23590189.770
        42.400          28.300
 113421638.634 8  88380438.91146  21583393.391                    21583396.738
        49.700          36.900
 105851396.842 8  82481693.38346  20142851.633                    20142855.574
        49.400          41.600
 112845349.360 7  87931472.87846  21473755.172                    21473759.027
        47.800          36.800
 131288632.514 6 102302863.48943  24983398.688                    24983405.090
        39.800          22.500
 120527294.378 7  93917439.80845  22935588.031                    22935595.176
        43.400          31.400
 126587513.653 7  98639658.98844  24088807.195                    24088809.672
        43.700          24.700
 122414891.498 7  95388259.38844  23294781.625                    23294785.605
        44.000          29.900
 16  9 14  0 19  0.0000000  0  9G15G30G28G13G20G17G24G18G05
 109217204.958 8  85104349.04447  20783338.703                    20783342.414
        51.000          42.800
 124061598.215 7  96671448.86044  23608133.250                    23608139.434
        42.000          28.200
 113456185.021 8  88407358.19246  21589967.867                    21589971.305
        49.300          37.000
 105863359.481 8  82491014.91046  20145128.086                    20145131.336
        49.300          41.800
 112876909.768 8  87956065.39346  21479760.844                    21479764.809
        48.200          36.300
 131202045.017 6 102235392.72844  24966922.313                    24966928.176
        39.200          24.300
 120438620.048 7  93848342.94645  22918714.602                    22918720.391
        43.200          31.400
 126514405.889 7  98582691.89243  24074895.977                    24074897.645
        44.300          22.900
 122520280.207 7  95470380.43944  23314835.258                    23314840.328
        42.900          29.800
 16  9 14  0 19 30.0000000  0  9G15G30G28G13G20G17G24G18G05
 109174157.972 8  85070805.93547  20775147.414                    20775151.293
        51.700          42.300
 124156016.078 6  96745021.18944  23626100.000                    23626106.313
        40.400          26.400
 113491223.549 8  88434660.94446  21596634.898                    21596638.664
        49.000          36.200
 105875773.878 8  82500688.46747  20147490.695                    20147494.168
        49.900          42.100
 112909046.464 8  87981106.96646  21485876.367                    21485880.414
        48.100          36.700
 131115559.605 6 102168001.50343  24950464.406                    24950470.688
        40.200          22.800
 120350143.384 7  93779400.08145  22901878.008                    22901883.645
        42.800          31.500
 126441638.843 7  98525990.30143  24061049.031                    24061050.570
        44.600          22.800
 122625850.528 7  95552643.00844  23334924.922                    23334929.449
        42.600          29.700
 16  9 14  0 20  0.0000000  0  9G15G30G28G13G20G17G24G18G05
 109131524.519 8  85037585.06847  20767034.070                    20767038.313
        51.300          42.200
 124250522.652 6  96818662.64844  23644084.492                    23644091.109
        41.100          26.400
 113526752.552 8  88462345.89146  21603395.555                    21603398.867
        48.900          36.900
 105888639.739 8  82510713.81347  20149939.391                    20149942.324
        49.800          42.000
 112941758.326 7  88006596.71046  21492101.563                    21492105.293
        46.900          36.600
 131029179.008 6 102100691.97343  24934027.398                    24934033.145
        40.800          23.900
 120261865.112 7  93710611.85945  22885079.250                    22885085.488
        43.700          31.900
 126369213.994 7  98469555.34243  24047266.547                    24047268.844
        44.300          23.000
 122731599.720 6  95635044.95844  23355048.289                    23355053.066
        41.600          29.800
 16  9 14  0 20 30.0000000  0  9G15G30G28G13G20G17G24G18G05
 109089306.689 8  85004688.05347  20759000.633                    20759004.809
        51.100          42.500
 124345117.246 6  96892372.68044  23662084.781                    23662091.004
        41.400          24.900
 113562771.266 7  88490412.42646  21610249.563                    21610253.242
        47.600          36.100
 105901958.648 8  82521092.17347  20152473.695                    20152477.152
        48.400          42.100
 112975044.284 7  88032533.80646  21498435.703                    21498438.672
        46.200          36.300
 130942906.077 6 102033466.31944  24917610.656                    24917615.734
        41.200          24.200
 120173786.817 7  93641979.45545  22868318.477                    22868325.035
        44.100          31.700
 126297133.646 7  98413388.83943  24033550.844                    24033552.309
        43.600          21.800
 122837525.508 7  95717584.50544  23375205.867                    23375210.160
        42.300          29.800
 16  9 14  0 21  0.0000000  0  9G15G30G28G13G20G17G24G18G05
 109047505.625 8  84972115.79447  20751046.164                    20751050.426
        51.100          43.000
 124439798.592 6  96966150.33344  23680101.563                    23680108.711
        41.300          25.700
 113599278.188 8  88518859.38546  21617196.953                    21617200.250
        48.800          36.500
 105915731.021 8  82531823.89147  20155094.508                    20155097.695
        48.400          42.000
 113008902.671 7  88058916.96746  21504878.234                    21504882.234
        47.500          36.000
 130856744.703 7 101966327.57344  24901214.422                    24901219.492
        42.000          24.700
 120085909.180 7  93573503.39945  22851595.875                    22851602.680
        43.600          33.000
 126225400.129 7  98357492.60743  24019899.445                    24019901.547
        43.500          22.900
 122943624.828 7  95800259.28645  23395396.055                    23395400.457
        42.600          30.200
 16  9 14  0 21 30.0000000  0  9G15G30G28G13G20G17G24G18G05
 109006122.936 8  84939869.54647  20743171.047                    20743174.961
        51.300          43.000
 124534565.354 6  97039994.51644  23698135.391                    23698141.977
        41.700          27.300
 113636271.435 7  88547685.30045  21624236.570                    21624239.809
        46.300          35.700
 105929956.476 8  82542908.65146  20157801.016                    20157804.523
        49.100          41.500
 113043332.133 7  88085745.10445  21511430.023                    21511433.832
        45.200          35.400
 130770697.403 6 101899277.76944  24884839.797                    24884844.676
        40.400          25.600
 119998232.243 7  93505183.73345  22834911.219                    22834918.383
        42.500          33.600
 126154015.341 7  98301868.09343  24006315.719                    24006317.680
        43.400          21.800
 123049895.063 7  95883067.23444  23415618.289                    23415622.734
        42.700          29.400
 16  9 14  0 22  0.0000000  0  9G15G30G28G13G20G17G24G18G05
 108965160.120 8  84907950.47747  20735376.273                    20735380.000
        51.000          42.200
 124629416.144 7  97113904.19744  23716185.086                    23716190.949
        42.300          25.200
 113673749.259 8  88576888.80945  21631368.250                    21631371.355
        48.300          35.200
 105944635.432 8  82554346.79146  20160594.719                    20160597.926
        49.300          41.600
 113078331.319 7  88113017.18445  21518090.547                    21518093.176
        47.500          35.100
 130684766.792 7 101832318.86244  24868487.633                    24868491.941
        42.600          24.300
 119910757.660 7  93437021.72645  22818264.836                    22818272.652
        43.100          32.300
 126082981.383 7  98246516.97743  23992798.023                    23992800.699
        43.200          22.500
 123156333.089 7  95966005.93244  23435872.672                    23435877.129
        42.100          29.600
 16  9 14  0 22 30.0000000  0  9G15G30G28G13G20G17G24G18G05
 108924617.838 8  84876359.08647  20727661.320                    20727665.012
        51.000          42.600
 124724349.761 7  97187878.41944  23734250.813                    23734257.320
        42.800          27.800
 113711710.183 8  88606468.75545  21638592.258                    21638595.168
        49.200          35.300
 105959768.074 8  82566138.45146  20163474.305                    20163477.770
        49.200          41.600
 113113898.518 7  88140731.86745  21524858.672                    21524861.363
        46.700          34.900
 130598955.756 6 101765453.16544  24852158.977                    24852162.684
        41.600          24.700
 119823485.961 7  93369017.83945  22801658.414                    22801665.133
        42.800          32.300
 126012300.349 7  98191440.84343  23979348.016                    23979350.645
        43.600          22.500
 123262936.357 7  96049073.39444  23456158.977                    23456162.734
        42.900          28.300
 16  9 14  0 23  0.0000000  0  9G15G30G28G13G20G17G24G18G05
 108884498.572 8  84845097.31046  20720026.766                    20720030.754
        50.700          41.800
 124819365.284 7  97261916.43144  23752331.766                    23752338.176
        42.500          28.200
 113750152.750 8  88636424.00846  21645907.484                    21645910.945
        49.100          36.100
 105975355.260 8  82578284.29646  20166440.570                    20166443.578
        49.200          41.800
 113150032.446 7  88168888.16145  21531734.453                    21531738.152
        47.500          34.900
 130513267.554 6 101698683.13343  24835851.852                    24835856.629
        41.100          22.600
 119736418.159 7  93301172.82345  22785089.219                    22785096.414
        43.000          31.700
 125941974.573 7  98136641.53843  23965965.141                    23965968.617
        42.500          23.200
 123369702.584 7  96132267.84244  23476474.898                    23476480.230
        42.900          27.800
 16  9 14  0 23 30.0000000  0  9G15G30G28G13G20G17G24G18G05
 108844803.358 8  84814165.97947  20712473.352                    20712476.574
        50.800          42.500
 124914461.351 7  97336017.23644  23770428.039                    23770433.730
        43.100          27.900
 113789075.457 8  88666753.38946  21653314.195                    21653317.621
        48.700          36.300
 105991396.412 8  82590783.88946  20169493.273                    20169496.516
        49.600          41.500
 113186731.828 7  88197485.06445  21538717.742                    21538721.195
        46.600          34.500
 130427704.936 7 101632010.97944  24819571.102                    24819574.945
        43.500          24.600
 119649555.054 7  93233487.31245  22768559.375                    22768567.355
        42.500          31.400
 125872005.380 7  98082120.08343  23952650.500                    23952653.832
        42.900          22.600
 123476628.405 6  96215586.64344  23496822.156                    23496827.129
        41.700          28.600
 16  9 14  0 24  0.0000000  0  9G15G30G28G13G20G17G24G18G05
 108805533.402 8  84783566.00747  20705000.289                    20705004.078
        50.500          42.500
 125009636.892 7  97410179.95744  23788539.992                    23788545.355
        43.000          28.100
 113828476.729 8  88697455.68046  21660811.773                    21660815.434
        48.800          36.500
 106007892.758 8  82603638.17146  20172631.977                    20172635.625
        48.800          40.800
 113223995.006 7  88226521.28545  21545809.156                    21545812.590
        47.300          35.000
 130342271.010 7 101565439.11244  24803313.969                    24803317.801
        43.700          25.100
 119562897.451 7  93165961.91645  22752069.531                    22752076.902
        43.200          31.400
 125802395.295 7  98027878.45943  23939404.133                    23939407.496
        43.300          23.000
 123583711.503 7  96299028.00544  23517200.117                    23517204.871
        43.900          28.700
 16  9 14  0 24 30.0000000  0  9G15G30G28G13G20G17G24G18G05
 108766690.643 8  84753298.92347  20697608.445                    20697612.441
        50.200          42.300
 125104890.823 7  97484403.75844  23806665.234                    23806672.250
        42.600          27.800
 113868355.035 7  88728529.68546  21668400.539                    21668403.816
        47.300          37.000
 106024844.420 8  82616847.25346  20175858.023                    20175861.352
        49.200          41.700
 113261820.406 7  88255995.60245  21553006.992                    21553010.512
        44.800          35.200
 130256968.675 7 101498969.76643  24787080.117                    24787085.840
        42.600          23.600
 119476446.174 7  93098597.30845  22735618.320                    22735625.285
        44.100          30.500
 125733146.675 7  97973918.47744  23926226.938                    23926229.383
        43.200          24.700
 123690949.070 7  96382589.71744  23537606.445                    23537611.488
        43.300          29.400
 16  9 14  0 25  0.0000000  0  9G15G30G28G13G20G17G24G18G05
 108728276.189 8  84723365.58546  20690298.227                    20690302.227
        50.700          41.100
 125200221.945 7  97558687.71144  23824805.844                    23824813.160
        43.400          26.500
 113908708.696 8  88759974.09045  21676079.602                    21676083.328
        49.100          35.500
 106042251.609 8  82630411.29346  20179170.203                    20179173.965
        49.000          40.200
 113300206.552 7  88285906.86345  21560311.891                    21560315.719
        47.200          33.900
 130171801.133 7 101432605.48444  24770873.398                    24770879.281
        43.000          24.700
 119390202.030 7  93031394.10344  22719207.438                    22719213.027
        42.900          28.900
 125664261.106 7  97920241.40743  23913118.133                    23913121.086
        42.500          22.600
 123798338.501 7  96466269.77344  23558042.609                    23558047.234
        43.400          26.000
 16  9 14  0 25 30.0000000  0  9G15G30G28G13G20G17G24G18G05
 108690291.483 8  84693767.10946  20683070.367                    20683073.660
        51.000          41.100
 125295628.957 7  97633030.79944  23842961.734                    23842967.652
        43.600          25.100
 113949536.017 8  88791787.58846  21683848.680                    21683852.547
        49.600          36.000
 106060114.279 8  82644330.25546  20182569.555                    20182573.148
        49.400          40.700
 113339151.714 7  88316253.73445  21567721.953                    21567726.391
        45.900          34.100
 130086770.866 7 101366348.14843  24754692.953                    24754698.230
        43.200          23.900
 119304166.052 7  92964353.11644  22702834.086                    22702840.949
        43.800          29.100
 125595740.553 7  97866848.76243  23900079.094                    23900082.582
        42.000          22.300
 123905876.771 7  96550065.80144  23578506.000                    23578510.000
        44.100          26.200
 16  9 14  0 26  0.0000000  0  9G15G30G28G13G20G17G24G18G05
 108652738.105 8  84664504.73946  20675924.328                    20675927.934
        50.700          41.100
 125391110.864 7  97707432.24244  23861132.031                    23861138.313
        44.000          26.800
 113990835.632 8  88823969.10846  21691707.711                    21691711.414
        49.100          36.100
 106078433.350 8  82658604.84746  20186055.234                    20186058.563
        48.900          40.900
 113378654.639 7  88347035.22945  21575239.125                    21575244.109
        46.000          33.500
 130001881.248 7 101300200.41344  24738538.633                    24738543.375
        43.200          24.600
 119218339.269 7  92897475.11344  22686502.250                    22686508.059
        44.000          28.000
 125527587.405 6  97813742.42743  23887109.984                    23887113.422
        41.800          22.600
 124013561.382 7  96633975.88844  23598998.172                    23599001.551
        44.400          25.400
 16  9 14  0 26 30.0000000  0  9G15G30G28G13G20G17G24G18G05
 108615617.188 8  84635579.34846  20668860.555                    20668864.000
        50.700          41.300
 125486666.442 7  97781891.07644  23879315.148                    23879321.535
        43.100          26.300
 114032605.509 8  88856517.07446  21699656.367                    21699660.094
        48.300          36.700
 106097208.432 8  82673234.76646  20189628.422                    20189631.941
        48.800          40.800
 113418713.605 7  88378250.00545  21582861.961                    21582866.152
        45.000          33.100
 129917134.980 7 101234164.39344  24722411.820                    24722417.422
        42.800          24.800
 119132721.818 7  92830760.24145  22670209.961                    22670216.816
        44.000          30.500
 125459803.313 7  97760923.64444  23874211.305                    23874214.305
        42.400          25.600
 124121389.718 7  96717997.93744  23619517.305                    23619520.809
        44.700          26.500
 16  9 14  0 27  0.0000000  0  9G15G30G28G13G20G17G24G18G05
 108578930.244 8  84606992.11947  20661879.227                    20661882.910
        50.900          42.000
 125582294.471 7  97856406.41144  23897512.188                    23897518.953
        42.300          25.200
 114074844.009 8  88889430.17946  21707694.133                    21707698.059
        48.900          36.400
 106116439.905 8  82688220.32746  20193287.758                    20193291.504
        49.100          40.500
 113459326.911 7  88409896.72145  21590591.586                    21590594.551
        46.300          33.900
 129832535.025 6 101168242.35644  24706312.375                    24706317.879
        41.000          24.200
 119047315.270 7  92764209.71444  22653957.750                    22653963.906
        44.500          29.500
 125392390.483 7  97708394.16743  23861382.750                    23861385.906
        42.500          23.300
 124229358.432 7  96802129.39144  23640063.344                    23640066.750
        43.200          27.400
 16  9 14  0 27 30.0000000  0  9G15G30G28G13G20G17G24G18G05
 108542678.641 8  84578744.12147  20654980.883                    20654984.566
        49.800          42.100
 125677993.847 6  97930977.30244  23915722.188                    23915730.320
        40.900          24.400
 114117549.192 8  88922706.95446  21715820.883                    21715824.113
        49.800          36.400
 106136127.938 8  82703561.64346  20197034.547                    20197038.230
        48.300          41.000
 113500492.546 7  88441973.82245  21598425.000                    21598428.508
        47.300          34.000
 129748084.263 7 101102436.57344  24690242.320                    24690247.313
        42.300          25.100
 118962120.137 7  92697823.90445  22637745.438                    22637752.082
        44.900          30.500
 125325350.879 6  97656155.51043  23848625.531                    23848629.285
        41.300          22.600
 124337465.500 6  96886368.64644  23660634.156                    23660639.328
        41.300          27.300
 16  9 14  0 28  0.0000000  0  9G15G30G28G13G20G17G24G18G05
 108506863.887 8  84550836.52746  20648165.289                    20648169.137
        51.000          41.500
 125773763.600 6  98005603.04344  23933947.586                    23933953.977
        41.400          25.400
 114160720.129 8  88956346.65446  21724035.914                    21724039.121
        50.200          36.300
 106156272.973 8  82719259.07046  20200868.492                    20200871.480
        49.800          41.100
 113542209.522 8  88474480.52745  21606363.781                    21606366.715
        48.800          34.600
 129663785.476 7 101036749.24044  24674201.453                    24674205.457
        43.100          24.800
 118877137.440 7  92631603.65345  22621574.211                    22621580.086
        44.800          30.800
 125258686.345 7  97604209.11444  23835939.289                    23835943.578
        43.200          24.700
 124445708.300 6  96970713.65944  23681232.078                    23681237.551
        40.900          25.900
 16  9 14  0 28 30.0000000  0  9G15G30G28G13G20G17G24G18G05
 108471487.035 8  84523270.15147  20641433.461                    20641437.535
        49.800          42.300
 125869602.486 6  98080282.64744  23952184.672                    23952191.398
        41.100          24.600
 114204354.821 8  88990347.71346  21732339.094                    21732342.043
        49.900          36.300
 106176875.207 8  82735312.75746  20204788.320                    20204791.965
        49.000          40.900
 113584475.858 8  88507415.31345  21614406.789                    21614410.297
        49.000          34.200
 129579642.334 7 100971183.13944  24658189.352                    24658194.008
        42.800          26.000
 118792367.745 7  92565549.35445  22605442.664                    22605449.121
        45.200          31.600
 125192398.859 7  97552556.53044  23823325.844                    23823330.285
        42.800          26.400
 124554083.944 7  97055162.18144  23701855.844                    23701860.523
        42.800          26.300
 16  9 14  0 29  0.0000000  0  9G15G30G28G13G20G17G24G18G05
 108436549.827 8  84496046.34546  20634785.039                    20634788.824
        50.700          41.800
 125965509.602 7  98155015.43243  23970436.086                    23970441.816
        42.500          23.900
 114248451.805 8  89024708.99546  21740730.750                    21740733.770
        48.300          36.300
 106197934.891 8  82751722.88446  20208796.063                    20208799.660
        49.100          40.800
 113627289.605 7  88540776.66845  21622553.734                    21622557.426
        46.300          34.800
 129495657.208 7 100905740.20644  24642207.477                    24642212.352
        42.100          25.300
 118707812.189 7  92499661.92045  22589352.023                    22589359.328
        45.000          31.400
 125126490.679 7  97501199.50244  23810784.266                    23810788.309
        43.800          25.300
 124662589.293 6  97139711.78144  23722504.016                    23722508.418
        41.600          26.000
 16  9 14  0 29 30.0000000  0  9G15G30G28G13G20G17G24G18G05
 108402053.450 8  84469166.05046  20628220.570                    20628224.250
        50.400          41.600
 126061483.558 6  98229800.28044  23988699.125                    23988705.527
        41.000          24.300
 114293008.955 8  89059428.87146  21749209.828                    21749212.590
        50.200          36.300
 106219451.953 8  82768489.42246  20212890.516                    20212894.391
        48.700          40.600
 113670649.220 8  88574563.36345  21630804.953                    21630808.859
        48.500          34.700
 129411833.271 6 100840422.87544  24626256.313                    24626261.082
        41.100          25.800
 118623471.317 7  92433941.78545  22573303.352                    22573309.898
        45.400          32.100
 125060963.427 7  97450139.29444  23798314.922                    23798318.148
        43.000          26.400
 124771221.842 7  97224360.49744  23743176.500                    23743180.125
        43.500          25.600
 16  9 14  0 30  0.0000000  0  9G15G30G28G13G20G17G24G18G05
 108367999.194 8  84442630.26446  20621740.336                    20621744.129
        51.000          41.800
 126157523.219 6  98304636.33143  24006974.023                    24006981.398
        41.400          23.600
 114338024.230 8  89094505.70745  21757776.141                    21757779.152
        49.800          35.700
 106241426.381 8  82785612.34346  20217072.133                    20217075.574
        49.800          40.700
 113714552.982 8  88608774.07945  21639159.344                    21639163.145
        48.100          34.800
 129328173.314 6 100775233.32243  24610336.094                    24610340.457
        40.900          23.200
 118539346.002 7  92368389.61045  22557294.000                    22557301.066
        45.000          32.100
 124995819.247 7  97399377.58144  23785917.977                    23785920.984
        43.600          24.600
 124879978.920 7  97309106.26944  23763871.469                    23763875.898
        43.500          28.100
 16  9 14  0 30 30.0000000  0  9G15G30G28G13G20G17G24G18G05
 108334388.540 8  84416440.14246  20615344.508                    20615348.324
        50.800          41.600
 126253627.646 6  98379522.84843  24025263.266                    24025269.563
        41.400          23.800
 114383496.580 8  89129938.72145  21766428.563                    21766431.977
        49.300          35.400
 106263858.759 8  82803092.11046  20221341.227                    20221344.668
        49.900          40.200
 113758999.149 8  88643407.45145  21647617.156                    21647620.906
        48.400          34.900
 129244680.490 7 100710174.00544  24594447.555                    24594452.520
        42.300          24.900
 118455437.112 7  92303006.09445  22541326.703                    22541333.574
        44.500          31.600
 124931060.056 7  97348915.87343  23773594.711                    23773597.828
        42.600          22.900
 124988857.927 7  97393947.06044  23784590.281                    23784594.820
        42.300          27.400
 16  9 14  0 31  0.0000000  0  9G15G30G28G13G20G17G24G18G05
 108301222.960 8  84390596.83246  20609033.617                    20609037.152
        50.000          41.400
 126349796.013 7  98454459.20844  24043563.953                    24043569.820
        42.900          24.000
 114429423.970 8  89165726.30045  21775168.203                    21775171.250
        49.300          35.100
 106286749.344 8  82820928.91946  20225696.945                    20225700.340
        49.100          40.200
 113803986.129 8  88678462.23345  21656178.250                    21656181.273
        49.100          34.400
 129161357.416 7 100645246.96444  24578592.500                    24578597.219
        42.200          26.000
 118371745.657 7  92237791.98745  22525401.055                    22525407.262
        45.300          31.500
 124866687.871 7  97298755.73044  23761345.617                    23761348.141
        42.600          26.800
 125097856.179 6  97478880.73144  23805332.523                    23805336.715
        41.900          27.500
 16  9 14  0 31 30.0000000  0  9G15G30G28G13G20G17G24G18G05
 108268503.466 8  84365101.12646  20602807.102                    20602810.645
        50.100          41.800
 126446026.932 7  98529444.29243  24061876.250                    24061881.383
        43.400          23.200
 114475804.553 8  89201867.01945  21783994.711                    21783997.449
        48.800          34.700
 106310097.930 8  82839122.61746  20230139.633                    20230143.613
        49.100          40.200
 113849512.014 8  88713936.91145  21664841.844                    21664844.215
        48.000          34.000
 129078206.936 6 100580454.38644  24562768.891                    24562773.977
        41.600          24.600
 118288272.631 7  92172748.10445  22509516.125                    22509522.746
        44.800          31.400
 124802704.197 7  97248898.33744  23749169.563                    23749172.645
        43.100          25.300
 125206971.030 6  97563905.28344  23826095.359                    23826101.160
        40.700          26.200
 16  9 14  0 32  0.0000000  0  9G15G30G28G13G20G17G24G18G05
 108236231.450 8  84339954.10246  20596665.914                    20596669.488
        49.800          41.600
 126542319.147 7  98604477.12444  24080199.773                    24080206.344
        42.400          24.500
 114522636.554 7  89238359.48645  21792905.875                    21792909.168
        47.500          34.100
 106333904.671 8  82857673.31646  20234670.109                    20234673.973
        49.300          40.400
 113895574.314 7  88749829.60445  21673606.883                    21673609.129
        47.900          34.200
 128995232.507 7 100515799.00544  24546979.234                    24546984.453
        42.200          25.800
 118205018.421 7  92107874.72245  22493673.633                    22493679.629
        45.500          31.300
 124739111.334 7  97199345.46044  23737068.258                    23737071.613
        42.500          25.500
 125316199.450 6  97649018.29844  23846881.711                    23846886.953
        41.100          25.400
 16  9 14  0 32 30.0000000  0  9G15G30G28G13G20G17G24G18G05
 108204408.328 8  84315156.86646  20590610.336                    20590613.848
        49.700          41.600
 126638671.826 7  98679557.08744  24098534.672                    24098541.840
        42.800          25.300
 114569918.371 7  89275202.46445  21801903.055                    21801906.832
        47.700          34.600
 106358169.900 8  82876581.27746  20239287.469                    20239291.223
        49.000          40.200
 113942171.824 8  88786139.32145  21682473.828                    21682477.023
        48.000          34.000
 128912436.768 6 100451282.91344  24531223.695                    24531229.477
        41.900          26.400
 118121984.040 7  92043172.62445  22477872.617                    22477879.375
        45.900          31.600
 124675911.252 7  97150098.62344  23725041.914                    23725045.363
        43.300          25.800
 125425538.942 6  97734217.86944  23867688.000                    23867693.063
        41.100          25.400
 16  9 14  0 33  0.0000000  0  9G15G30G28G13G20G17G24G18G05
 108173035.431 8  84290710.45746  20584639.938                    20584643.453
        49.400          41.600
 126735083.847 7  98754683.28044  24116881.484                    24116888.176
        42.800          24.700
 114617648.008 8  89312394.39445  21810985.961                    21810989.605
        48.500          33.800
 106382893.499 8  82895846.40646  20243992.289                    20243995.750
        49.100          40.100
 113989302.630 8  88822864.59345  21691442.359                    21691445.758
        48.100          32.400
 128829822.893 7 100386908.50544  24515503.320                    24515508.094
        42.700          25.900
 118039169.941 7  91978642.17645  22462113.805                    22462120.195
        45.900          32.900
 124613105.699 7  97101159.23344  23713090.688                    23713093.992
        42.800          25.600
 125534986.916 6  97819502.00744  23888514.977                    23888520.004
        41.100          26.800
 16  9 14  0 33 30.0000000  0  9G15G30G28G13G20G17G24G18G05
 108142113.771 8  84266615.65746  20578755.617                    20578759.371
        49.800          41.700
 126831554.100 7  98829854.86344  24135239.203                    24135246.254
        42.500          24.700
 114665823.588 8  89349933.80845  21820153.648                    21820156.887
        48.100          33.900
 106408075.618 8  82915468.81946  20248784.492                    20248787.781
        49.800          40.200
 114036964.609 8  88860003.79045  21700512.242                    21700516.000
        48.000          33.000
 128747393.646 7 100322677.93344  24499817.039                    24499822.930
        42.900          27.000
 117956577.628 7  91914284.54745  22446396.664                    22446403.602
        46.600          33.400
 124550696.750 7  97052528.90444  23701214.273                    23701217.492
        43.600          26.500
 125644540.160 7  97904868.16844  23909363.727                    23909367.098
        42.900          26.400
 16  9 14  0 34  0.0000000  0  9G15G30G28G13G20G17G24G18G05
 108111644.816 8  84242873.61346  20572957.391                    20572961.285
        50.000          41.600
 126928081.649 7  98905071.09844  24153607.977                    24153614.813
        42.700          25.000
 114714443.522 8  89387819.48245  21829406.070                    21829409.246
        48.200          33.300
 106433716.277 8  82935448.54146  20253664.234                    20253667.184
        49.300          40.500
 114085155.773 8  88897555.34045  21709683.195                    21709686.652
        48.600          33.800
 128665152.076 7 100258593.61644  24484167.258                    24484173.125
        42.500          24.500
 117874207.275 7  91850099.87945  22430722.195                    22430728.813
        45.900          32.900
 124488686.188 7  97004208.99144  23689414.445                    23689417.277
        42.100          25.000
 125754196.089 7  97990314.33844  23930230.172                    23930234.332
        42.800          26.200
 16  9 14  0 34 30.0000000  0  9G15G30G28G13G20G17G24G18G05
 108081629.833 8  84219485.31546  20567246.070                    20567249.391
        49.900          41.300
 127024665.378 7  98980331.09744  24171987.516                    24171994.078
        42.700          24.000
 114763505.830 8  89426049.85245  21838741.844                    21838745.355
        48.300          33.000
 106459815.737 8  82955785.76346  20258630.164                    20258633.602
        48.800          40.400
 114133874.603 8  88935518.05845  21718954.039                    21718957.160
        48.800          33.200
 128583100.663 7 100194657.45244  24468554.375                    24468559.652
        44.200          26.500
 117792060.151 7  91786089.14145  22415089.805                    22415096.953
        46.600          32.700
 124427075.787 7  96956200.89844  23677689.836                    23677692.449
        42.300          24.800
 125863952.762 7  98075838.99844  23951115.859                    23951120.602
        43.400          27.000
 16  9 14  0 35  0.0000000  0  9G15G30G28G13G20G17G24G18G05
 108052069.939 8  84196451.61547  20561621.125                    20561624.824
        49.800          43.200
 127121304.146 7  99055633.96344  24190377.289                    24190382.328
        42.600          25.200
 114813008.605 8  89464623.45445  21848161.914                    21848164.844
        49.100          33.900
 106486373.890 8  82976480.41446  20263684.188                    20263687.910
        49.000          41.300
 114183118.773 8  88973890.12845  21728324.836                    21728328.309
        48.900          35.000
 128501242.949 7 100130872.22244  24452976.469                    24452982.379
        44.100          25.900
 117710136.587 7  91722252.61845  22399500.508                    22399507.391
        46.400          34.800
 124365867.267 6  96908505.93743  23666042.516                    23666043.805
        41.200          22.500
 125973806.909 7  98161439.62644  23972021.195                    23972025.148
        43.300          28.500
 16  9 14  0 35 30.0000000  0  9G15G30G28G13G20G17G24G18G05
 108022966.742 8  84173773.79247  20556082.875                    20556087.117
        50.300          43.000
 127217997.225 7  99130979.19844  24208777.352                    24208783.254
        43.100          25.300
 114862950.219 8  89503539.00145  21857665.484                    21857668.070
        48.800          34.000
 106513391.160 8  82997532.82746  20268825.398                    20268828.953
        49.300          41.300
 114232886.680 8  89012670.29545  21737795.336                    21737798.574
        49.300          34.000
 128419581.823 7 100067240.20744  24437436.211                    24437441.820
        44.300          25.800
 117628437.947 7  91658591.37045  22383953.820                    22383960.500
        45.800          34.700
 124305062.992 6  96861125.99644  23654471.508                    23654473.277
        41.700          24.300
 126083755.652 7  98247113.95744  23992942.820                    23992948.262
        43.700          27.600
 16  9 14  0 36  0.0000000  0  9G15G30G28G13G20G17G24G18G05
 107994321.064 8  84151452.47947  20550631.758                    20550635.172
        49.600          42.900
 127314743.228 7  99206365.63144  24227186.945                    24227194.449
        42.100          26.000
 114913328.712 8  89542794.96445  21867252.578                    21867254.961
        48.900          34.400
 106540866.897 8  83018942.49546  20274053.938                    20274057.629
        48.700          40.900
 114283176.270 8  89051856.97245  21747365.117                    21747368.164
        49.400          34.200
 128338119.812 7 100003763.31544  24421935.664                    24421940.730
        44.900          27.200
 117546964.457 7  91595105.56245  22368450.477                    22368456.820
        47.500          34.900
 124244664.220 6  96814062.02143  23642977.414                    23642979.801
        40.900          22.900
 126193796.543 7  98332860.10144  24013882.523                    24013887.715
        42.500          24.800
 16  9 14  0 36 30.0000000  0  9G15G30G28G13G20G17G24G18G05
 107966134.502 8  84129488.92247  20545267.617                    20545271.676
        49.400          43.600
 127411541.268 7  99281792.60944  24245607.727                    24245613.539
        42.200          26.100
 114964142.205 8  89582389.90145  21876921.648                    21876924.266
        49.200          34.700
 106568801.501 8  83040709.70146  20279369.344                    20279373.652
        48.300          41.000
 114333985.242 8  89091448.35945  21757033.555                    21757036.961
        48.600          33.300
 128256860.225 7  99940444.20044  24406472.727                    24406477.320
        44.400          28.600
 117465717.511 7  91531796.26645  22352989.438                    22352995.695
        46.700          34.200
 124184672.961 6  96767315.60443  23631561.688                    23631564.141
        41.600          23.000
 126303927.249 6  98418676.23044  24034839.055                    24034844.652
        39.400          24.700
 16  9 14  0 37  0.0000000  0  9G15G30G28G13G20G17G24G18G05
 107938407.950 8  84107883.81347  20539991.922                    20539995.523
        49.900          43.300
 127508390.398 6  99357259.40043  24264037.594                    24264042.699
        41.300          22.600
 115015388.816 8  89622322.33345  21886673.398                    21886676.340
        49.200          34.300
 106597195.192 8  83062834.64846  20284773.023                    20284777.074
        49.900          40.600
 114385311.571 8  89131442.88945  21766800.828                    21766803.988
        48.800          33.300
 128175805.690 7  99877284.86844  24391048.281                    24391053.207
        43.900          25.400
 117384697.657 7  91468663.93645  22337571.500                    22337577.785
        46.600          34.800
 124125091.246 6  96720888.29144  23620224.133                    23620226.672
        41.400          24.700
 126414144.726 6  98504559.98644  24055812.875                    24055819.020
        39.200          24.700
 16  9 14  0 37 30.0000000  0  9G15G30G28G13G20G17G24G18G05
 107911142.846 8  84086638.27847  20534803.461                    20534807.281
        50.500          42.800
 127605289.392 6  99432765.04843  24282476.484                    24282482.852
        40.800          22.600
 115067066.498 8  89662590.65645  21896507.852                    21896510.781
        49.700          35.200
 106626047.706 8  83085317.11146  20290263.320                    20290266.664
        49.500          40.800
 114437153.304 8  89171839.03645  21776665.742                    21776668.367
        48.000          32.400
 128094959.439 7  99814287.78144  24375663.828                    24375667.609
        44.100          26.500
 117303905.894 7  91405709.33145  22322197.695                    22322203.184
        47.000          34.000
 124065920.662 6  96674781.34544  23608963.977                    23608966.777
        41.400          24.700
 126524446.281 6  98590509.23244  24076803.547                    24076808.602
        40.400          26.300
 16  9 14  0 38  0.0000000  0  9G15G30G28G13G20G17G24G18G05
 107884340.418 8  84065753.26647  20529703.164                    20529706.965
        50.700          43.700
 127702237.466 6  99508308.95244  24300925.594                    24300932.707
        41.400          24.700
 115119173.591 8  89703193.58745  21906423.234                    21906426.387
        48.900          35.500
 106655359.099 8  83108157.14146  20295840.508                    20295844.566
        49.600          41.000
 114489508.474 8  89212635.24745  21786628.461                    21786631.555
        48.300          32.200
 128014324.070 7  99751455.04944  24360318.859                    24360323.055
        43.200          25.300
 117223342.807 7  91342932.90545  22306866.695                    22306873.195
        47.600          34.600
 124007163.375 7  96628996.46144  23597783.820                    23597785.762
        42.300          25.800
 126634829.123 6  98676521.79444  24097808.977                    24097813.793
        41.500          26.700
 16  9 14  0 38 30.0000000  0  9G15G30G28G13G20G17G24G18G05
 107858001.797 8  84045229.66047  20524691.383                    20524694.688
        50.500          43.200
 127799233.573 6  99583890.25544  24319383.367                    24319390.125
        40.300          25.100
 115171708.311 8  89744129.74246  21916420.594                    21916423.480
        50.000          36.000
 106685129.460 8  83131354.81146  20301506.102                    20301509.473
        49.100          40.500
 114542374.955 8  89253829.89145  21796688.938                    21796691.813
        48.900          32.200
 127933902.736 7  99688789.10544  24345015.164                    24345020.414
        43.400          26.200
 117143009.247 7  91280335.33745  22291579.422                    22291586.125
        47.100          34.700
 123948821.027 6  96583534.88844  23586681.336                    23586684.141
        41.100          24.900
 126745290.590 6  98762595.64144  24118828.969                    24118834.031
        41.300          27.300
 16  9 14  0 39  0.0000000  0  9G15G30G28G13G20G17G24G18G05
 107832128.188 8  84025068.40147  20519767.711                    20519771.301
        51.400          43.400
 127896276.611 6  99659508.15744  24337850.086                    24337856.258
        41.100          25.200
 115224668.290 8  89785397.26145  21926498.531                    21926502.219
        49.500          35.900
 106715358.612 8  83154909.98746  20307258.508                    20307261.715
        49.800          40.900
 114595750.889 8  89295421.52045  21806845.695                    21806848.234
        48.600          32.500
 127853698.458 7  99626292.30544  24329752.648                    24329757.402
        42.800          24.200
 117062905.898 7  91217917.15445  22276336.438                    22276343.160
        46.300          34.800
 123890895.151 6  96538397.86644  23575657.922                    23575660.844
        40.200          25.400
 126855828.247 6  98848728.87244  24139863.891                    24139868.141
        41.700          24.700
 16  9 14  0 39 30.0000000  0  9G15G30G28G13G20G17G24G18G05
 107806720.917 8  84005270.52447  20514932.383                    20514936.344
        50.800          43.700
 127993365.780 6  99735161.99844  24356325.289                    24356332.637
        39.200          25.400
 115278051.836 8  89826994.83446  21936657.055                    21936660.992
        50.000          37.100
 106746046.726 8  83178822.79046  20313097.961                    20313101.656
        49.200          40.400
 114649634.177 8  89337408.48645  21817099.773                    21817102.758
        49.300          32.700
 127773714.236 7  99563966.95844  24314532.156                    24314538.223
        42.900          25.200
 116983033.607 7  91155679.02145  22261137.617                    22261143.863
        47.100          35.900
 123833387.658 6  96493586.85444  23564714.164                    23564717.488
        40.900          25.800
 126966439.502 7  98934919.44744  24160912.086                    24160916.563
        42.300          26.200
 16  9 14  0 40  0.0000000  0  9G15G30G28G13G20G17G24G18G05
 107781780.891 8  83985836.73547  20510186.563                    20510190.480
        50.300          43.700
 128090499.764 6  99810850.74944  24374810.219                    24374816.609
        39.800          25.200
 115331857.051 8  89868920.97046  21946895.820                    21946899.195
        49.400          37.000
 106777193.271 8  83203092.81446  20319025.039                    20319028.840
        48.600          40.600
 114704022.090 8  89379788.65745  21827449.570                    21827452.590
        48.800          33.600
 127693952.549 7  99501815.02144  24299354.258                    24299359.859
        42.800          27.100
 116903393.065 7  91093621.47345  22245982.438                    22245989.277
        46.800          35.500
 123776300.367 7  96449103.25644  23553851.602                    23553854.590
        42.000          25.300
 127077121.396 6  99021165.08344  24181974.414                    24181978.898
        41.800          25.700
 16  9 14  0 40 30.0000000  0  9G15G30G28G13G20G17G24G18G05
 107757309.608 8  83966768.19547  20505529.969                    20505534.188
        50.200          43.000
 128187678.032 6  99886574.03544  24393301.258                    24393309.328
        39.200          24.500
 115386082.324 8  89911174.43146  21957214.570                    21957218.316
        48.100          37.100
 106808798.744 8  83227720.43446  20325039.703                    20325043.152
        49.000          40.500
 114758913.074 7  89422560.84645  21837895.281                    21837898.023
        47.900          33.800
 127614416.549 7  99439838.92744  24284219.070                    24284224.047
        42.600          26.300
 116823985.711 7  91031745.64745  22230871.992                    22230878.188
        46.300          35.300
 123719634.943 7  96404948.38044  23543068.375                    23543071.398
        43.200          26.100
 127187871.303 6  99107463.69844  24203049.688                    24203053.813
        41.700          26.200
 16  9 14  0 41  0.0000000  0  9G15G30G28G13G20G17G24G18G05
 107733307.931 8  83948065.58047  20500962.805                    20500966.453
        50.900          43.900
 128284899.350 6  99962330.85743  24411802.117                    24411809.316
        38.900          22.900
 115440725.270 8  89953753.34746  21967612.539                    21967616.570
        48.400          37.100
 106840862.806 8  83252705.40346  20331141.422                    20331144.359
        49.900          40.100
 114814304.737 7  89465723.17345  21848435.352                    21848438.707
        47.800          33.400
 127535109.308 7  99378041.09744  24269126.469                    24269132.883
        43.200          26.900
 116744811.604 7  90970051.56045  22215805.508                    22215811.773
        46.200          35.000
 123663393.291 7  96361123.70644  23532366.242                    23532368.648
        43.700          25.100
 127298686.457 7  99193813.14844  24224136.461                    24224140.531
        42.200          24.800
 16  9 14  0 41 30.0000000  0 10G15G30G28G13G20G17G19G24G18G05
 107709777.100 8  83929729.86647  20496485.039                    20496488.203
        49.900          43.600
 128382162.555 6 100038120.31244  24430310.359                    24430318.520
        39.600          24.200
 115495783.839 8  89996656.13346  21978089.797                    21978093.902
        48.800          36.800
 106873385.193 8  83278047.51246  20337330.055                    20337333.590
        49.600          40.800
 114870194.706 8  89509273.79345  21859070.930                    21859073.930
        48.300          31.800
 127456033.088 7  99316423.29944  24254078.719                    24254085.199
        43.000          27.900
 132609099.626 6 103331787.44543  25234676.672                    25234679.387
        40.500          22.500
 116665872.008 7  90908540.21245  22200783.297                    22200789.902
        45.500          35.300
 123607577.080 7  96317630.55644  23521744.641                    23521747.176
        42.600          27.800
 127409564.682 7  99280211.73444  24245235.313                    24245240.180
        42.600          26.000
 16  9 14  0 42  0.0000000  0 10G15G30G28G13G20G17G19G24G18G05
 107686718.224 8  83911761.90547  20492096.875                    20492100.531
        51.000          43.400
 128479467.047 6 100113941.94544  24448827.625                    24448834.223
        39.800          24.200
 115551256.369 8  90039881.47946  21988646.250                    21988649.613
        48.900          36.500
 106906366.043 8  83303746.87646  20343606.117                    20343609.246
        50.200          40.100
 114926581.143 8  89553211.24745  21869801.281                    21869803.805
        49.100          32.300
 127377191.351 7  99254988.22044  24239076.555                    24239081.230
        42.200          28.600
 132503778.134 6 103249718.75743  25214633.555                    25214637.883
        39.800          22.000
 116587167.411 7  90847211.97045  22185806.086                    22185813.164
        45.400          34.600
 123552188.096 7  96274470.30544  23511204.617                    23511207.617
        44.000          27.900
 127520502.882 7  99366657.06744  24266346.805                    24266350.836
        43.200          25.400
 16  9 14  0 42 30.0000000  0 10G15G30G28G13G20G17G19G24G18G05
 107664131.803 8  83894162.09047  20487798.930                    20487802.367
        49.900          42.900
 128576811.430 6 100189794.66044  24467350.586                    24467358.344
        39.400          24.600
 115607140.378 8  90083427.46446  21999280.539                    21999283.801
        49.100          36.700
 106939804.982 8  83329803.18646  20349969.391                    20349972.820
        49.600          39.700
 114983461.616 8  89597533.67545  21880625.602                    21880628.324
        48.900          33.000
 127298586.812 7  99193737.95344  24224118.617                    24224122.945
        42.900          28.000
 132398458.377 6 103167651.39943  25194592.297                    25194596.332
        38.800          21.300
 116508698.698 7  90786067.53345  22170874.383                    22170880.531
        45.400          34.200
 123497227.693 7  96231644.01344  23500745.430                    23500748.461
        43.000          27.600
 127631498.406 7  99453147.08444  24287469.398                    24287472.895
        43.100          26.700
 16  9 14  0 43  0.0000000  0 10G15G30G28G13G20G17G19G24G18G05
 107642019.631 8  83876931.82447  20483591.375                    20483594.902
        50.000          43.600
 128674195.114 6 100265678.03544  24485882.117                    24485889.824
        40.000          24.000
 115663434.451 8  90127292.98546  22009993.008                    22009996.063
        49.300          36.300
 106973702.114 8  83356216.51446  20356419.727                    20356422.992
        49.300          40.600
 115040834.156 8  89642239.53645  21891542.977                    21891545.551
        48.100          32.100
 127220222.701 7  99132675.03644  24209205.977                    24209210.977
        43.900          28.400
 132293143.923 6 103085588.17443  25174551.547                    25174556.055
        40.000          22.900
 116430466.722 7  90725107.57745  22155987.461                    22155993.785
        45.200          34.400
 123442697.649 7  96189153.06144  23490369.102                    23490372.012
        43.800          29.400
 127742549.061 7  99539680.05743  24308600.969                    24308605.699
        42.400          23.200
 16  9 14  0 43 30.0000000  0 10G15G30G28G13G20G17G19G24G18G05
 107620383.418 8  83860072.43547  20479473.875                    20479477.570
        49.300          44.100
 128771617.434 6 100341591.49544  24504421.492                    24504428.262
        40.300          24.200
 115720136.771 8  90171476.61446  22020783.078                    22020786.047
        48.000          36.300
 107008057.994 8  83382987.32246  20362957.891                    20362961.168
        49.700          40.800
 115098696.634 7  89687327.15445  21902553.797                    21902556.402
        47.300          32.300
 127142101.992 7  99071801.81144  24194340.352                    24194345.074
        43.600          29.300
 132187837.964 6 103003531.58843  25154512.516                    25154516.340
        38.700          22.500
 116352472.473 7  90664332.86645  22141145.523                    22141151.852
        44.600          34.200
 123388600.149 7  96146999.16744  23480074.430                    23480077.836
        43.400          27.700
 127853652.120 7  99626253.85643  24329742.805                    24329748.156
        42.400          23.000
 16  9 14  0 44  0.0000000  0 10G15G30G28G13G20G17G19G24G18G05
 107599223.238 8  83843583.97647  20475446.719                    20475450.918
        49.300          43.200
 128869076.901 6 100417533.84343  24522968.156                    24522974.746
        40.200          22.800
 115777244.924 7  90215976.48145  22031650.016                    22031653.316
        46.800          35.900
 107042871.423 8  83410114.65746  20369582.500                    20369585.633
        50.600          41.000
 115157045.961 7  89732794.14445  21913657.195                    21913660.223
        47.200          33.100
 127064227.076 7  99011120.08144  24179521.695                    24179525.375
        43.900          28.600
 132082543.188 6 102921483.73343  25134475.594                    25134478.848
        37.800          21.300
 116274716.482 7  90603743.80545  22126349.047                    22126355.270
        44.400          34.800
 123334936.226 7  96105183.13144  23469862.289                    23469865.570
        43.800          28.900
 127964804.465 7  99712866.04343  24350893.844                    24350899.516
        42.200          22.600
 16  9 14  0 44 30.0000000  0 10G15G30G28G13G20G17G19G24G18G05
 107578540.339 8  83827467.43147  20471511.109                    20471515.070
        48.900          43.200
 128966572.574 6 100493504.46843  24541520.203                    24541526.449
        39.400          22.200
 115834756.863 8  90260790.98645  22042594.219                    22042597.633
        48.700          35.900
 107078142.095 8  83437598.29046  20376294.000                    20376297.793
        49.500          41.400
 115215880.255 8  89778639.03445  21924853.227                    21924856.492
        48.900          32.600
 126986600.935 7  98950632.21544  24164749.484                    24164753.840
        43.900          29.500
 131977262.761 6 102839447.05443  25114442.781                    25114444.992
        39.200          22.200
 116197199.153 7  90543340.71846  22111598.438                    22111604.848
        46.100          36.200
 123281707.704 7  96063706.33844  23459733.305                    23459736.227
        43.000          29.100
 128076003.198 7  99799514.40343  24372055.391                    24372060.523
        42.000          22.300
 16  9 14  0 45  0.0000000  0 10G15G30G28G13G20G17G19G24G18G05
 107558335.749 8  83811723.58847  20467666.648                    20467670.461
        48.800          43.600
 129064103.573 6 100569502.63243  24560080.234                    24560086.484
        39.200          21.100
 115892670.314 8  90305918.36145  22053614.711                    22053618.566
        48.600          35.200
 107113870.692 8  83465438.74046  20383092.906                    20383096.934
        48.800          40.500
 115275197.642 8  89824860.37845  21936140.781                    21936143.879
        48.500          32.900
 126909226.531 7  98890340.50944  24150025.477                    24150030.293
        42.100          28.600
 131872000.140 6 102757424.21943  25094411.734                    25094414.227
        39.300          22.000
 116119921.719 7  90483124.56345  22096891.891                    22096899.215
        45.600          35.900
 123228916.357 7  96022570.22245  23449687.875                    23449690.953
        44.900          30.200
 128187246.534 7  99886197.51443  24393223.844                    24393228.570
        42.800          22.500
 16  9 14  0 45 30.0000000  0 10G15G30G28G13G20G17G19G24G18G05
 107538610.943 8  83796353.61147  20463912.938                    20463916.832
        48.300          43.400
 129161669.121 6 100645527.65343  24578646.484                    24578652.508
        40.200          21.100
 115950983.688 7  90351357.36145  22064711.125                    22064714.992
        45.500          35.400
 107150056.630 8  83493635.56146  20389978.977                    20389982.617
        49.300          40.600
 115334995.277 7  89871455.94445  21947519.438                    21947522.738
        45.200          32.700
 126832106.666 7  98830247.14144  24135349.914                    24135354.891
        42.000          28.300
 131766758.436 6 102675417.69643  25074383.148                    25074387.641
        37.900          20.400
 116042884.906 7  90423095.89746  22082232.898                    22082240.000
        45.200          36.400
 123176564.154 7  95981776.29445  23439725.719                    23439728.563
        44.100          30.600
 128298531.541 7  99972913.13143  24414401.211                    24414405.586
        42.900          22.600
 16  9 14  0 46  0.0000000  0 10G15G30G28G13G20G17G19G24G18G05
 107519366.895 8  83781358.24147  20460251.078                    20460255.172
        49.300          43.000
 129259268.453 6 100721579.00743  24597218.734                    24597225.633
        40.000          21.500
 116009695.023 7  90397106.45145  22075883.180                    22075887.527
        47.800          34.900
 107186699.813 8  83522188.68446  20396951.828                    20396955.422
        49.500          40.400
 115395271.171 8  89918424.16245  21958990.055                    21958992.762
        48.500          32.700
 126755244.375 7  98770354.48044  24120723.578                    24120728.172
        44.100          29.000
 131661540.985 6 102593430.10143  25054360.609                    25054364.676
        36.700          19.300
 115966089.591 7  90363255.40745  22067619.008                    22067626.371
        45.700          35.200
 123124652.403 7  95941325.56545  23429847.695                    23429850.086
        43.900          30.300
 128409855.404 7 100059659.00143  24435584.961                    24435589.977
        42.600          22.500
 16  9 14  0 46 30.0000000  0 10G15G30G28G13G20G17G19G24G18G05
 107500604.276 8  83766738.01447  20456680.758                    20456684.449
        49.500          43.100
 129356900.449 6 100797655.86843  24615797.609                    24615804.855
        41.600          22.300
 116068802.302 7  90443164.06645  22087131.430                    22087135.113
        45.500          34.900
 107223800.038 8  83551097.93346  20404012.164                    20404015.680
        49.800          40.200
 115456022.948 7  89965763.21045  21970550.484                    21970553.422
        45.400          32.000
 126678642.545 7  98710664.77044  24106146.141                    24106151.113
        42.700          27.900
 131556351.069 6 102511463.96043  25034343.719                    25034347.684
        37.700          18.600
 115889536.594 7  90303603.71645  22053051.469                    22053058.418
        44.500          34.500
 123073182.317 7  95901218.97844  23420052.813                    23420055.719
        44.800          29.600
 128521215.795 7 100146433.32643  24456776.281                    24456781.434
        42.400          23.600
 16  9 14  0 47  0.0000000  0 10G15G30G28G13G20G17G19G24G18G05
 107482324.115 8  83752493.72447  20453201.727                    20453205.770
        49.500          43.700
 129454564.125 6 100873757.42143  24634381.898                    24634389.699
        39.700          19.900
 116128303.321 7  90489528.49145  22098454.094                    22098457.609
        45.600          35.400
 107261356.778 8  83580362.90046  20411159.031                    20411162.105
        50.500          41.100
 115517248.057 7  90013471.06345  21982201.531                    21982205.223
        45.700          32.500
 126602303.947 7  98651180.16944  24091620.078                    24091624.480
        43.800          28.600
 131451191.577 6 102429521.50643  25014333.359                    25014336.656
        39.000          21.500
 115813226.293 7  90244141.17245  22038530.063                    22038536.922
        44.100          34.900
 123022155.920 7  95861458.14044  23410342.070                    23410345.246
        43.700          29.300
 128632609.426 7 100233233.57444  24477973.875                    24477978.992
        42.100          24.800
 16  9 14  0 47 30.0000000  0 10G15G30G28G13G20G17G19G24G18G05
 107464527.645 8  83738626.34447  20449815.391                    20449819.105
        49.500          43.800
 129552258.621 6 100949882.95043  24652973.242                    24652981.285
        39.700          22.000
 116188196.107 7  90536198.20445  22109851.461                    22109854.301
        47.900          34.100
 107299370.214 8  83609983.75746  20418392.188                    20418395.820
        50.300          40.900
 115578944.331 7  90061546.05545  21993941.438                    21993945.668
        47.300          32.300
 126526231.012 7  98591902.59244  24077143.969                    24077149.668
        44.700          29.700
 131346065.840 6 102347605.31543  24994329.617                    24994330.930
        38.700          20.100
 115737159.961 7  90184868.71945  22024055.273                    22024061.516
        44.900          34.800
 122971574.878 7  95822044.34544  23400717.328                    23400720.105
        42.800          28.900
 128744034.666 6 100320058.44043  24499177.406                    24499182.645
        41.600          22.500
 16  9 14  0 48  0.0000000  0 10G15G30G28G13G20G17G19G24G18G05
 107447215.713 8  83725136.52547  20446521.445                    20446524.789
        50.000          43.900
 129649983.016 6 101026031.79143  24671569.523                    24671577.309
        40.100          22.000
 116248478.419 7  90583171.42545  22121322.531                    22121326.051
        46.600          34.100
 107337839.725 8  83639959.98746  20425713.211                    20425716.133
        49.700          40.800
 115641109.019 7  90109986.04345  22005770.672                    22005775.281
        44.800          32.400
 126450427.336 7  98532834.82644  24062718.953                    24062723.863
        43.900          29.300
 131240976.856 6 102265717.79743  24974331.188                    24974334.113
        37.400          20.400
 115661337.848 7  90125786.58145  22009626.641                    22009632.723
        44.900          34.200
 122921440.584 7  95782978.66144  23391176.617                    23391180.129
        42.600          28.900
 128855488.427 6 100406905.51843  24520385.531                    24520392.105
        39.000          22.900
 16  9 14  0 48 30.0000000  0 10G15G30G28G13G20G17G19G24G18G05
 107430389.426 8  83712025.13447  20443319.344                    20443322.781
        50.000          43.800
 129747736.608 6 101102203.35743  24690171.922                    24690179.215
        39.800          21.300
 116309148.559 7  90630446.87145  22132867.766                    22132871.285
        47.500          34.100
 107376765.379 8  83670291.65246  20433120.328                    20433123.824
        49.900          40.200
 115703740.228 7  90158789.55445  22017688.797                    22017693.414
        46.000          32.600
 126374895.250 7  98473978.68544  24048345.672                    24048350.547
        44.500          29.000
 131135928.298 6 102183861.76843  24954341.578                    24954344.922
        39.200          21.100
 115585761.282 7  90066895.77945  21995245.141                    21995251.395
        44.500          34.100
 122871754.569 7  95744262.29444  23381721.844                    23381725.223
        43.600          29.400
 128966967.922 6 100493772.60843  24541599.875                    24541605.383
        38.300          21.800
 16  9 14  0 49  0.0000000  0 11G15G30G28G13G20G17G19G24G18G10G05
 107414049.523 8  83699292.73747  20440210.078                    20440213.621
        50.100          43.700
 129845518.234 6 101178396.78743  24708779.023                    24708785.879
        38.200          20.600
 116370204.059 7  90678022.57345  22144486.352                    22144489.176
        47.100          33.500
 107416146.681 8  83700978.36546  20440614.617                    20440617.863
        49.800          40.400
 115766835.303 7  90207954.51945  22029695.445                    22029700.070
        46.500          32.800
 126299638.017 7  98415336.70544  24034024.813                    24034030.082
        45.000          29.900
 131030923.206 6 102102039.62043  24934358.477                    24934362.676
        37.500          19.900
 115510430.687 7  90008196.63445  21980910.453                    21980916.398
        45.700          34.400
 122822518.305 7  95705896.37644  23372353.383                    23372355.660
        44.100          29.600
 132889509.876 6                  25288038.852
        36.200
 129078470.750 6 100580657.88243  24562818.305                    24562823.453
        39.200          22.000
 16  9 14  0 49 30.0000000  0 11G15G30G28G13G20G17G19G24G18G10G05
 107398197.242 8  83686940.30647  20437193.313                    20437197.031
        50.000          44.300
 129943327.213 6 101254611.58043  24727391.008                    24727398.469
        39.400          21.800
 116431643.065 7  90725897.11645  22156177.320                    22156180.598
        46.700          33.400
 107455983.745 8  83732020.23246  20448195.219                    20448198.324
        49.900          40.100
 115830391.796 7  90257479.04145  22041790.570                    22041794.680
        47.200          33.400
 126224658.386 7  98356911.06544  24019756.297                    24019762.043
        45.400          29.400
 130925965.084 6 102020254.09843  24914385.734                    24914389.316
        37.700          18.300
 115435346.743 7  89949689.69345  21966622.398                    21966628.238
        46.200          35.000
 122773733.927 7  95667882.57644  23363070.055                    23363073.117
        43.500          29.400
 132797565.091 6 103478676.56142  25270542.617                    25270548.773
        36.400          16.300
 129189994.213 6 100667559.27843  24584040.117                    24584044.668
        39.000          21.800
 16  9 14  0 50  0.0000000  0 11G15G30G28G13G20G17G19G24G18G10G05
 107382833.635 8  83674968.66947  20434269.789                    20434272.988
        50.500          43.900
 130041162.729 6 101330847.00743  24746008.461                    24746015.402
        39.400          20.400
 116493463.682 7  90774069.03145  22167941.484                    22167945.066
        47.400          33.700
 107496275.883 8  83763416.69046  20455862.297                    20455866.074
        49.300          39.700
 115894407.355 7  90307361.28345  22053972.336                    22053976.137
        47.100          33.300
 126149959.043 7  98298703.79844  24005541.789                    24005546.590
        45.600          29.900
 130821056.981 6 101938507.49543  24894423.320                    24894425.203
        40.400          19.900
 115360510.618 7  89891375.85145  21952381.750                    21952387.434
        45.700          35.200
 122725402.295 7  95630221.55444  23353872.609                    23353875.684
        44.300          29.700
 132705914.444 6 103407260.46242  25253100.836                    25253108.930
        37.000          17.800
 129301536.138 6 100754475.03843  24605266.609                    24605269.840
        39.900          20.900
 16  9 14  0 50 30.0000000  0 11G15G30G28G13G20G17G19G24G18G10G05
 107367959.365 8  83663378.32147  20431439.156                    20431442.621
        49.800          44.100
 130139023.753 6 101407102.31643  24764630.875                    24764638.055
        39.400          20.400
 116555663.711 7  90822536.57745  22179777.695                    22179781.797
        47.600          33.500
 107537022.919 8  83795167.60746  20463616.281                    20463619.977
        49.500          39.300
 115958879.579 7  90357599.37045  22066241.609                    22066245.234
        47.500          32.800
 126075542.884 7  98240717.20244  23991380.789                    23991385.484
        45.700          29.400
 130716202.026 6 101856802.33143  24874470.094                    24874472.234
        39.800          20.100
 115285922.825 7  89833255.49845  21938188.031                    21938194.172
        46.400          35.300
 122677524.824 7  95592914.43944  23344761.938                    23344765.047
        43.800          28.800
 132614560.633 6 103336075.72442  25235717.891                    25235724.648
        38.100          17.400
 129413093.667 6 100841402.98343  24626494.922                    24626498.871
        39.600          20.600
 16  9 14  0 51  0.0000000  0 11G15G30G28G13G20G17G19G24G18G10G05
 107353575.150 8  83652169.83747  20428701.547                    20428705.852
        49.800          43.600
 130236909.304 6 101483376.70243  24783258.492                    24783264.648
        39.000          20.100
 116618240.923 7  90871298.04645  22191686.313                    22191690.055
        47.000          34.100
 107578224.485 8  83827272.72246  20471456.711                    20471460.188
        50.200          40.400
 116023805.707 7  90408191.13545  22078596.219                    22078599.977
        47.300          33.100
 126001412.499 7  98182953.30044  23977274.000                    23977279.262
        44.700          29.300
 130611403.529 6 101775141.18643  24854527.945                    24854529.559
        40.000          20.600
 115211584.105 7  89775329.23345  21924041.594                    21924047.746
        45.300          35.400
 122630103.396 7  95555962.67344  23335737.742                    23335740.605
        43.500          29.900
 132523506.115 6 103265124.12342  25218391.023                    25218397.445
        39.700          17.800
 129524663.456 6 100928340.47143  24647726.406                    24647729.859
        40.400          21.300
 16  9 14  0 51 30.0000000  0 11G15G30G28G13G20G17G19G24G18G10G05
 107339682.281 8  83641344.22247  20426057.586                    20426062.129
        50.100          43.900
 130334818.652 6 101559669.66443  24801889.672                    24801895.910
        39.200          19.900
 116681193.363 7  90920351.89545  22203665.984                    22203668.895
        47.200          34.600
 107619880.247 8  83859731.74746  20479383.578                    20479386.422
        50.300          40.100
 116089183.515 7  90459134.86745  22091037.234                    22091040.742
        46.000          33.500
 125927570.336 7  98125413.97244  23963222.320                    23963226.180
        44.300          29.700
 130506664.966 6 101693526.68843  24834597.227                    24834599.715
        38.800          20.400
 115137495.373 7  89717597.77145  21909942.258                    21909949.301
        44.100          35.000
 122583139.303 7  95519367.26644  23326801.070                    23326803.145
        43.200          29.100
 132432753.672 6 103194407.97943  25201122.398                    25201127.051
        40.900          18.300
 129636243.667 6 101015286.06743  24668959.227                    24668963.496
        40.200          22.000
 16  9 14  0 52  0.0000000  0 11G15G30G28G13G20G17G19G24G18G10G05
 107326281.320 8  83630901.91347  20423508.008                    20423512.191
        49.900          44.300
 130432750.739 6 101635980.35442  24820524.688                    24820531.289
        38.000          17.800
 116744518.592 8  90969696.23145  22215716.414                    22215719.227
        48.700          34.200
 107661989.734 8  83892544.32646  20487397.008                    20487399.977
        50.000          40.000
 116155010.269 7  90510428.43245  22103563.734                    22103567.496
        46.800          32.100
 125854020.005 7  98068102.06344  23949225.891                    23949230.758
        45.300          29.500
 130401989.280 6 101611961.23943  24814676.039                    24814681.813
        37.100          19.900
 115063657.033 7  89660061.42345  21895891.836                    21895898.230
        45.400          35.900
 122536633.975 7  95483129.34645  23317951.117                    23317953.738
        44.200          30.300
 132342305.798 6 103123929.07043  25183910.445                    25183914.527
        41.600          20.600
 129747831.294 6 101102237.43943  24690193.336                    24690197.664
        40.100          21.300
 16  9 14  0 52 30.0000000  0 11G15G30G28G13G20G17G19G24G18G10G05
 107313373.467 8  83620843.83847  20421052.094                    20421055.715
        50.200          44.100
 130530704.856 6 101712308.16342  24839165.078                    24839172.008
        38.300          17.800
 116808214.621 7  91019329.50845  22227836.883                    22227840.648
        46.900          34.100
 107704552.549 8  83925710.14546  20495496.117                    20495499.746
        49.300          40.100
 116221283.530 7  90562069.92145  22116174.219                    22116178.406
        43.400          32.300
 125780764.436 7  98011019.85544  23935285.672                    23935290.805
        44.800          29.700
 130297379.842 6 101530447.44843  24794770.172                    24794775.086
        38.800          20.900
 114990069.877 7  89602720.79146  21881888.414                    21881894.602
        45.500          36.000
 122490588.930 7  95447250.09044  23309189.000                    23309192.164
        44.100          29.800
 132252165.229 6 103053689.64843  25166756.914                    25166762.781
        41.200          22.000
 129859424.539 6 101189193.22743  24711428.875                    24711433.492
        39.400          21.100
 16  9 14  0 53  0.0000000  0 11G15G30G28G13G20G17G19G24G18G10G05
 107300959.349 8  83611170.49647  20418689.938                    20418693.461
        50.200          44.000
 130628680.212 6 101788652.53043  24857810.156                    24857815.480
        39.700          19.600
 116872279.557 8  91069250.22945  22240028.461                    22240031.316
        48.600          32.800
 107747568.643 8  83959229.16746  20503681.805                    20503685.688
        50.100          39.600
 116288001.260 7  90614057.74745  22128870.695                    22128874.859
        46.600          33.300
 125707805.720 7  97954168.92845  23921402.953                    23921407.289
        45.000          31.300
 130192840.207 6 101448987.96343  24774876.641                    24774880.906
        38.300          21.300
 114916734.840 7  89545576.63846  21867933.469                    21867939.746
        45.800          36.100
 122445005.612 7  95411730.62245  23300514.305                    23300517.863
        44.500          30.000
 132162334.504 6 102983691.67743  25149662.273                    25149668.051
        41.200          22.000
 129971020.552 6 101276151.15643  24732665.898                    24732669.629
        39.900          22.500
 16  9 14  0 53 30.0000000  0 11G15G30G28G13G20G17G19G24G18G10G05
 107289040.187 8  83601882.83947  20416421.156                    20416425.246
        50.100          44.100
 130726676.035 6 101865012.88743  24876458.328                    24876464.344
        38.800          20.100
 116936711.440 8  91119456.89245  22252289.359                    22252292.184
        48.400          34.000
 107791037.788 8  83993101.21446  20511954.000                    20511957.648
        49.300          39.500
 116355160.295 7  90666389.44645  22141650.422                    22141654.766
        46.100          33.200
 125635147.154 7  97897551.87645  23907576.266                    23907580.805
        44.300          30.800
 130088373.659 6 101367585.49143  24754997.266                    24755000.477
        38.300          22.500
 114843653.055 7  89488629.81945  21854026.609                    21854032.809
        45.200          35.800
 122399885.451 7  95376572.04345  23291928.578                    23291931.617
        44.500          30.800
 132072816.557 6 102913937.52043  25132627.211                    25132634.008
        40.300          20.400
 130082616.468 6 101363109.02243  24753900.930                    24753904.797
        39.900          22.300
 16  9 14  0 54  0.0000000  0 11G15G30G28G13G20G17G19G24G18G10G05
 107277616.288 8  83592981.08947  20414247.102                    20414251.258
        49.500          44.300
 130824691.251 6 101941388.33743  24895109.563                    24895116.727
        38.900          19.300
 117001507.818 8  91169947.57645  22264619.328                    22264622.582
        48.100          32.400
 107834958.946 8  84027325.48646  20520311.625                    20520315.406
        48.800          39.400
 116422758.077 7  90719063.02645  22154514.281                    22154519.074
        46.500          33.000
 125562790.984 7  97841170.47045  23893807.031                    23893812.000
        44.400          30.700
 129983983.211 6 101286242.30043  24735132.352                    24735134.742
        38.900          21.800
 114770824.986 7  89431880.69145  21840167.438                    21840173.348
        45.500          35.200
 122355229.655 7  95341775.30845  23283430.906                    23283434.504
        44.300          31.100
 131983613.690 6 102844428.75543  25115652.719                    25115659.035
        40.400          21.300
 130194209.686 6 101450064.76443  24775136.633                    24775140.504
        39.800          21.800
 16  9 14  0 54 30.0000000  0 11G15G30G28G13G20G17G19G24G18G10G05
 107266688.799 8  83584466.15647  20412167.742                    20412171.816
        50.000          43.700
 130922725.126 6 102017778.30843  24913764.305                    24913770.758
        36.900          18.600
 117066666.658 8  91220720.70345  22277019.086                    22277021.980
        48.100          33.000
 107879332.302 8  84061902.11646  20528755.656                    20528759.500
        49.100          39.600
 116490792.409 7  90772076.77245  22167460.664                    22167465.211
        45.700          33.000
 125490740.309 7  97785027.10945  23880096.211                    23880101.340
        44.400          31.700
 129879672.263 6 101204961.04443  24715282.469                    24715283.926
        38.100          21.100
 114698251.108 7  89375329.63345  21826357.281                    21826363.711
        45.100          35.600
 122311040.034 7  95307341.83045  23275022.039                    23275025.109
        44.700          31.100
 131894728.765 6 102775167.76543  25098739.883                    25098745.711
        41.800          23.200
 130305797.988 6 101537016.68843  24796371.211                    24796375.301
        39.900          21.800
 16  9 14  0 55  0.0000000  0 11G15G30G28G13G20G17G19G24G18G10G05
 107256258.588 8  83576338.72447  20410182.688                    20410187.082
        48.800          43.200
 131020777.014 6 102094182.37143  24932422.367                    24932429.977
        38.800          19.000
 117132186.180 7  91271774.88345  22289486.672                    22289489.863
        47.800          31.000
 107924157.509 8  84096830.83346  20537285.563                    20537289.547
        48.500          38.400
 116559260.565 7  90825428.56045  22180489.969                    22180493.777
        46.900          31.900
 125418998.371 7  97729124.32245  23866444.883                    23866448.625
        43.400          30.600
 129775444.346 6 101123744.47143  24695449.289                    24695450.805
        40.000          20.900
 114625932.544 7  89318977.51145  21812595.688                    21812602.215
        45.800          35.800
 122267317.716 7  95273272.49344  23266702.063                    23266704.844
        43.800          29.100
 131806164.419 6 102706156.54644  25081885.500                    25081891.953
        41.200          25.200
 130417378.040 6 101623962.18343  24817604.695                    24817608.398
        39.400          21.500
 16  9 14  0 55 30.0000000  0 11G15G30G28G13G20G17G19G24G18G10G05
 107246326.249 8  83568599.24547  20408292.875                    20408297.168
        49.600          43.500
 131118845.860 6 102170599.59642  24951085.695                    24951091.078
        38.400          16.900
 117198063.383 7  91323107.76745  22302022.641                    22302026.020
        47.500          32.400
 107969433.664 8  84132110.95046  20545901.469                    20545905.242
        49.100          38.600
 116628159.957 7  90879116.38045  22193600.773                    22193604.914
        46.700          32.400
 125347567.003 7  97673463.53445  23852851.133                    23852856.004
        44.100          30.400
 129671302.754 6 101042595.22343  24675632.023                    24675634.930
        39.000          22.000
 114553870.184 7  89262825.02745  21798882.281                    21798889.031
        45.100          35.900
 122224064.040 7  95239568.32944  23258470.547                    23258473.906
        42.700          27.900
 131717923.132 6 102637397.16343  25065094.578                    25065100.547
        40.100          21.800
 130528948.227 6 101710899.93843  24838835.602                    24838839.844
        37.900          21.300
 16  9 14  0 56  0.0000000  0 11G15G30G28G13G20G17G19G24G18G10G05
 107236892.807 8  83561248.50047  20406497.758                    20406501.859
        50.000          43.200
 131216930.922 6 102247029.41542  24969750.195                    24969756.547
        37.000          17.800
 117264297.210 7  91374718.53045  22314626.500                    22314629.820
        46.400          31.800
 108015160.607 8  84167742.31846  20554602.695                    20554606.430
        49.300          38.300
 116697488.040 7  90933138.24345  22206793.563                    22206796.980
        43.200          32.100
 125276449.534 7  97618047.35044  23839317.711                    23839323.172
        43.700          29.100
 129567250.653 6 100961515.66943  24655831.313                    24655835.137
        39.000          21.700
 114482064.081 7  89206872.23746  21785218.516                    21785225.355
        46.100          36.900
 122181280.308 7  95206230.38644  23250328.984                    23250332.305
        43.200          28.300
 131630007.602 6 102568891.54443  25048363.578                    25048370.512
        39.900          21.100
 130640505.759 6 101797827.89143  24860064.117                    24860068.781
        38.100          22.200
 16  9 14  0 56 30.0000000  0 11G15G30G28G13G20G17G19G24G18G10G05
 107227958.123 8  83554286.41147  20404797.586                    20404802.273
        50.000          43.200
 131315031.066 6 102323471.04642  24988418.203                    24988425.246
        37.300          16.900
 117330884.698 7  91426604.88445  22327298.250                    22327301.473
        47.600          32.200
 108061337.304 8  84203724.15446  20563389.758                    20563393.566
        49.000          38.900
 116767241.921 7  90987491.88145  22220067.609                    22220070.922
        46.300          32.500
 125205648.424 7  97562877.69245  23825844.898                    23825850.020
        43.600          30.000
 129463291.133 6 100880508.28043  24636048.945                    24636052.898
        39.600          21.800
 114410515.385 7  89151120.01746  21771603.477                    21771609.738
        46.000          36.500
 122138967.634 7  95173259.47944  23242276.867                    23242279.949
        42.100          28.000
 131542420.021 6 102500641.51943  25031695.914                    25031702.250
        39.200          20.600
 130752047.787 6 101884743.72543  24881289.367                    24881293.680
        38.500          20.400
 16  9 14  0 57  0.0000000  0 11G15G30G28G13G20G17G19G24G18G10G05
 107219524.371 8  83547714.65047  20403192.953                    20403197.102
        50.200          43.800
 131413145.973 6 102399924.18642  25007088.633                    25007095.563
        36.900          14.800
 117397824.072 7  91478765.44245  22340036.078                    22340038.754
        46.100          32.200
 108107964.083 8  84240056.69846  20572263.188                    20572266.574
        48.900          39.000
 116837419.344 7  91042175.57745  22233421.656                    22233425.445
        44.700          32.700
 125135166.888 7  97507957.03544  23812433.000                    23812437.234
        44.500          29.600
 129359428.088 6 100799576.07643  24616284.453                    24616287.672
        39.800          22.500
 114339225.153 7  89095569.21746  21758036.883                    21758043.363
        47.100          37.100
 122097127.852 7  95140657.05944  23234315.063                    23234318.410
        42.800          27.000
 131455163.676 6 102432649.54243  25015092.125                    25015097.133
        39.800          19.900
 130863572.140 6 101971645.79943  24902512.047                    24902517.230
        36.900          20.900
 16  9 14  0 57 30.0000000  0 11G15G30G28G13G20G17G19G24G18G10G05
 107211591.843 8  83541533.46647  20401683.617                    20401687.801
        50.100          43.900
 131511274.720 5 102476388.11442  25025761.281                    25025768.762
        35.400          16.300
 117465113.330 7  91531198.61945  22352840.453                    22352843.863
        47.700          32.400
 108155040.304 8  84276739.45846  20581221.289                    20581224.660
        50.100          38.800
 116908017.505 7  91097187.12045  22246856.422                    22246859.883
        47.300          33.000
 125065007.617 7  97453287.50945  23799081.500                    23799086.246
        43.700          30.400
 129255664.684 6 100718721.49943  24596538.156                    24596540.855
        38.600          23.000
 114268193.902 7  89040220.21146  21744520.125                    21744526.426
        47.400          36.200
 122055761.984 7  95108423.90344  23226443.234                    23226446.773
        42.700          27.300
 131368240.860 6 102364917.48943  24998551.484                    24998555.781
        39.200          20.600
 130975076.208 6 102058532.12243  24923730.508                    24923735.789
        36.600          19.600
 16  9 14  0 58  0.0000000  0 11G15G30G28G13G20G17G19G24G18G10G05
 107204161.352 8  83535743.46647  20400269.281                    20400273.801
        50.800          43.800
 131609416.644 6 102552862.29542  25044437.742                    25044444.453
        37.600          17.400
 117532750.268 8  91583902.72245  22365711.680                    22365714.590
        48.000          31.800
 108202565.811 8  84313772.31246  20590265.398                    20590268.734
        48.700          39.200
 116979034.112 7  91152524.70945  22260370.656                    22260373.703
        47.500          33.100
 124995173.197 7  97398871.10344  23785793.000                    23785796.953
        44.500          29.800
 129152004.441 6 100637947.29343  24576812.719                    24576813.863
        38.100          22.200
 114197422.658 7  88985073.80946  21731052.734                    21731059.152
        47.000          36.500
 122014871.409 7  95076561.11444  23218662.602                    23218666.359
        42.100          26.400
 131281654.459 6 102297447.54143  24982075.328                    24982080.074
        39.800          21.300
 131086557.450 6 102145400.57743  24944944.133                    24944950.066
        36.300          19.600
 16  9 14  0 58 30.0000000  0 11G15G30G28G13G20G17G19G24G18G10G05
 107197233.317 8  83530344.99847  20398951.055                    20398955.531
        50.500          43.900
 131707570.790 6 102629345.98542  25063115.922                    25063122.789
        37.700          17.800
 117600732.792 7  91636876.11945  22378648.188                    22378651.367
        47.200          31.800
 108250539.585 8  84351154.45346  20599393.992                    20599398.086
        48.800          38.500
 117050466.192 7  91208186.05145  22273963.820                    22273966.797
        47.800          33.100
 124925665.902 7  97344709.59245  23772566.266                    23772569.785
        44.800          30.700
 129048450.468 6 100557255.89943  24557106.984                    24557108.891
        38.700          22.200
 114126911.804 7  88930130.29545  21717634.836                    21717641.379
        46.600          35.700
 121974457.371 6  95045069.65344  23210972.234                    23210975.152
        41.900          27.400
 131195406.878 6 102230241.64443  24965661.523                    24965669.324
        38.400          21.700
 131198013.048 6 102232249.10143  24966154.453                    24966158.273
        37.300          20.600
 16  9 14  0 59  0.0000000  0 11G15G30G28G13G20G17G19G24G18G10G05
 107190808.095 8  83525338.32247  20397728.555                    20397732.645
        51.000          44.600
 131805736.092 6 102705838.36043  25081795.844                    25081804.145
        37.500          18.300
 117669058.302 8  91690116.78445  22391650.133                    22391653.676
        48.800          32.400
 108298960.784 8  84388885.23846  20608608.063                    20608611.777
        49.100          38.100
 117122310.872 7  91264168.90145  22287635.430                    22287638.707
        47.000          32.300
 124856488.676 7  97290805.28845  23759402.133                    23759406.328
        44.200          30.300
 128945005.863 6 100476649.73043  24537422.359                    24537423.645
        40.500          22.300
 114056661.593 7  88875389.87345  21704266.773                    21704273.426
        47.000          35.800
 121934521.131 7  95013950.51144  23203371.938                    23203375.566
        42.900          27.900
 131109500.386 6 102163301.51043  24949314.688                    24949321.871
        39.400          22.900
 131309440.488 6 102319075.66043  24987358.125                    24987362.480
        37.700          20.900
 16  9 14  0 59 30.0000000  0 11G15G30G28G13G20G17G19G24G18G10G05
 107184886.562 8  83520724.13747  20396601.922                    20396605.586
        51.700          44.300
 131903911.873 6 102782338.92642  25100478.367                    25100486.207
        37.400          17.800
 117737724.542 8  91743622.94445  22404717.430                    22404720.176
        49.200          32.500
 108347829.271 8  84426964.56346  20617907.695                    20617910.887
        49.300          37.900
 117194565.680 7  91320471.32045  22301384.500                    22301388.004
        47.100          33.100
 124787644.468 7  97237160.49044  23746301.055                    23746305.270
        43.900          29.600
 128841674.054 6 100396131.47143  24517758.430                    24517761.688
        39.800          22.200
 113986673.627 7  88820853.80745  21690948.406                    21690954.656
        47.200          35.000
 121895063.687 7  94983204.44844  23195862.930                    23195866.355
        42.000          26.200
 131023937.753 6 102096629.30643  24933033.359                    24933039.219
        39.700          22.800
 131420837.785 6 102405878.71943  25008556.414                    25008560.418
        37.400          20.600
                            4  1
RINEX FILE SPLICE; other post-header comments skipped       COMMENT
 16  9 14  1  0  0.0000000  0 11G15G30G28G13G20G17G19G24G18G10G05
 107179470.027 8  83516503.45647  20395571.391                    20395573.902
        51.100          43.800
 132002097.704 6 102858847.33243  25119162.750                    25119170.160
        37.500          18.600
 117806730.099 8  91797393.52245  22417848.539                    22417851.879
        49.500          32.100
 108397144.752 8  84465392.19746  20627292.055                    20627295.141
        49.700          37.500
 117267228.233 7  91377091.46745  22315211.992                    22315215.492
        46.700          32.200
 124719135.866 7  97183777.18445  23733264.711                    23733268.969
        44.700          30.400
 128738458.925 6 100315704.10043  24498117.227                    24498120.547
        38.800          23.800
 113916948.321 7  88766522.41145  21677679.906                    21677686.047
        47.800          34.900
 121856086.644 7  94952832.74544  23188446.133                    23188449.383
        42.000          26.400
 130938721.930 6 102030227.37643  24916815.711                    24916823.355
        37.200          21.100
 131532202.310 6 102492656.29443  25029747.945                    25029752.953
        38.600          20.400
 16  9 14  1  0 30.0000000  0 11G15G30G28G13G20G17G19G24G18G10G05
 107174559.007 8  83512676.67547  20394636.305                    20394639.969
        52.000          44.100
 132100292.812 6 102935362.93843  25137848.430                    25137857.023
        38.100          19.000
 117876072.598 8  91851426.63745  22431043.781                    22431046.953
        49.000          32.700
 108446906.485 8  84504167.56046  20636761.625                    20636764.570
        49.800          37.700
 117340295.330 7  91434026.84645  22329115.547                    22329119.563
        46.300          32.100
 124650965.629 7  97130657.55445  23720292.070                    23720296.516
        44.300          30.100
 128635363.870 6 100235370.28844  24478499.070                    24478502.191
        40.400          24.500
 113847486.609 7  88712396.41745  21664461.922                    21664467.535
        47.900          35.500
 121817590.953 7  94922836.09744  23181121.156                    23181124.410
        43.100          28.300
 130853855.167 5 101964097.49043  24900665.969                    24900673.410
        35.900          21.300
 131643531.530 6 102579406.31943  25050932.883                    25050938.184
        37.700          19.000
 16  9 14  1  1  0.0000000  0 10G15G28G13G20G17G19G24G18G10G05
 107170153.548 8  83509243.85247  20393798.070                    20393801.980
        50.300          43.600
 117945749.527 7  91905720.37145  22444302.633                    22444305.832
        47.500          32.000
 108497113.692 8  84543290.03846  20646315.938                    20646318.703
        49.900          38.200
 117413764.414 7  91491275.46945  22343097.508                    22343100.191
        46.700          31.300
 124583136.081 7  97077803.37645  23707384.680                    23707389.223
        43.300          30.700
 128532391.824 6 100155132.35744  24458904.852                    24458907.801
        41.400          25.000
 113778289.021 7  88658476.24146  21651294.086                    21651299.949
        45.900          36.000
 121779577.702 7  94893215.39044  23173887.500                    23173890.430
        43.200          27.400
 130769339.953 6 101898241.49443  24884583.438                    24884589.918
        37.300          20.100
 131754822.200 6 102666126.33643  25072111.508                    25072116.145
        40.200          19.900
 16  9 14  1  1 30.0000000  0 10G15G28G13G20G17G19G24G18G10G05
 107166255.127 8  83506206.11747  20393056.227                    20393060.246
        50.300          43.800
 118015759.135 7  91960273.31145  22457624.570                    22457628.824
        47.000          31.800
 108547766.467 8  84582759.73346  20655954.289                    20655957.750
        49.100          37.300
 117487633.059 7  91548835.45445  22357153.734                    22357156.695
        45.300          31.500
 124515650.622 7  97025217.31844  23694542.422                    23694547.371
        42.700          29.100
 128429546.486 6 100074993.14144  24439332.625                    24439336.273
        41.300          25.400
 113709356.446 8  88604762.55746  21638177.125                    21638183.234
        48.500          36.900
 121742048.574 7  94863971.90244  23166746.039                    23166749.105
        44.500          28.800
 130685179.370 5 101832661.81243  24868567.922                    24868574.086
        35.300          18.600
 131866073.057 6 102752815.31643  25093281.992                    25093286.383
        39.400          19.900
 16  9 14  1  2  0.0000000  0 10G15G28G13G20G17G19G24G18G10G05
 107162863.938 8  83503563.61847  20392410.813                    20392414.992
        51.200          43.600
 118086099.100 7  92015083.66545  22471010.172                    22471013.695
        47.900          31.900
 108598863.799 8  84622575.81846  20665677.492                    20665682.180
        48.900          37.400
 117561898.390 7  91606704.52545  22371285.625                    22371289.492
        46.800          31.500
 124448511.511 7  96972901.15744  23681765.922                    23681771.250
        43.600          29.600
 128326831.200 6  99994955.32044  24419786.836                    24419790.406
        40.500          24.900
 113640689.521 8  88551255.87646  21625110.117                    21625116.090
        48.500          37.000
 121705004.159 7  94835106.11244  23159696.688                    23159700.047
        44.300          28.500
 130601375.601 6 101767360.16243  24852622.477                    24852627.152
        39.700          20.900
 131977280.779 6 102839470.64943  25114444.281                    25114448.887
        38.900          18.300
 16  9 14  1  2 30.0000000  0 10G15G28G13G20G17G19G24G18G10G05
 107159980.245 8  83501316.59247  20391862.289                    20391865.855
        51.300          43.200
 118156767.259 7  92070149.76345  22484457.734                    22484461.293
        47.700          31.300
 108650405.001 8  84662737.78446  20675485.820                    20675490.145
        49.200          37.600
 117636557.396 7  91664880.35445  22385493.336                    22385496.668
        47.500          32.000
 124381720.725 7  96920856.42244  23669056.406                    23669061.039
        43.200          29.400
 128224248.948 6  99915021.09143  24400265.773                    24400269.070
        41.500          22.800
 113572288.979 8  88497956.75546  21612094.461                    21612100.078
        48.300          36.900
 121668445.961 7  94806619.19244  23152740.609                    23152742.785
        44.900          27.400
 130517931.236 6 101702338.52643  24836744.258                    24836747.906
        38.900          21.800
 132088443.102 6 102926090.61543  25135597.375                    25135601.996
        38.800          19.000
 16  9 14  1  3  0.0000000  0 10G15G28G13G20G17G19G24G18G10G05
 107157604.799 8  83499465.59047  20391409.672                    20391413.895
        49.100          43.800
 118227761.126 7  92125469.65345  22497967.242                    22497970.848
        47.200          31.300
 108702389.514 8  84703245.17046  20685378.047                    20685382.523
        49.800          38.600
 117711607.399 7  91723360.85545  22399774.742                    22399777.813
        47.600          32.400
 124315281.706 7  96869085.77944  23656412.828                    23656418.047
        44.600          29.800
 128121803.498 6  99835193.50843  24380771.500                    24380773.684
        41.700          23.600
 113504155.341 8  88444865.62846  21599128.281                    21599134.910
        48.700          36.800
 121632374.765 7  94778511.77644  23145876.055                    23145878.648
        45.200          28.300
 130434848.499 6 101637598.76443  24820931.188                    24820938.883
        36.700          20.600
 132199557.801 6 103012673.47942  25156741.258                    25156745.383
        37.300          17.400
 16  9 14  1  3 30.0000000  0 10G15G28G13G20G17G19G24G18G10G05
 107155738.091 8  83498011.00147  20391055.086                    20391059.070
        50.700          43.600
 118299078.597 7  92181041.70745  22511539.195                    22511542.188
        47.300          30.900
 108754816.382 8  84744097.25446  20695355.008                    20695359.102
        49.800          38.200
 117787045.719 7  91782143.94345  22414129.766                    22414133.117
        46.600          30.600
 124249196.835 7  96817591.11344  23643837.719                    23643842.035
        42.500          29.300
 128019497.906 7  99755474.88144  24361304.297                    24361306.094
        43.700          25.400
 113436289.098 8  88391982.84846  21586214.164                    21586220.063
        48.400          36.200
 121596791.816 7  94750784.80644  23139104.906                    23139107.680
        44.500          28.100
 130352130.219 6 101573143.01543  24805191.648                    24805198.645
        37.600          20.900
 132310622.274 6 103099217.23942  25177876.039                    25177880.137
        37.400          16.300
 16  9 14  1  4  0.0000000  0 10G15G28G13G20G17G19G24G18G10G05
 107154381.087 8  83496953.58947  20390796.977                    20390800.660
        51.500          44.100
 118370717.801 8  92236864.45545  22525171.555                    22525174.641
        48.100          31.600
 108807685.466 8  84785293.92946  20705415.555                    20705419.375
        49.500          37.600
 117862869.697 7  91841227.54045  22428558.852                    22428562.324
        46.200          30.900
 124183468.894 7  96766374.57845  23631330.539                    23631334.824
        43.800          30.300
 127917336.077 7  99675868.24944  24341863.430                    24341865.145
        43.200          26.200
 113368691.762 7  88339309.60746  21573350.203                    21573356.672
        47.500          36.600
 121561698.115 7  94723439.06044  23132426.578                    23132429.645
        43.600          29.000
 130269779.097 6 101508973.29343  24789520.773                    24789527.590
        38.300          22.600
 132421633.986 6 103185719.89743  25199001.070                    25199005.195
        36.300          18.600
 16  9 14  1  4 30.0000000  0 10G15G28G13G20G17G19G24G18G10G05
 107153534.285 8  83496293.73947  20390635.594                    20390639.453
        50.300          43.000
 118442676.688 8  92292936.30745  22538865.148                    22538868.066
        48.000          31.600
 108860996.236 8  84826834.77346  20715559.922                    20715563.699
        49.400          37.200
 117939076.503 7  91900609.44645  22443060.109                    22443064.488
        45.700          30.400
 124118100.392 7  96715438.10244  23618890.367                    23618895.414
        44.100          29.300
 127815321.224 7  99596376.20644  24322449.781                    24322453.668
        42.400          26.700
 113301363.765 7  88286846.23546  21560538.086                    21560544.672
        47.300          36.000
 121527095.197 7  94696475.76344  23125842.453                    23125845.367
        44.100          28.600
 130187797.612 6 101445091.64643  24773921.422                    24773926.902
        40.200          22.500
 132532590.366 6 103272179.38142  25220115.641                    25220119.781
        36.900          17.800
 16  9 14  1  5  0.0000000  0 10G15G28G13G20G17G19G24G18G10G05
 107153197.840 8  83496031.56947  20390571.227                    20390575.367
        49.600          44.400
 118514952.661 8  92349255.24545  22552618.531                    22552621.496
        48.000          32.500
 108914747.489 8  84868718.86346  20725789.086                    20725792.457
        49.700          38.500
 118015663.205 7  91960287.36445  22457633.555                    22457637.746
        45.000          31.300
 124053093.795 7  96664783.65845  23606520.406                    23606524.875
        43.900          30.400
 127713456.643 7  99517001.20444  24303065.906                    24303069.398
        43.400          27.800
 113234305.942 7  88234593.39946  21547777.055                    21547784.027
        47.100          37.300
 121492983.603 7  94669895.30544  23119350.578                    23119353.738
        43.100          28.700
 130106188.152 6 101381499.84844  24758391.414                    24758398.129
        41.300          24.500
 132643488.917 5 103358593.82342  25241218.773                    25241222.047
        35.800          17.400
 16  9 14  1  5 30.0000000  0 10G15G28G13G20G17G19G24G18G10G05
 107153372.866 8  83496167.95447  20390604.391                    20390608.680
        49.500          44.300
 118587543.916 8  92405819.86445  22566432.281                    22566434.922
        48.600          33.100
 108968938.995 8  84910946.01046  20736101.344                    20736104.398
        50.400          38.300
 118092627.367 7  92020259.40345  22472280.492                    22472283.539
        45.100          30.600
 123988451.649 7  96614413.17645  23594219.555                    23594224.012
        43.800          31.200
 127611746.137 7  99437746.29044  24283710.477                    24283714.457
        43.100          28.200
 113167519.132 7  88182551.73746  21535068.883                    21535074.949
        46.200          37.100
 121459364.670 7  94643698.73944  23112952.469                    23112956.090
        42.900          29.000
 130024953.421 6 101318200.06243  24742932.508                    24742938.324
        40.400          23.900
 132754327.162 6 103444961.27342  25262310.969                    25262314.410
        36.700          17.800
 16  9 14  1  6  0.0000000  0 10G15G28G13G20G17G19G24G18G10G05
 107154059.522 8  83496703.00747  20390735.688                    20390739.480
        50.400          44.100
 118660447.804 8  92462628.07345  22580305.453                    22580308.703
        48.800          33.000
 109023569.978 8  84953515.58546  20746497.188                    20746499.883
        50.300          39.200
 118169965.900 7  92080523.18145  22486996.695                    22487000.645
        45.100          30.400
 123924176.925 7  96564328.99745  23581988.578                    23581993.285
        44.500          31.300
 127510192.764 7  99358613.80244  24264386.469                    24264389.961
        43.200          28.100
 113101003.647 7  88130721.50246  21522411.070                    21522416.863
        47.600          37.900
 121426239.417 7  94617886.85845  23106649.422                    23106652.535
        43.600          30.000
 129944095.839 6 101255194.16443  24727544.555                    24727550.668
        39.500          21.800
 132865103.231 6 103531280.28343  25283391.398                    25283394.871
        37.100          18.600
 16  9 14  1  6 30.0000000  0 10G15G28G13G20G17G19G24G18G10G05
 107155258.197 8  83497637.04047  20390963.734                    20390967.488
        50.900          44.600
 118733662.292 8  92519678.32245  22594237.758                    22594240.348
        49.100          32.300
 109078639.524 8  84996426.90046  20756976.406                    20756979.906
        50.200          38.400
 118247675.904 7  92141076.41945  22501785.086                    22501788.016
        45.400          31.100
 123860272.015 7  96514533.00145  23569827.523                    23569832.328
        44.100          31.300
 127408799.925 7  99279606.41144  24245092.109                    24245094.707
        43.600          27.400
 113034760.359 7  88079103.37146  21509805.961                    21509811.379
        47.100          37.600
 121393608.578 7  94592460.24744  23100439.961                    23100443.246
        43.600          29.000
 129863617.757 6 101192483.99743  24712231.086                    24712235.648
        40.400          22.200
 132975814.140 6 103617548.50942  25304458.648                    25304463.090
        36.600          16.900
 16  9 14  1  7  0.0000000  0 10G15G28G13G20G17G19G24G18G10G05
 107156969.875 8  83498970.80547  20391289.383                    20391292.930
        50.300          44.700
 118807185.582 8  92576969.20445  22608228.945                    22608231.590
        48.000          32.600
 109134147.284 8  85039679.68046  20767538.844                    20767542.742
        49.300          39.400
 118325754.897 7  92201917.17044  22516642.414                    22516646.094
        45.000          29.300
 123796739.478 7  96465027.15045  23557737.703                    23557743.090
        45.200          32.300
 127307571.306 7  99200726.98044  24225829.227                    24225831.102
        44.700          29.300
 112968790.244 7  88027698.10546  21497251.945                    21497257.313
        47.000          37.300
 121361473.427 7  94567419.86844  23094324.797                    23094328.055
        43.200          28.500
 129783522.018 7 101130071.72444  24696989.773                    24696995.117
        42.300          24.800
 133086457.859 6 103703764.40042  25325512.563                    25325518.109
        36.300          16.300
 16  9 14  1  7 30.0000000  0 10G15G28G13G20G17G19G24G18G10G05
 107159194.305 8  83500704.11947  20391712.586                    20391716.520
        50.200          44.300
 118881015.007 8  92634498.62645  22622278.063                    22622281.137
        48.200          32.200
 109190092.387 8  85083273.26246  20778185.102                    20778189.051
        49.200          38.900
 118404199.865 7  92263043.10544  22531569.984                    22531573.359
        45.300          29.700
 123733581.795 7  96415813.40245  23545720.320                    23545724.398
        46.500          32.800
 127206510.035 7  99121977.93144  24206597.492                    24206599.668
        44.500          28.100
 112903093.477 7  87976505.83946  21484750.055                    21484755.684
        47.400          37.500
 121329834.592 6  94542766.23544  23088303.781                    23088307.059
        41.700          27.700
 129703810.832 7 101067959.10344  24681821.313                    24681828.387
        42.800          24.100
 133197031.789 6 103789925.87442  25346555.141                    25346559.617
        37.700          16.900
 16  9 14  1  8  0.0000000  0 10G15G28G13G20G17G19G24G18G10G05
 107161932.162 8  83502837.51147  20392233.797                    20392237.758
        51.000          45.100
 118955148.583 8  92692265.05745  22636385.273                    22636388.484
        48.200          31.900
 109246473.945 8  85127206.93046  20788914.648                    20788918.395
        48.900          39.300
 118483007.876 7  92324451.92844  22546567.297                    22546570.086
        45.200          28.900
 123670801.318 7  96366893.57545  23533772.320                    23533777.270
        45.700          32.100
 127105619.536 7  99043361.96844  24187398.516                    24187401.320
        44.000          28.800
 112837671.012 7  87925527.31546  21472300.273                    21472306.027
        46.800          37.700
 121298693.528 7  94518500.46844  23082378.813                    23082380.863
        43.700          27.400
 129624486.576 6 101006148.02143  24666726.234                    24666733.750
        41.500          22.200
 133307533.175 6 103876030.82042  25367582.484                    25367587.344
        37.100          16.900
 16  9 14  1  8 30.0000000  0  9G15G28G13G20G17G19G24G18G10
 107165183.793 8  83505371.24347  20392852.297                    20392856.344
        50.800          44.600
 119029584.152 8  92750266.80445  22650549.641                    22650552.609
        48.300          32.300
 109303291.561 8  85171480.38546  20799726.664                    20799730.336
        49.800          39.200
 118562176.020 7  92386141.37144  22561632.125                    22561636.297
        44.900          29.200
 123608400.878 7  96318269.88045  23521898.148                    23521902.816
        43.700          31.200
 127004903.461 7  98964881.94944  24168232.719                    24168235.695
        43.900          28.700
 112772523.859 7  87874763.31246  21459903.336                    21459909.141
        45.200          37.600
 121268050.909 7  94494623.10244  23076547.313                    23076550.438
        43.400          28.200
 129545552.055 6 100944640.62943  24651704.977                    24651712.555
        40.800          22.300
 16  9 14  1  9  0.0000000  0  9G15G28G13G20G17G19G24G18G10
 107168950.496 8  83508306.33247  20393569.305                    20393572.645
        51.100          44.300
 119104319.753 8  92808502.34245  22664771.414                    22664774.457
        48.200          32.700
 109360544.592 8  85216093.11246  20810621.336                    20810625.195
        50.500          39.500
 118641702.022 7  92448109.66944  22576764.891                    22576769.652
        44.300          29.400
 123546383.329 7  96269944.55645  23510096.391                    23510101.082
        45.500          32.100
 126904365.443 7  98886540.66544  24149101.609                    24149104.547
        42.900          27.800
 112707652.830 7  87824214.46146  21447558.484                    21447564.652
        46.800          38.000
 121237907.683 7  94471134.86344  23070811.180                    23070814.133
        42.900          28.500
 129467009.915 6 100883438.95843  24636759.016                    24636765.859
        40.700          22.000
 16  9 14  1  9 30.0000000  0  9G15G28G13G20G17G19G24G18G10
 107173231.878 8  83511642.46947  20394383.891                    20394387.508
        50.300          44.900
 119179352.765 8  92866969.62445  22679049.898                    22679052.766
        48.200          33.000
 109418231.844 8  85261044.19146  20821598.914                    20821602.211
        49.500          38.300
 118721582.533 7  92510354.19845  22591966.250                    22591970.672
        45.100          30.200
 123484750.694 7  96221919.16645  23498367.531                    23498372.715
        44.200          31.900
 126804008.713 7  98808340.63844  24130003.984                    24130007.852
        44.600          29.200
 112643058.277 7  87773881.04346  21435266.508                    21435273.105
        45.800          38.100
 121208264.566 7  94448036.31644  23065169.922                    23065173.156
        43.900          27.200
 129388862.236 6 100822544.63643  24621888.430                    24621892.902
        41.600          20.600
 16  9 14  1 10  0.0000000  0  9G15G28G13G20G17G19G24G18G10
 107178028.212 8  83515379.86647  20395296.516                    20395300.766
        50.600          44.500
 119254681.182 8  92925667.09345  22693384.477                    22693388.031
        48.500          32.600
 109476352.823 8  85306333.24446  20832658.867                    20832662.234
        48.700          38.100
 118801814.519 7  92572872.62344  22607233.984                    22607238.242
        45.000          29.800
 123423505.533 7  96174195.70645  23486713.547                    23486717.723
        45.600          31.500
 126703836.656 7  98730284.52144  24110941.914                    24110945.395
        44.000          29.500
 112578741.242 7  87723763.87946  21423027.297                    21423033.805
        46.600          37.600
 121179122.809 7  94425328.45044  23059624.617                    23059627.699
        43.400          28.200
 129311111.502 6 100761959.63243  24607093.445                    24607097.895
        41.300          21.800
 16  9 14  1 10 30.0000000  0  9G15G28G13G20G17G19G24G18G10
 107183340.101 8  83519518.99647  20396307.383                    20396311.004
        49.600          44.300
 119330303.185 8  92984593.33445  22707774.727                    22707778.219
        48.100          32.300
 109534906.577 8  85351959.53646  20843801.133                    20843804.762
        49.100          37.700
 118882395.581 7  92635663.04644  22622568.617                    22622571.688
        45.000          29.600
 123362650.185 7  96126775.97745  23475132.664                    23475137.863
        45.400          31.700
 126603852.555 7  98652374.83244  24091915.492                    24091918.336
        43.600          29.300
 112514701.926 7  87673863.10946  21410841.578                    21410847.785
        46.800          37.800
 121150482.933 7  94403011.65744  23054174.945                    23054177.703
        42.800          27.100
 129233760.282 6 100701685.94943  24592373.297                    24592378.742
        41.300          20.100
 16  9 14  1 11  0.0000000  0  9G15G28G13G20G17G19G24G18G10
 107189167.896 8  83524060.12447  20397415.891                    20397420.141
        50.500          44.800
 119406216.293 7  93043746.40245  22722220.625                    22722224.070
        47.900          32.600
 109593892.137 8  85397922.30646  20855026.133                    20855029.953
        49.700          38.600
 118963322.687 7  92698723.10644  22637967.375                    22637971.195
        44.300          29.000
 123302187.390 7  96079662.13445  23463627.305                    23463631.680
        45.600          31.600
 126504060.140 7  98574614.52144  24072925.422                    24072928.504
        43.100          29.500
 112450941.511 7  87624179.71146  21398707.953                    21398714.605
        46.400          37.500
 121122345.798 7  94381086.59944  23048820.000                    23048822.770
        42.100          27.600
 129156811.023 7 100641725.47043  24577730.852                    24577737.277
        42.700          22.800
 16  9 14  1 11 30.0000000  0  9G15G28G13G20G17G19G24G18G10
 107195511.673 8  83529003.32747  20398623.563                    20398627.543
        51.000          43.900
 119482417.907 8  93103124.27445  22736720.742                    22736724.379
        48.000          31.700
 109653308.630 8  85444220.85546  20866332.578                    20866336.676
        48.800          39.500
 119044592.701 7  92762050.36644  22653433.242                    22653436.656
        45.000          29.300
 123242119.289 7  96032855.84545  23452196.883                    23452201.980
        45.600          31.600
 126404462.753 7  98497006.20044  24053972.313                    24053975.223
        43.000          28.500
 112387460.099 7  87574713.69446  21386628.219                    21386634.066
        45.900          37.400
 121094712.342 7  94359554.02544  23043562.461                    23043563.750
        42.800          26.700
 129080265.939 7 100582079.92343  24563164.586                    24563171.305
        42.600          22.200
 16  9 14  1 12  0.0000000  0  9G15G28G13G20G17G19G24G18G10
 107202372.189 8  83534349.18247  20399929.063                    20399932.941
        50.800          44.600
 119558906.251 7  93162725.57945  22751276.391                    22751279.434
        47.300          32.400
 109713155.978 8  85490855.13646  20877720.734                    20877725.055
        50.200          39.900
 119126203.237 7  92825642.95344  22668963.367                    22668967.398
        44.700          29.200
 123182448.558 7  95986359.21845  23440842.109                    23440846.527
        45.400          31.900
 126305063.925 7  98419552.59044  24035056.602                    24035059.684
        42.600          27.400
 112324259.063 7  87525466.15446  21374601.258                    21374607.211
        46.700          37.100
 121067583.353 7  94338414.56144  23038399.773                    23038401.625
        44.300          25.900
 129004127.695 6 100522751.41143  24548674.680                    24548682.129
        41.800          22.200
 16  9 14  1 12 30.0000000  0  9G15G28G13G20G17G19G24G18G10
 107209749.493 8  83540097.72047  20401332.859                    20401337.176
        51.400          44.700
 119635679.127 7  93222548.59045  22765885.336                    22765889.496
        46.600          31.900
 109773432.956 8  85537824.18646  20889191.320                    20889195.168
        49.500          38.900
 119208150.952 7  92889498.29644  22684557.844                    22684561.766
        44.100          29.600
 123123177.753 7  95940174.19145  23429563.602                    23429567.711
        46.200          32.700
 126205867.017 7  98342256.30044  24016180.602                    24016183.555
        42.800          27.300
 112261339.125 7  87476437.64646  21362628.094                    21362634.266
        47.000          37.200
 121040959.677 7  94317668.81844  23033333.508                    23033335.652
        42.400          26.900
 128928398.604 7 100463741.72843  24534265.008                    24534270.762
        42.000          21.700
 16  9 14  1 13  0.0000000  0  9G15G28G13G20G17G19G24G18G10
 107217644.161 8  83546249.40147  20402835.594                    20402839.234
        51.200          44.700
 119712734.224 7  93282591.51845  22780548.523                    22780552.277
        46.400          31.800
 109834138.539 8  85585127.20946  20900743.125                    20900747.156
        49.000          38.200
 119290433.098 7  92953614.21744  22700215.000                    22700219.418
        44.300          29.000
 123064309.268 7  95894302.66945  23418361.016                    23418365.840
        46.300          33.300
 126106875.483 7  98265120.05044  23997343.602                    23997346.852
        44.100          28.700
 112198700.851 7  87427628.61046  21350708.227                    21350714.477
        47.200          37.200
 121014842.304 7  94297317.61044  23028363.430                    23028365.945
        42.400          26.000
 128853081.202 7 100405052.81044  24519932.773                    24519939.148
        43.800          24.900
 16  9 14  1 13 30.0000000  0  9G15G28G13G20G17G19G24G18G10
 107226056.628 8  83552804.56547  20404436.273                    20404439.707
        51.800          44.500
 119790069.558 7  93342852.81545  22795264.930                    22795268.828
        47.300          32.400
 109895272.216 8  85632763.81246  20912376.328                    20912380.734
        49.500          38.100
 119373046.861 7  93017988.56344  22715935.984                    22715940.109
        44.500          28.900
 123005845.503 7  95848746.51745  23407235.914                    23407239.598
        46.500          33.000
 126008093.103 7  98188146.77344  23978545.516                    23978549.227
        43.000          29.800
 112136344.970 7  87379039.60946  21338842.406                    21338848.676
        46.600          37.500
 120989231.716 7  94277361.31544  23023489.961                    23023493.086
        43.400          27.000
 128778177.922 7 100346686.56043  24505679.461                    24505686.207
        42.700          23.400
 16  9 14  1 14  0.0000000  0  9G15G28G13G20G17G19G24G18G10
 107234986.573 8  83559762.96547  20406135.578                    20406139.184
        51.700          44.500
 119867682.775 7  93403330.64245  22810035.195                    22810038.180
        47.600          32.100
 109956832.540 8  85680732.89246  20924091.172                    20924095.449
        49.200          38.400
 119455989.171 7  93082618.92844  22731719.734                    22731723.320
        45.900          29.100
 122947788.708 7  95803507.47645  23396187.375                    23396191.883
        46.300          32.400
 125909523.007 7  98111338.94945  23959788.234                    23959792.586
        44.100          30.400
 112074272.147 7  87330671.17946  21327030.617                    21327036.379
        47.300          37.700
 120964128.400 7  94257800.28344  23018712.688                    23018716.344
        43.900          26.700
 128703690.907 7 100288644.73543  24491504.297                    24491511.176
        42.200          23.000
 16  9 14  1 14 30.0000000  0  9G15G28G13G20G17G19G24G18G10
 107244434.198 8  83567124.73947  20407933.094                    20407936.762
        51.400          44.600
 119945571.664 8  93464023.28345  22824856.375                    22824859.813
        48.400          32.700
 110018819.268 8  85729034.21646  20935886.711                    20935890.813
        49.500          39.600
 119539257.120 7  93147503.02445  22747565.500                    22747567.840
        46.200          30.000
 122890141.167 7  95758587.33945  23385217.906                    23385222.355
        45.200          32.000
 125811168.682 7  98034699.22744  23941072.000                    23941075.391
        44.400          29.300
 112012482.679 7  87282523.55546  21315272.320                    21315277.957
        46.400          37.600
 120939533.200 7  94238635.21044  23014032.242                    23014035.832
        43.600          26.600
 128629622.500 7 100230929.07744  24477409.625                    24477417.719
        42.100          24.500
 16  9 14  1 15  0.0000000  0  9G15G28G13G20G17G19G24G18G10
 107254400.377 8  83574890.59347  20409829.633                    20409833.535
        51.200          44.500
 120023734.221 8  93524929.17545  22839730.828                    22839733.742
        48.500          33.100
 110081231.347 8  85777666.99246  20947763.602                    20947767.531
        49.800          39.200
 119622847.830 7  93212638.64844  22763471.617                    22763474.539
        45.600          28.500
 122832905.650 7  95713988.25445  23374326.031                    23374330.172
        46.600          32.100
 125713033.726 7  97958230.44744  23922397.563                    23922400.406
        42.300          29.500
 111950978.015 7  87234597.85746  21303568.109                    21303573.898
        47.600          38.200
 120915447.203 7  94219866.92244  23009448.820                    23009452.234
        42.700          26.500
 128555975.417 7 100173541.71944  24463395.039                    24463402.945
        43.400          24.200
 16  9 14  1 15 30.0000000  0  9G15G28G13G20G17G19G24G18G10
 107264884.636 8  83583060.14047  20411824.734                    20411828.836
        50.700          43.700
 120102167.929 8  93586046.35945  22854656.070                    22854658.996
        48.000          32.400
 110144067.788 8  85826630.44346  20959720.891                    20959724.711
        49.300          38.200
 119706758.100 7  93278023.27344  22779439.492                    22779442.695
        45.200          28.400
 122776084.257 7  95669711.87745  23363513.172                    23363517.059
        46.200          32.500
 125615121.294 7  97881935.06145  23903765.953                    23903768.410
        43.300          30.000
 111889758.208 7  87186894.12546  21291918.445                    21291924.137
        47.600          38.400
 120891870.898 7  94201495.77444  23004962.602                    23004965.164
        44.100          27.300
 128482751.696 7 100116484.26543  24449460.422                    24449466.816
        42.000          22.900
 16  9 14  1 16  0.0000000  0  9G15G28G13G20G17G19G24G18G10
 107275887.521 8  83591633.81547  20413918.563                    20413922.176
        51.200          44.400
 120180870.892 8  93647373.34545  22869632.914                    22869635.863
        48.300          32.800
 110207327.656 8  85875923.83046  20971758.320                    20971762.410
        48.600          37.300
 119790985.271 7  93343654.83044  22795467.367                    22795471.262
        46.200          29.700
 122719679.295 7  95625759.97745  23352779.656                    23352783.824
        47.000          32.700
 125517435.178 7  97805816.02444  23885176.141                    23885179.195
        43.000          28.800
 111828824.457 7  87139413.28746  21280323.086                    21280328.930
        47.800          38.700
 120868804.685 7  94183522.10444  23000573.133                    23000576.145
        44.700          27.800
 128409953.783 7 100059758.62844  24435608.680                    24435613.797
        42.100          24.700
 16  9 14  1 16 30.0000000  0  9G15G28G13G20G17G19G24G18G10
 107287409.059 8  83600611.62247  20416111.547                    20416114.977
        51.700          43.700
 120259840.701 7  93708908.25845  22884660.242                    22884663.008
        47.900          31.600
 110271009.626 8  85925546.12746  20983876.805                    20983880.973
        49.400          37.600
 119875526.481 7  93409531.08245  22811555.594                    22811558.512
        46.700          31.000
 122663693.025 7  95582134.34145  23342125.617                    23342129.887
        46.300          32.800
 125419978.471 7  97729875.75744  23866631.133                    23866633.633
        44.100          29.400
 111768177.310 7  87092155.78046  21268782.242                    21268788.641
        47.500          38.200
 120846249.200 7  94165946.39744  22996281.406                    22996285.059
        44.100          27.200
 128337583.938 7 100003366.48444  24421837.063                    24421843.379
        43.800          26.000
 16  9 14  1 17  0.0000000  0  9G15G28G13G20G17G19G24G18G10
 107299449.471 8  83609993.76347  20418402.195                    20418406.332
        51.100          44.500
 120339075.231 7  93770649.43545  22899737.961                    22899740.992
        47.600          31.200
 110335113.037 8  85975496.79946  20996075.484                    20996079.406
        49.600          37.900
 119960378.523 7  93475649.54045  22827702.047                    22827705.738
        46.300          30.900
 122608127.991 7  95538836.93645  23331552.641                    23331556.281
        46.700          32.600
 125322754.822 7  97654117.08644  23848129.844                    23848133.383
        43.200          29.100
 111707817.139 7  87045121.89246  21257295.656                    21257302.414
        47.300          37.800
 120824205.082 7  94148769.15244  22992086.094                    22992088.922
        44.100          26.900
 128265644.471 7  99947309.73444  24408146.914                    24408154.180
        43.300          27.300
 16  9 14  1 17 30.0000000  0  9G15G28G13G20G17G19G24G18G10
 107312009.244 8  83619780.58147  20420792.352                    20420796.012
        51.100          43.800
 120418572.516 8  93832595.37545  22914865.711                    22914868.223
        48.600          31.500
 110399637.426 8  86025775.51346  21008354.141                    21008358.020
        49.800          38.100
 120045538.590 7  93542008.02245  22843907.055                    22843911.418
        45.900          31.000
 122552986.516 7  95495869.58845  23321059.180                    23321063.340
        46.500          32.800
 125225767.995 7  97578542.94144  23829673.859                    23829677.023
        43.100          29.100
 111647744.990 7  86998312.42246  21245864.555                    21245871.027
        47.900          37.300
 120802673.254 7  94131991.08444  22987988.914                    22987991.852
        44.700          26.000
 128194137.889 7  99891590.33044  24394540.367                    24394546.910
        43.700          28.600
 16  9 14  1 18  0.0000000  0  9G15G28G13G20G17G19G24G18G10
 107325088.048 8  83629971.85147  20423281.352                    20423284.762
        51.400          43.800
 120498330.055 7  93894744.10145  22930042.969                    22930046.371
        47.200          30.700
 110464581.081 8  86076380.93846  21020712.461                    21020716.266
        49.800          38.300
 120131003.624 7  93608604.13445  22860170.797                    22860174.867
        45.500          30.700
 122498270.612 7  95453233.85245  23310646.992                    23310651.430
        46.400          32.300
 125129021.006 7  97503155.70344  23811264.695                    23811266.820
        44.300          29.800
 111587961.552 7  86951727.94346  21234488.266                    21234494.918
        47.900          38.000
 120781654.166 7  94115612.57944  22983988.555                    22983991.746
        44.600          26.500
 128123066.293 7  99836209.86444  24381016.070                    24381022.770
        45.500          28.100
 16  9 14  1 18 30.0000000  0  9G15G28G13G20G17G19G24G18G10
 107338686.460 8  83640568.00247  20425869.117                    20425872.398
        51.900          43.900
 120578345.849 7  93957094.06245  22945269.586                    22945272.992
        46.700          31.400
 110529943.658 8  86127312.80346  21033150.625                    21033154.734
        50.100          37.900
 120216770.799 7  93675435.67545  22876491.992                    22876494.938
        45.100          30.000
 122443982.822 7  95410931.70545  23300317.016                    23300320.754
        46.500          32.700
 125032517.806 7  97427958.41844  23792900.148                    23792903.133
        43.200          29.800
 111528467.426 8  86905368.89746  21223166.930                    21223173.250
        48.200          38.400
 120761148.486 7  94099634.11544  22980087.023                    22980089.082
        43.900          26.200
 128052432.148 7  99781170.26744  24367573.258                    24367580.789
        43.800          26.400
 16  9 14  1 19  0.0000000  0  9G15G28G13G20G17G19G24G18G10
 107352804.166 8  83651568.80547  20428555.422                    20428558.848
        51.400          44.200
 120658617.853 7  94019643.66245  22960544.766                    22960548.410
        47.500          31.600
 110595724.071 8  86178570.27046  21045668.234                    21045672.117
        50.200          37.300
 120302837.093 7  93742500.30444  22892869.039                    22892872.211
        44.800          29.900
 122390125.301 7  95368964.83545  23290067.641                    23290072.391
        46.900          32.100
 124936261.380 7  97352953.43244  23774583.758                    23774586.125
        43.600          29.300
 111469263.463 8  86859235.95746  21211901.227                    21211907.430
        48.700          39.500
 120741156.482 7  94084055.93044  22976282.516                    22976284.789
        44.500          26.400
 127982237.722 7  99726473.33144  24354216.781                    24354223.031
        42.800          28.300
 16  9 14  1 19 30.0000000  0  9G15G28G13G20G17G19G24G18G10
 107367440.853 8  83662974.00847  20431340.773                    20431344.672
        51.100          44.200
 120739143.536 7  94082390.93744  22975868.063                    22975870.699
        47.300          29.400
 110661920.998 8  86230152.28946  21058265.164                    21058268.832
        50.700          37.600
 120389199.306 7  93809795.51045  22909303.883                    22909306.859
        45.400          30.300
 122336700.250 7  95327334.93845  23279901.180                    23279905.871
        46.600          32.100
 124840255.190 7  97278143.45544  23756314.055                    23756317.512
        43.400          29.100
 111410350.132 8  86813329.46846  21200690.492                    21200696.680
        49.900          40.100
 120721678.651 7  94068878.40444  22972576.227                    22972578.625
        44.000          26.800
 127912485.023 7  99672120.55844  24340944.070                    24340948.980
        45.100          28.400
 16  9 14  1 20  0.0000000  0  9G15G28G13G20G17G19G24G18G10
 107382597.132 8  83674784.08747  20434224.727                    20434228.582
        51.100          44.000
 120819920.799 8  94145334.25545  22991239.828                    22991242.871
        48.300          31.000
 110728533.551 8  86282058.14246  21070941.383                    21070944.559
        50.800          38.100
 120475854.736 7  93877319.19745  22925793.469                    22925797.203
        45.400          31.200
 122283710.039 8  95286043.87845  23269817.703                    23269821.918
        48.000          33.500
 124744502.773 7  97203531.19144  23738092.625                    23738095.777
        43.100          28.800
 111351728.299 8  86767650.13046  21189534.977                    21189541.355
        49.600          40.400
 120702715.748 7  94054102.09944  22968967.563                    22968969.805
        45.100          28.100
 127843176.517 7  99618113.89844  24327753.141                    24327760.512
        43.500          28.700
 16  9 14  1 20 30.0000000  0  9G15G28G13G20G17G19G24G18G10
 107398272.666 8  83686998.78947  20437207.773                    20437211.547
        51.100          43.900
 120900947.370 7  94208471.83445  23006658.672                    23006661.207
        47.200          31.300
 110795560.678 8  86334287.04246  21083695.945                    21083699.742
        50.400          37.200
 120562800.177 7  93945068.87145  22942339.383                    22942343.340
        45.700          31.800
 122231156.776 7  95245093.29445  23259817.250                    23259821.461
        47.800          33.100
 124649007.573 7  97129119.36944  23719919.930                    23719923.797
        42.600          28.900
 111293398.369 8  86722198.23346  21178435.203                    21178441.203
        49.400          39.700
 120684268.057 7  94039727.28544  22965457.211                    22965459.293
        45.400          27.300
 127774314.254 7  99564455.02944  24314650.164                    24314656.336
        42.200          28.900
 16  9 14  1 21  0.0000000  0  9G15G28G13G20G17G19G24G18G10
 107414468.331 8  83699618.78747  20440289.617                    20440293.652
        51.000          44.100
 120982221.575 7  94271802.38645  23022124.336                    23022127.391
        47.000          30.500
 110863001.691 8  86386838.46246  21096529.672                    21096533.164
        50.500          36.900
 120650033.028 7  94013042.48745  22958938.367                    22958942.598
        44.900          31.400
 122179042.883 7  95204485.08545  23249899.961                    23249904.355
        47.800          32.800
 124553773.327 7  97054910.90344  23701797.539                    23701800.914
        42.700          28.600
 111235361.492 8  86676974.69546  21167390.844                    21167396.715
        48.500          39.400
 120666336.278 7  94025754.44244  22962045.125                    22962047.410
        45.900          26.800
 127705901.168 7  99511146.09844  24301632.063                    24301637.910
        45.300          28.100
 16  9 14  1 21 30.0000000  0  9G15G28G13G20G17G19G24G18G10
 107431183.901 8  83712643.89647  20443470.742                    20443474.523
        51.700          44.500
 121063741.014 7  94335324.02145  23037637.031                    23037640.031
        47.500          30.900
 110930855.433 8  86439711.48046  21109441.016                    21109445.254
        50.000          37.200
 120737550.231 7  94081237.69044  22975592.938                    22975596.410
        45.300          29.700
 122127370.509 7  95164220.92145  23240067.094                    23240071.313
        47.300          32.900
 124458803.657 7  96980908.57744  23683725.047                    23683728.137
        42.900          28.500
 111177618.632 8  86631980.25746  21156402.813                    21156409.438
        48.900          39.400
 120648920.763 7  94012183.92744  22958731.000                    22958733.629
        45.300          28.900
 127637938.812 7  99458188.37844  24288698.063                    24288705.996
        42.900          29.100
 16  9 14  1 22  0.0000000  0  9G15G28G13G20G17G19G24G18G10
 107448419.105 8  83726073.91347  20446750.430                    20446754.449
        51.400          43.700
 121145503.755 7  94399035.24545  23053196.492                    23053199.383
        45.500          30.600
 110999120.513 8  86492905.03446  21122431.945                    21122436.363
        49.300          37.400
 120825348.521 7  94149651.92645  22992299.969                    22992303.617
        44.100          30.000
 122076141.634 8  95124302.34645  23230319.047                    23230323.047
        48.000          33.200
 124364101.761 7  96907114.90744  23665704.234                    23665707.012
        43.900          28.800
 111120169.715 8  86587214.88646  21145470.742                    21145476.949
        49.100          38.900
 120632021.844 7  93999015.92644  22955515.250                    22955518.043
        45.700          28.400
 127570429.563 7  99405583.83844  24275852.016                    24275858.863
        42.400          28.100
 16  9 14  1 22 30.0000000  0  9G15G28G13G20G17G19G24G18G10
 107466173.955 8  83739908.85847  20450129.000                    20450132.582
        51.400          43.800
 121227507.372 7  94462934.18745  23068800.711                    23068803.668
        46.300          30.900
 111067796.542 8  86546418.81946  21135500.852                    21135504.863
        49.800          37.400
 120913425.137 7  94218283.03744  23009060.414                    23009064.094
        44.300          29.800
 122025358.771 7  95084731.30245  23220654.781                    23220658.844
        47.400          32.800
 124269671.018 7  96833532.53344  23647734.633                    23647737.887
        42.900          28.700
 111063016.002 8  86542679.53346  21134594.180                    21134600.914
        49.100          38.900
 120615639.831 7  93986250.71344  22952397.711                    22952401.211
        46.000          28.900
 127503375.799 7  99353334.12644  24263092.898                    24263098.574
        42.500          27.100
 16  9 14  1 23  0.0000000  0  9G15G28G13G20G17G19G24G18G10
 107484448.246 8  83754148.55847  20453606.492                    20453610.480
        51.000          44.200
 121309749.462 7  94527018.93245  23084451.086                    23084454.266
        45.800          30.500
 111136881.938 8  86600251.57246  21148647.234                    21148651.676
        49.700          37.200
 121001776.832 7  94287128.50245  23025873.344                    23025877.324
        44.200          30.200
 121975023.598 7  95045509.12945  23211076.000                    23211080.391
        46.100          33.000
 124175514.717 7  96760164.01944  23629817.266                    23629820.336
        43.300          29.500
 111006157.751 8  86498374.41346  21123775.055                    21123781.082
        49.200          38.900
 120599775.349 7  93973888.76944  22949378.984                    22949382.031
        46.000          28.900
 127436779.352 7  99301440.76044  24250418.922                    24250424.918
        42.200          28.100
 16  9 14  1 23 30.0000000  0  9G15G28G13G20G17G19G24G18G10
 107503242.031 8  83768793.04447  20457182.703                    20457186.734
        51.300          44.000
 121392228.143 7  94591288.02045  23100145.406                    23100149.266
        44.700          30.200
 111206375.529 8  86654402.40146  21161871.422                    21161875.117
        50.300          36.700
 121090400.812 7  94356186.12444  23042737.742                    23042742.141
        43.400          29.600
 121925138.563 7  95006637.69345  23201583.047                    23201587.590
        47.300          33.200
 124081636.419 7  96687012.10645  23611953.148                    23611956.215
        44.600          30.200
 110949595.544 8  86454299.98246  21113011.398                    21113017.512
        49.500          38.900
 120584428.473 7  93961930.15844  22946458.461                    22946461.660
        46.600          29.200
 127370642.453 6  99249905.53644  24237834.945                    24237839.676
        41.800          26.600
 16  9 14  1 24  0.0000000  0  9G15G28G13G20G17G19G24G18G10
 107522555.535 8  83783842.52647  20460858.094                    20460862.066
        51.000          43.700
 121474941.288 7  94655739.80644  23115885.492                    23115889.449
        44.100          29.400
 111276276.596 8  86708870.74045  21175173.523                    21175176.715
        50.000          35.700
 121179294.145 7  94425453.62244  23059653.766                    23059657.063
        43.900          29.900
 121875705.728 7  94968118.60345  23192176.133                    23192181.258
        46.300          31.900
 123988039.803 7  96614079.70245  23594141.969                    23594145.348
        43.300          30.000
 110893330.487 8  86410457.09046  21102304.617                    21102310.980
        49.600          39.700
 120569600.061 7  93950375.54444  22943636.586                    22943640.020
        44.400          29.200
 127304967.579 7  99198730.27944  24225337.039                    24225341.672
        42.100          26.700
 16  9 14  1 24 30.0000000  0  9G15G28G13G20G17G19G24G18G10
 107542388.803 8  83799297.01047  20464632.633                    20464636.207
        50.800          44.200
 121557886.979 7  94720372.80944  23131669.648                    23131673.559
        44.500          29.400
 111346583.993 8  86763655.70445  21188552.242                    21188555.656
        49.300          35.200
 121268453.654 7  94494928.54844  23076621.109                    23076623.742
        43.900          29.900
 121826727.530 7  94929953.80845  23182856.047                    23182861.008
        45.900          32.100
 123894728.631 7  96541369.70345  23576385.750                    23576388.578
        44.300          31.400
 110837363.293 8  86366846.29746  21091654.602                    21091660.410
        50.200          40.500
 120555290.198 7  93939224.99944  22940913.570                    22940916.660
        45.100          27.500
 127239756.986 6  99147916.80844  24212926.250                    24212933.121
        39.800          25.800
 16  9 14  1 25  0.0000000  0  9G15G28G13G20G17G19G24G18G10
 107562741.274 8  83815156.07247  20468505.125                    20468509.176
        49.900          43.400
 121641062.434 7  94785184.85145  23147497.656                    23147500.648
        43.700          30.300
 111417296.419 8  86818756.27645  21202008.242                    21202012.195
        50.000          34.600
 121357876.372 7  94564608.57344  23093636.977                    23093640.457
        45.400          29.100
 121778205.480 7  94892144.43645  23173623.195                    23173627.242
        46.700          31.400
 123801705.948 7  96468884.51744  23558684.039                    23558687.078
        44.200          29.300
 110781694.124 8  86323467.72546  21081060.961                    21081066.977
        49.900          40.000
 120541498.985 7  93928478.58744  22938288.594                    22938291.973
        44.000          25.800
 127175012.347 6  99097466.48443  24200606.711                    24200613.113
        38.700          22.500
 16  9 14  1 25 30.0000000  0  9G15G28G13G20G17G19G24G18G10
 107583612.836 8  83831419.62247  20472477.156                    20472480.801
        51.400          44.000
 121724465.723 7  94850174.41244  23163368.414                    23163372.297
        44.700          29.100
 111488412.615 8  86874171.47645  21215541.703                    21215545.344
        50.200          35.800
 121447559.046 7  94634491.16244  23110703.016                    23110707.461
        45.600          28.800
 121730141.528 7  94854692.03045  23164477.172                    23164480.797
        47.600          32.300
 123708974.775 7  96396626.48644  23541037.258                    23541040.770
        43.900          29.300
 110726324.351 8  86280322.45046  21070524.641                    21070530.406
        49.300          39.200
 120528226.982 7  93918136.75844  22935762.727                    22935766.992
        43.600          24.700
 127110735.789 6  99047380.85643  24188375.383                    24188381.762
        40.300          23.900
 16  9 14  1 26  0.0000000  0  9G15G28G13G20G17G19G24G18G10
 107605003.707 8  83848087.82647  20476547.563                    20476551.246
        51.700          43.800
 121808094.949 7  94915340.01844  23179282.383                    23179286.262
        43.200          28.900
 111559931.840 8  86929900.71646  21229151.250                    21229155.777
        50.800          36.900
 121537498.795 7  94704574.06644  23127817.797                    23127822.137
        44.800          29.100
 121682538.564 7  94817598.85945  23155418.695                    23155422.785
        46.800          32.400
 123616539.015 7  96324598.64844  23523447.102                    23523450.609
        43.800          27.700
 110671254.081 8  86237410.55746  21060044.664                    21060051.031
        49.800          39.400
 120515474.484 7  93908199.74344  22933336.438                    22933339.574
        43.400          26.900
 127046929.889 6  98997661.98244  24176233.555                    24176239.293
        40.500          24.400
 16  9 14  1 26 30.0000000  0  9G15G28G13G20G17G19G24G18G10
 107626913.014 8  83865160.01047  20480716.992                    20480720.500
        51.900          43.800
 121891947.350 7  94980679.55844  23195238.711                    23195242.258
        44.100          27.500
 111631852.286 8  86985942.60446  21242837.547                    21242841.379
        50.800          37.000
 121627693.071 7  94774855.30144  23144981.453                    23144985.121
        44.200          29.000
 121635397.500 7  94780865.59145  23146447.305                    23146452.172
        46.600          31.600
 123524401.753 7  96252803.38044  23505914.273                    23505917.566
        43.200          28.900
 110616484.326 8  86194732.82946  21049622.492                    21049628.289
        49.800          38.800
 120503241.104 7  93898667.23244  22931008.172                    22931011.359
        43.700          25.300
 126983595.974 6  98948310.89443  24164182.648                    24164186.039
        40.600          23.300
 16  9 14  1 27  0.0000000  0  9G15G28G13G20G17G19G24G18G10
 107649341.336 8  83882636.61247  20484984.930                    20484988.715
        50.600          44.000
 121976021.600 7  95046191.95744  23211238.203                    23211241.594
        44.300          27.700
 111704173.403 8  87042296.68946  21256599.500                    21256603.613
        50.200          37.300
 121718138.246 7  94845332.03644  23162192.445                    23162196.320
        44.300          29.000
 121588721.322 7  94744494.57945  23137565.242                    23137569.598
        47.300          32.600
 123432566.919 7  96181243.79244  23488438.492                    23488442.098
        43.500          27.400
 110562015.716 8  86152289.75946  21039257.070                    21039263.348
        49.200          38.700
 120491527.643 7  93889539.84744  22928779.742                    22928782.371
        44.300          25.300
 126920736.862 6  98899329.75743  24152218.930                    24152224.113
        38.800          22.500
 16  9 14  1 27 30.0000000  0  9G15G28G13G20G17G19G24G18G10
 107672288.562 8  83900517.55347  20489351.320                    20489355.398
        51.000          42.500
 122060315.415 7  95111875.44544  23227278.891                    23227282.074
        44.900          28.100
 111776894.029 8  87098962.07746  21270437.836                    21270441.402
        49.500          36.300
 121808831.604 7  94916002.16544  23179450.969                    23179454.605
        43.500          28.000
 121542511.926 7  94708487.29045  23128772.039                    23128776.063
        47.000          32.600
 123341037.889 7  96109922.49244  23471021.391                    23471024.535
        44.500          28.200
 110507849.304 8  86110082.17646  21028949.922                    21028955.750
        50.500          39.200
 120480334.317 7  93880817.75944  22926650.578                    22926653.219
        45.600          26.400
 126858354.507 6  98850720.13643  24140347.875                    24140354.113
        37.900          22.800
 16  9 14  1 28  0.0000000  0  9G15G28G13G20G17G19G24G18G10
 107695753.880 8  83918802.21347  20493816.539                    20493820.539
        50.800          42.600
 122144826.221 7  95177728.02844  23243360.320                    23243363.848
        44.900          25.800
 111850012.826 8  87155937.75245  21284351.461                    21284355.961
        49.100          35.200
 121899769.844 7  94986863.10844  23196755.445                    23196759.387
        43.400          27.300
 121496770.892 7  94672844.94045  23120067.719                    23120071.656
        46.700          32.200
 123249817.854 7  96038841.96344  23453662.414                    23453665.793
        43.600          29.600
 110453984.967 8  86068109.97446  21018700.016                    21018705.617
        50.500          39.600
 120469660.981 7  93872500.86044  22924619.055                    22924622.082
        45.800          26.900
 126796450.605 6  98802483.35043  24128568.688                    24128575.297
        39.400          22.800
 16  9 14  1 28 30.0000000  0  9G15G28G13G20G17G19G24G18G10
 107719736.713 8  83937490.12247  20498380.281                    20498385.219
        50.400          42.900
 122229551.875 7  95243748.02444  23259483.250                    23259486.090
        45.700          26.800
 111923528.377 8  87213222.56845  21298340.844                    21298345.348
        49.300          34.900
 121990949.936 7  95057912.50744  23214106.633                    23214111.090
        42.900          28.100
 121451500.051 7  94637568.98245  23111452.898                    23111456.629
        46.400          33.200
 123158909.909 7  95968004.61544  23436364.367                    23436366.750
        44.600          28.900
 110400423.349 8  86026373.65746  21008507.563                    21008512.949
        50.700          40.200
 120459507.808 7  93864589.26244  22922687.375                    22922690.418
        45.600          28.100
 126735027.109 6  98754620.90944  24116880.898                    24116885.160
        40.100          24.000
 16  9 14  1 29  0.0000000  0  9G15G28G13G20G17G19G24G18G10
 107744237.911 8  83956581.95147  20503042.664                    20503046.727
        51.300          42.900
 122314490.573 7  95309934.02744  23275646.438                    23275649.801
        45.500          26.700
 111997439.532 8  87270815.65645  21312406.133                    21312410.137
        49.700          35.700
 122082369.201 7  95129148.29944  23231504.141                    23231507.746
        44.100          28.300
 121406701.855 7  94602661.33545  23102927.883                    23102932.148
        45.600          31.600
 123068318.208 7  95897413.72244  23419124.359                    23419127.691
        44.600          29.000
 110347165.999 8  85984874.43046  20998373.102                    20998378.711
        50.300          39.200
 120449875.187 7  93857083.30344  22920854.656                    22920857.180
        46.400          27.400
 126674086.555 7  98707134.78344  24105285.156                    24105288.625
        42.500          24.800
 16  9 14  1 29 30.0000000  0  9G15G28G13G20G17G19G24G18G10
 107769256.924 8  83976077.29147  20507803.633                    20507807.961
        51.000          42.900
 122399639.853 7  95376284.11444  23291850.492                    23291853.621
        46.900          28.700
 112071745.033 8  87328716.01945  21326546.484                    21326550.492
        50.300          35.600
 122174024.484 7  95200568.00244  23248944.383                    23248948.578
        43.300          28.600
 121362377.966 7  94568123.25945  23094493.422                    23094497.672
        45.900          32.700
 122978045.716 7  95827071.52644  23401946.758                    23401949.137
        45.700          29.700
 110294213.048 8  85943612.39246  20988296.180                    20988302.148
        50.000          40.000
 120440763.445 7  93849983.23344  22919120.625                    22919123.125
        45.900          27.500
 126613630.646 6  98660026.26544  24093779.328                    24093784.574
        41.700          25.300
 16  9 14  1 30  0.0000000  0  9G15G28G13G20G17G19G24G18G10
 107794793.816 8  83995976.14947  20512663.320                    20512666.961
        50.500          43.400
 122484998.281 7  95442797.16444  23308093.836                    23308096.758
        46.800          28.500
 112146444.585 8  87386923.43445  21340760.984                    21340765.082
        50.000          34.800
 122265912.814 7  95272169.28444  23266430.953                    23266434.266
        43.400          26.900
 121318530.759 7  94533956.62045  23086149.586                    23086154.016
        46.600          32.500
 122888096.378 7  95756981.16144  23384830.125                    23384832.965
        45.800          29.200
 110241565.402 8  85902588.25746  20978277.211                    20978283.480
        49.500          39.400
 120432172.522 7  93843288.98744  22917485.852                    22917488.801
        45.700          27.300
 126553661.796 6  98613297.30944  24082367.539                    24082373.422
        41.800          26.400
 16  9 14  1 30 30.0000000  0  9G15G28G13G20G17G19G24G18G10
 107820847.549 8  84016277.76147  20517621.180                    20517624.961
        50.500          43.300
 122570563.121 7  95509471.06044  23324375.984                    23324378.984
        47.200          29.300
 112221536.148 8  87445436.33145  21355050.141                    21355054.238
        49.900          35.100
 122358031.008 7  95343949.64644  23283960.883                    23283963.180
        43.500          25.900
 121275161.706 7  94500162.57345  23077896.953                    23077901.055
        46.400          33.200
 122798472.976 7  95687144.76645  23367774.453                    23367777.672
        44.200          30.000
 110189223.895 8  85861802.67846  20968317.398                    20968323.426
        49.300          40.200
 120424102.078 7  93837000.32844  22915949.594                    22915953.402
        44.600          26.600
 126494181.420 7  98566948.97244  24071048.703                    24071054.645
        43.000          26.800
 16  9 14  1 31  0.0000000  0  9G15G28G13G20G17G19G24G18G10
 107847417.757 8  84036981.80747  20522677.359                    20522681.348
        50.100          42.400
 122656332.234 7  95576304.12844  23340697.383                    23340700.441
        45.900          29.300
 112297018.310 8  87504253.57745  21369414.102                    21369418.270
        49.600          35.100
 122450375.896 7  95415906.67644  23301532.523                    23301536.203
        43.800          25.700
 121232272.636 7  94466742.53945  23069735.281                    23069739.156
        46.000          33.200
 122709178.958 7  95617565.01945  23350782.289                    23350785.141
        44.100          30.600
 110137188.363 8  85821255.51746  20958416.008                    20958421.566
        49.800          40.000
 120416552.290 7  93831117.36744  22914512.805                    22914516.113
        44.000          26.000
 126435191.526 7  98520982.81844  24059823.273                    24059829.461
        42.500          27.700
 16  9 14  1 31 30.0000000  0  9G15G28G13G20G17G19G24G18G10
 107874504.644 8  84058088.45847  20527831.680                    20527835.793
        50.000          43.000
 122742303.846 7  95643295.00045  23357057.367                    23357060.094
        45.800          30.000
 112372890.303 8  87563374.59545  21383852.367                    21383855.996
        48.200          34.700
 122542944.714 7  95488038.22344  23319148.375                    23319151.902
        42.800          25.300
 121189865.594 7  94433698.11645  23061665.414                    23061668.797
        45.800          33.300
 122620218.030 7  95548244.83245  23333853.852                    23333857.203
        45.000          31.500
 110085460.140 8  85780947.81646  20948572.281                    20948578.281
        50.000          40.200
 120409523.548 7  93825640.41344  22913175.258                    22913178.492
        43.900          25.700
 126376694.416 7  98475400.65244  24048692.688                    24048697.738
        43.600          27.800
 16  9 14  1 32  0.0000000  0  9G15G28G13G20G17G19G24G18G10
 107902107.465 8  84079597.14147  20533084.523                    20533088.305
        49.900          42.600
 122828475.551 7  95710441.78345  23373455.180                    23373457.988
        46.000          30.700
 112449150.275 8  87622797.92745  21398364.281                    21398368.203
        49.700          34.700
 122635734.296 7  95560341.77944  23336804.859                    23336809.469
        42.600          26.300
 121147942.258 7  94401030.60545  23053687.781                    23053690.879
        46.400          32.500
 122531593.561 7  95479186.83445  23316989.164                    23316992.867
        43.900          31.500
 110034039.766 8  85740879.99446  20938786.734                    20938793.113
        49.100          39.900
 120403015.426 7  93820569.15344  22911935.961                    22911939.816
        43.600          24.400
 126318691.642 7  98430203.68044  24037654.859                    24037660.504
        44.800          28.300
 16  9 14  1 32 30.0000000  0  9G15G28G13G20G17G19G24G18G10
 107930226.533 8  84101508.09847  20538435.164                    20538439.285
        49.400          42.600
 122914845.594 7  95777743.10944  23389890.789                    23389893.801
        44.100          28.600
 112525797.754 8  87682523.20345  21412949.922                    21412953.453
        49.200          35.100
 122728741.844 7  95632815.17144  23354503.891                    23354506.938
        42.400          26.800
 121106504.794 7  94368741.70145  23045802.266                    23045805.887
        45.800          31.600
 122443308.991 7  95410393.67945  23300189.695                    23300192.707
        44.600          31.400
 109982928.059 8  85701052.69346  20929060.570                    20929066.793
        49.400          40.500
 120397028.558 7  93815904.02944  22910796.383                    22910800.770
        42.900          24.800
 126261185.615 7  98385393.79845  24026711.570                    24026717.727
        43.400          30.300
 16  9 14  1 33  0.0000000  0  9G15G28G13G20G17G19G24G18G10
 107958861.241 8  84123820.85047  20543884.750                    20543887.969
        50.100          42.400
 123001411.655 7  95845197.18044  23406363.500                    23406366.891
        42.800          29.000
 112602831.078 8  87742549.14145  21427608.664                    21427612.598
        49.800          34.500
 122821963.988 7  95705455.77444  23372243.180                    23372247.426
        42.400          24.500
 121065554.941 7  94336832.74845  23038009.766                    23038013.688
        46.900          32.300
 122355367.687 7  95341867.99645  23283454.617                    23283457.633
        45.400          32.400
 109932125.805 8  85661466.52446  20919393.070                    20919399.141
        49.200          39.600
 120391562.570 7  93811644.83944  22909756.461                    22909760.184
        42.500          24.700
 126204178.080 7  98340972.34244  24015862.625                    24015869.074
        42.600          28.200
 16  9 14  1 33 30.0000000  0  9G15G28G13G20G17G19G24G18G10
 107988010.900 8  84146534.86047  20549431.242                    20549435.176
        49.900          42.800
 123088171.571 7  95912802.31044  23422873.563                    23422876.004
        44.100          28.000
 112680248.876 8  87802874.68645  21442340.688                    21442345.102
        49.200          35.700
 122915398.033 7  95778261.52044  23390023.461                    23390027.438
        42.900          25.200
 121025094.335 7  94305305.03245  23030310.320                    23030314.160
        46.700          32.800
 122267772.839 7  95273612.28845  23266786.047                    23266788.781
        43.700          31.400
 109881633.418 8  85622121.81346  20909784.797                    20909790.930
        50.000          40.600
 120386617.462 7  93807791.49044  22908816.039                    22908819.355
        43.900          25.800
 126147670.656 7  98296940.60344  24005109.695                    24005116.492
        42.300          29.200
 16  9 14  1 34  0.0000000  0  9G15G28G13G20G17G19G24G18G10
 108017675.531 8  84169650.15047  20555076.297                    20555079.867
        49.800          43.000
 123175123.485 7  95980557.03544  23439419.766                    23439422.609
        42.900          27.100
 112758050.041 8  87863498.96245  21457145.406                    21457149.973
        49.800          34.500
 123009040.884 7  95851229.93944  23407842.883                    23407847.766
        43.000          25.300
 120985124.850 7  94274160.00345  23022704.602                    23022708.176
        47.100          33.000
 122180528.082 7  95205629.38945  23250183.578                    23250186.754
        43.000          31.400
 109831451.634 8  85583019.13446  20900235.867                    20900241.547
        50.400          40.200
 120382193.041 7  93804343.89544  22907974.102                    22907977.121
        44.900          24.600
 126091665.506 7  98253300.23144  23994452.945                    23994458.914
        43.800          28.700
 16  9 14  1 34 30.0000000  0  9G15G28G13G20G17G19G24G18G10
 108047854.411 8  84193166.14947  20560818.844                    20560823.109
        49.700          42.600
 123262265.021 7  96048459.51944  23456002.461                    23456005.363
        43.900          28.500
 112836233.122 8  87924420.84045  21472023.469                    21472028.113
        49.600          34.900
 123102889.201 7  95924358.50244  23425702.117                    23425705.898
        43.300          26.200
 120945648.269 7  94243399.06045  23015192.719                    23015196.027
        47.200          33.400
 122093636.584 7  95137921.76145  23233648.531                    23233651.848
        42.700          31.500
 109781580.578 8  85544158.57946  20890745.602                    20890751.699
        51.100          40.400
 120378289.237 7  93801301.94844  22907231.828                    22907234.211
        45.800          24.900
 126036164.292 7  98210052.52044  23983890.891                    23983897.047
        42.800          29.100
 16  9 14  1 35  0.0000000  0  9G15G28G13G20G17G19G24G18G10
 108078547.240 8  84217082.62647  20566659.789                    20566664.145
        48.900          43.500
 123349594.291 7  96116508.28044  23472620.695                    23472623.074
        44.700          27.900
 112914796.989 8  87985639.42245  21486973.266                    21486977.617
        48.200          35.300
 123196940.070 7  95997644.88244  23443599.977                    23443603.152
        44.000          27.000
 120906666.426 7  94213023.62845  23007774.266                    23007778.625
        46.400          34.000
 122007101.896 7  95070492.15145  23217181.773                    23217184.945
        44.200          31.600
 109732022.083 8  85505541.59246  20881315.117                    20881320.973
        50.000          41.200
 120374906.154 7  93798665.74944  22906588.266                    22906590.098
        46.300          27.300
 125981169.083 7  98167199.11044  23973425.641                    23973431.813
        43.300          28.900
 16  9 14  1 35 30.0000000  0  9G15G28G13G20G17G19G24G18G10
 108109753.074 8  84241398.85947  20572597.867                    20572602.172
        48.900          43.400
 123437108.856 7  96184701.44244  23489274.336                    23489276.207
        46.700          28.100
 112993739.702 8  88047153.20145  21501995.828                    21501999.703
        48.900          34.900
 123291190.238 7  96071086.56544  23461534.992                    23461538.859
        43.700          26.800
 120868180.224 7  94183034.40145  23000450.414                    23000455.180
        46.100          33.800
 121920926.897 7  95003342.82345  23200782.727                    23200786.215
        43.300          31.700
 109682775.752 8  85467167.83546  20871943.273                    20871949.711
        50.000          40.400
 120372043.598 7  93796435.18244  22906043.055                    22906045.676
        45.400          28.000
 125926681.153 6  98124740.95444  23963056.961                    23963063.660
        41.400          28.900
 16  9 14  1 36  0.0000000  0  9G15G28G13G20G17G19G24G18G10
 108141472.243 8  84266115.07947  20578634.148                    20578638.215
        48.800          43.300
 123524807.157 7  96253037.77144  23505962.820                    23505965.066
        46.300          29.300
 113073060.577 8  88108961.65045  21517090.375                    21517094.305
        49.300          35.200
 123385637.386 7  96144681.74444  23479507.078                    23479510.797
        43.200          26.400
 120830192.331 7  94153433.47345  22993221.000                    22993226.047
        46.500          34.100
 121835115.543 7  94936476.86345  23184453.211                    23184456.230
        44.600          32.300
 109633843.136 8  85429038.53146  20862631.641                    20862637.973
        49.300          40.600
 120369701.145 7  93794609.86244  22905597.305                    22905599.867
        44.200          27.500
 125872702.950 6  98082680.04644  23952784.750                    23952791.754
        41.800          28.400
 16  9 14  1 36 30.0000000  0  9G15G28G13G20G17G19G24G18G10
 108173703.367 8  84291230.22547  20584767.633                    20584771.633
        49.300          42.800
 123612686.553 7  96321515.22544  23522685.711                    23522688.211
        47.200          29.400
 113152757.761 8  88171063.32445  21532256.211                    21532260.348
        49.500          34.700
 123480277.705 7  96218427.41944  23497517.109                    23497521.141
        44.100          27.400
 120792704.146 7  94124221.92645  22986087.688                    22986092.145
        46.200          34.100
 121749670.680 7  94869896.48145  23168194.438                    23168197.313
        44.900          32.600
 109585223.651 8  85391153.21446  20853379.828                    20853386.027
        49.000          39.900
 120367878.417 7  93793189.55344  22905250.133                    22905253.355
        44.800          25.400
 125819235.671 7  98041017.22144  23942611.000                    23942616.746
        42.400          27.400
 16  9 14  1 37  0.0000000  0  9G15G28G13G20G17G19G24G18G10
 108206446.551 8  84316744.38547  20590998.313                    20591002.352
        49.500          43.000
 123700745.324 7  96390132.46245  23539442.984                    23539445.691
        47.000          30.000
 113232830.028 8  88233457.27545  21547493.383                    21547497.660
        49.000          35.000
 123575108.423 7  96292321.49144  23515562.492                    23515566.363
        44.700          27.800
 120755717.272 7  94095400.99845  22979048.750                    22979054.156
        46.800          34.400
 121664595.830 7  94803604.39545  23152005.180                    23152008.203
        44.500          32.900
 109536918.422 8  85353512.77146  20844187.625                    20844193.852
        50.000          40.900
 120366575.741 7  93792174.46744  22905002.727                    22905005.387
        44.600          26.700
 125766281.283 6  97999754.07544  23932533.266                    23932539.965
        41.600          28.700
 16  9 14  1 37 30.0000000  0  9G15G28G13G20G17G19G24G18G10
 108239701.769 8  84342657.52447  20597326.891                    20597330.520
        49.500          43.000
 123788981.899 7  96458888.23244  23556233.422                    23556236.531
        46.400          29.300
 113313276.477 8  88296142.79845  21562801.602                    21562806.523
        48.800          34.900
 123670126.809 7  96366361.78044  23533644.133                    23533648.449
        44.600          29.100
 120719233.759 7  94066972.30345  22972106.531                    22972111.195
        46.200          34.500
 121579894.699 7  94737603.52145  23135887.070                    23135890.016
        44.500          32.800
 109488929.082 8  85316118.49246  20835055.820                    20835061.750
        49.600          40.500
 120365793.125 7  93791564.64144  22904853.594                    22904856.586
        44.100          25.900
 125713842.087 6  97958892.36644  23922555.461                    23922561.336
        41.900          28.100
 16  9 14  1 38  0.0000000  0  9G15G28G13G20G17G19G24G18G10
 108273468.141 8  84368968.97247  20603752.164                    20603756.086
        49.200          43.200
 123877393.740 7  96527780.57044  23573057.281                    23573060.840
        46.200          29.600
 113394095.581 8  88359118.70145  21578180.906                    21578185.520
        48.300          35.300
 123765329.536 7  96440545.72144  23551760.297                    23551764.793
        44.200          28.700
 120683254.916 7  94038936.87045  22965260.430                    22965265.258
        45.700          35.100
 121495570.310 7  94671896.22445  23119840.938                    23119843.879
        44.900          33.700
 109441255.461 8  85278970.21546  20825983.859                    20825989.734
        49.600          41.700
 120365530.007 7  93791359.62244  22904803.555                    22904806.934
        44.900          26.600
 125661919.457 6  97918433.15344  23912674.484                    23912680.320
        41.100          28.300
 16  9 14  1 38 30.0000000  0  9G15G28G13G20G17G19G24G18G10
 108307744.456 8  84395677.78547  20610274.633                    20610278.586
        49.000          42.600
 123965978.461 7  96596807.62444  23589914.273                    23589918.258
        44.600          28.500
 113475285.533 8  88422383.57745  21593631.102                    21593635.672
        49.500          35.500
 123860713.444 7  96514870.83644  23569911.305                    23569915.328
        44.100          26.900
 120647782.253 7  94011295.84445  22958510.242                    22958514.555
        47.200          35.200
 121411626.068 7  94606485.13845  23103866.539                    23103869.652
        45.000          32.500
 109393898.256 8  85242068.50747  20816972.063                    20816978.086
        50.700          42.000
 120365785.936 7  93791559.01944  22904852.828                    22904855.387
        44.700          27.300
 125610514.992 7  97878377.71744  23902892.453                    23902898.551
        43.000          27.900
 16  9 14  1 39  0.0000000  0  9G15G28G13G20G17G19G24G18G10
 108342531.019 8  84422784.18446  20616894.133                    20616898.328
        48.600          41.900
 124054734.342 7  96665968.03544  23606804.242                    23606807.617
        44.000          27.900
 113556845.366 8  88485936.68045  21609151.484                    21609156.168
        48.900          34.500
 123956275.900 7  96589335.08144  23588095.836                    23588099.410
        43.400          27.600
 120612817.646 7  93984050.71745  22951856.633                    22951861.172
        47.800          35.500
 121328065.251 7  94541372.83345  23087965.523                    23087968.773
        45.900          33.100
 109346858.634 8  85205414.26046  20808020.750                    20808026.492
        51.100          41.100
 120366561.083 7  93792163.03244  22905000.914                    22905003.066
        44.900          26.200
 125559630.600 7  97838727.54144  23893209.633                    23893215.098
        42.700          27.200
 16  9 14  1 39 30.0000000  0  9G15G28G13G20G17G19G24G18G10
 108377826.426 8  84450287.09547  20623610.625                    20623614.633
        48.400          42.600
 124143659.191 7  96735260.10244  23623725.906                    23623729.496
        43.400          27.500
 113638773.584 8  88549776.82445  21624742.320                    21624745.797
        49.100          34.600
 124052013.536 7  96663935.82344  23606314.547                    23606318.086
        44.800          28.000
 120578361.937 7  93957202.15746  22945300.125                    22945303.770
        47.800          36.400
 121244890.923 7  94476561.69145  23072137.672                    23072140.160
        45.100          32.700
 109300136.430 8  85169007.35346  20799129.609                    20799135.594
        50.300          41.400
 120367854.718 7  93793171.03744  22905246.297                    22905249.008
        43.900          27.300
 125509267.586 7  97799483.61744  23883625.969                    23883632.082
        43.400          27.500
 16  9 14  1 40  0.0000000  0  9G15G28G13G20G17G19G24G18G10
 108413630.226 8  84478186.15147  20630423.773                    20630427.805
        49.000          42.300
 124232751.057 7  96804682.31744  23640679.555                    23640682.836
        43.400          26.100
 113721068.324 8  88613902.58045  21640402.211                    21640406.133
        48.400          34.000
 124147923.047 7  96738670.48144  23624565.750                    23624569.344
        44.900          29.400
 120544417.285 8  93930751.80646  22938841.008                    22938844.695
        48.300          36.300
 121162106.443 7  94412054.31845  23056384.500                    23056387.059
        46.300          32.900
 109253732.068 8  85132848.12246  20790299.148                    20790305.285
        50.500          41.400
 120369666.581 7  93794582.87344  22905590.867                    22905594.063
        43.900          25.900
 125459427.639 7  97760647.30144  23874141.734                    23874148.215
        43.700          29.400
 16  9 14  1 40 30.0000000  0  9G15G28G13G20G17G19G24G18G10
 108449942.331 8  84506481.28347  20637333.914                    20637337.859
        48.400          42.200
 124322008.011 7  96874233.18044  23657664.750                    23657668.109
        44.000          25.000
 113803728.479 8  88678313.07445  21656131.789                    21656136.074
        48.600          34.300
 124244001.918 7  96813537.11344  23642848.461                    23642853.023
        43.500          29.100
 120510985.357 7  93904700.97846  22932478.172                    22932482.637
        47.000          36.200
 121079715.402 7  94347853.53945  23040705.375                    23040708.543
        45.200          32.400
 109207646.949 8  85096937.63446  20781529.008                    20781535.313
        49.800          40.700
 120371996.471 7  93796398.34644  22906034.289                    22906037.426
        44.200          25.900
 125410112.778 7  97722220.10744  23864757.750                    23864763.523
        43.600          28.400
 16  9 14  1 41  0.0000000  0  9G15G28G13G20G17G19G24G18G10
 108486762.066 8  84535171.97247  20644340.734                    20644344.840
        49.100          42.300
 124411427.976 7  96943911.07444  23674680.906                    23674683.977
        44.500          25.300
 113886752.808 8  88743007.33645  21671931.117                    21671935.402
        49.300          34.700
 124340247.201 7  96888533.41845  23661163.563                    23661167.891
        43.900          30.300
 120478067.509 7  93879050.74146  22926214.445                    22926219.031
        46.900          36.000
 120997720.910 7  94283961.74445  23025102.922                    23025105.281
        45.700          33.800
 109161882.010 8  85061276.64846  20772820.836                    20772826.570
        50.500          40.200
 120374844.222 7  93798617.38044  22906575.500                    22906578.664
        44.600          25.600
 125361324.549 7  97684203.32844  23855472.555                    23855478.879
        43.800          28.400
 16  9 14  1 41 30.0000000  0  9G15G28G13G20G17G19G24G18G10
 108524088.672 8  84564257.62647  20651443.531                    20651447.359
        49.400          42.300
 124501009.156 7  97013714.58244  23691727.648                    23691730.852
        44.300          27.300
 113970139.930 8  88807984.28945  21687799.078                    21687802.988
        49.700          34.600
 124436655.548 7  96963656.78744  23679509.656                    23679513.715
        44.100          29.200
 120445665.312 7  93853802.29545  22920048.031                    22920053.176
        45.900          35.700
 120916126.549 7  94220381.74645  23009575.844                    23009577.996
        47.000          33.000
 109116437.701 8  85025865.50546  20764172.938                    20764178.707
        49.500          41.300
 120378209.373 7  93801239.55944  22907215.883                    22907219.824
        43.700          25.800
 125313064.681 6  97646598.23744  23846289.070                    23846295.586
        41.100          27.100
 16  9 14  1 42  0.0000000  0  9G15G28G13G20G17G19G24G18G10
 108561921.201 8  84593737.49947  20658642.750                    20658647.258
        48.800          42.000
 124590749.190 7  97083641.88044  23708804.938                    23708807.914
        45.500          26.600
 114053888.091 8  88873242.59245  21703736.117                    21703740.023
        49.600          35.300
 124533223.869 7  97038904.79744  23697885.875                    23697890.156
        43.200          28.500
 120413779.976 7  93828956.60846  22913980.250                    22913985.188
        45.800          36.700
 120834935.016 7  94157115.62945  22994126.102                    22994128.395
        46.300          33.600
 109071313.812 8  84990704.03346  20755585.992                    20755591.996
        49.300          41.300
 120382091.199 7  93804264.34344  22907954.516                    22907958.441
        43.700          26.200
 125265334.362 6  97609405.77244  23837206.391                    23837212.848
        41.300          27.100
 16  9 14  1 42 30.0000000  0  9G15G28G13G20G17G19G24G18G10
 108600259.219 8  84623611.27147  20665938.406                    20665942.461
        49.500          42.600
 124680645.986 7  97153691.32644  23725911.203                    23725914.535
        45.400          27.300
 114137996.073 8  88938781.25745  21719741.586                    21719745.488
        50.200          35.000
 124629949.479 7  97114275.38844  23716291.898                    23716296.137
        42.700          29.400
 120382413.174 7  93804514.96246  22908011.500                    22908016.117
        47.300          36.000
 120754149.753 7  94094166.10445  22978752.922                    22978755.695
        46.500          34.000
 109026511.873 8  84955793.43447  20747060.680                    20747066.367
        50.100          42.100
 120386489.477 7  93807691.56744  22908791.617                    22908795.973
        42.700          25.300
 125218135.613 6  97572627.51444  23828225.016                    23828231.270
        41.400          26.900
 16  9 14  1 43  0.0000000  0  9G15G28G13G20G17G19G24G18G10
 108639101.922 8  84653878.30747  20673329.695                    20673333.793
        50.400          42.600
 124770697.752 7  97223861.53444  23743047.492                    23743051.262
        44.300          26.700
 114222462.249 8  89004599.03445  21735814.875                    21735818.496
        50.100          34.200
 124726829.348 7  97189766.16544  23734727.961                    23734732.355
        42.900          27.700
 120351566.213 7  93780478.38645  22902141.984                    22902146.090
        46.900          35.300
 120673774.107 7  94031535.75345  22963457.219                    22963460.305
        44.800          34.400
 108982032.798 8  84921134.41047  20738596.578                    20738602.996
        51.000          42.200
 120391403.848 7  93811520.94244  22909726.281                    22909730.258
        42.800          26.100
 125171469.839 7  97536264.57544  23819345.352                    23819350.117
        45.700          27.300
 16  9 14  1 43 30.0000000  0  9G15G28G13G20G17G19G24G18G10
 108678448.627 8  84684538.06747  20680817.625                    20680821.754
        50.200          43.200
 124860902.583 7  97294150.98744  23760213.172                    23760216.609
        44.300          26.300
 114307285.097 8  89070694.75045  21751955.883                    21751959.152
        49.700          33.500
 124823859.986 7  97265374.44444  23753191.766                    23753196.469
        42.700          28.800
 120321240.704 7  93756848.14445  22896370.625                    22896374.934
        46.700          35.000
 120593811.604 7  93969227.32645  22948241.656                    22948244.402
        47.100          35.200
 108937876.682 8  84886727.04147  20730193.750                    20730199.988
        51.600          42.100
 120396833.877 7  93815752.13544  22910760.180                    22910763.961
        43.500          26.000
 125125338.317 7  97500317.95244  23810566.945                    23810571.684
        45.800          28.300
 16  9 14  1 44  0.0000000  0  9G15G28G13G20G17G19G24G18G10
 108718298.431 8  84715589.84447  20688400.930                    20688404.664
        50.800          42.700
 124951258.017 7  97364557.80444  23777407.570                    23777410.664
        44.600          25.700
 114392462.911 8  89137067.06645  21768164.805                    21768168.156
        48.700          33.400
 124921038.387 7  97341097.85144  23771684.016                    23771688.906
        42.500          27.100
 120291437.506 7  93733624.91045  22890699.828                    22890703.875
        47.200          35.200
 120514265.137 7  93907243.09645  22933104.008                    22933107.391
        46.000          34.700
 108894043.564 8  84852571.36547  20721852.727                    20721858.484
        50.900          42.100
 120402779.043 7  93820384.71744  22911891.305                    22911895.234
        42.400          26.400
 125079742.534 7  97464788.73044  23801889.992                    23801896.238
        45.100          28.600
 16  9 14  1 44 30.0000000  0  9G15G28G13G20G17G19G24G18G10
 108758650.794 8  84747033.23347  20696079.719                    20696083.680
        49.300          42.100
 125041762.390 7  97435080.66544  23794629.773                    23794632.348
        44.200          25.700
 114477994.141 8  89203714.76745  21784440.844                    21784443.914
        49.100          33.200
 125018361.918 6  97416934.36444  23790204.555                    23790208.883
        41.900          27.100
 120262158.442 8  93710810.07645  22885127.953                    22885132.043
        48.000          35.800
 120435137.564 7  93845585.28245  22918046.609                    22918049.969
        45.700          34.900
 108850534.490 8  84818668.19247  20713573.281                    20713579.176
        51.000          42.400
 120409238.737 7  93825418.23444  22913120.758                    22913124.559
        42.900          27.200
 125034684.128 7  97429678.27244  23793315.938                    23793321.133
        45.000          27.400
 16  9 14  1 45  0.0000000  0  9G15G28G13G20G17G19G24G18G10
 108799505.194 8  84778867.81847  20703853.570                    20703857.734
        50.500          42.200
 125132413.873 7  97505718.19044  23811879.008                    23811882.676
        42.800          24.900
 114563877.998 8  89270637.23145  21800783.664                    21800787.520
        49.000          34.400
 125115827.632 7  97492881.66644  23808751.758                    23808756.348
        42.200          26.500
 120233405.118 8  93688404.91446  22879656.445                    22879660.641
        48.200          36.700
 120356432.505 7  93784256.68345  22903069.414                    22903072.793
        45.500          33.700
 108807350.791 8  84785018.57346  20705355.289                    20705361.125
        50.700          41.900
 120416212.650 7  93830852.43744  22914448.398                    22914452.082
        43.700          28.100
 124990164.830 7  97394987.92244  23784844.125                    23784849.367
        43.900          27.200
 16  9 14  1 45 30.0000000  0  9G15G28G13G20G17G19G24G18G10
 108840860.870 8  84811093.01147  20711723.984                    20711727.590
        51.000          42.200
 125223210.595 7  97576468.86344  23829157.117                    23829160.820
        43.100          24.100
 114650112.601 8  89337833.00445  21817193.508                    21817197.793
        49.000          33.200
 125213432.354 7  97568937.27144  23827325.477                    23827329.770
        43.100          25.800
 120205178.862 7  93666410.44846  22874285.055                    22874289.000
        47.700          36.300
 120278153.323 7  93723259.93945  22888173.344                    22888176.766
        46.000          34.400
 108764492.790 8  84751622.72746  20697200.039                    20697206.035
        50.700          41.600
 120423700.094 7  93836686.78844  22915873.344                    22915876.211
        43.100          27.600
 124946186.017 7  97360718.71544  23776475.227                    23776480.910
        43.800          26.200
 16  9 14  1 46  0.0000000  0  9G15G28G13G20G17G19G24G18G10
 108882716.586 8  84843707.84547  20719688.445                    20719692.316
        50.600          42.300
 125314150.083 7  97647330.80144  23846463.297                    23846465.641
        42.500          24.600
 114736696.223 8  89405300.72745  21833669.508                    21833674.434
        48.500          34.400
 125311172.803 7  97645098.66044  23845924.102                    23845928.621
        42.900          25.300
 120177480.562 7  93644827.36946  22869013.906                    22869018.844
        47.800          36.900
 120200303.285 7  93662597.59745  22873358.477                    22873362.664
        44.900          34.300
 108721960.649 8  84718480.80147  20689106.719                    20689112.551
        51.100          42.500
 120431700.232 7  93842920.65844  22917395.305                    22917398.301
        43.100          27.000
 124902748.756 7  97326871.51344  23768209.352                    23768214.648
        44.900          26.700
 16  9 14  1 46 30.0000000  0  9G15G28G13G20G17G19G24G18G10
 108925071.900 8  84876711.97046  20727748.359                    20727752.059
        50.100          41.600
 125405230.706 6  97718302.68744  23863795.617                    23863798.836
        41.700          25.000
 114823627.872 7  89473039.65745  21850212.383                    21850217.426
        47.600          34.100
 125409046.530 6  97721363.89544  23864549.734                    23864552.906
        41.600          24.200
 120150311.516 7  93623656.71146  22863844.320                    22863849.145
        46.400          36.700
 120122885.423 7  93602272.01345  22858626.672                    22858629.926
        45.400          34.400
 108679755.716 8  84685593.84946  20681075.289                    20681081.395
        50.500          41.400
 120440212.899 7  93849553.89144  22919015.234                    22919018.211
        42.800          28.200
 124859855.004 7  97293447.80644  23760047.297                    23760053.914
        44.900          28.600
 16  9 14  1 47  0.0000000  0  9G15G28G13G20G17G19G24G18G10
 108967925.715 8  84910104.53847  20735903.078                    20735906.770
        50.000          42.400
 125496450.117 7  97789382.74744  23881154.203                    23881157.238
        43.200          24.700
 114910905.154 7  89541047.91045  21866820.516                    21866825.590
        47.900          33.100
 125507050.039 6  97797730.26343  23883198.211                    23883202.961
        41.200          22.800
 120123672.925 8  93602899.38046  22858775.047                    22858780.320
        48.700          36.500
 120045902.517 7  93542285.37145  22843978.039                    22843980.664
        46.200          34.900
 108637877.847 8  84652961.74447  20673106.008                    20673112.227
        50.600          42.600
 120449237.667 7  93856586.14944  22920733.305                    22920735.977
        43.300          27.600
 124817505.695 7  97260448.35344  23751988.688                    23751994.934
        43.900          28.400
 16  9 14  1 47 30.0000000  0  9G15G28G13G20G17G19G24G18G10
 109011277.682 8  84943885.28047  20744153.039                    20744156.855
        49.600          42.300
 125587806.644 6  97860569.62544  23898538.227                    23898541.641
        41.700          25.300
 114998527.453 7  89609325.00045  21883494.133                    21883499.012
        47.200          32.600
 125605180.795 6  97874195.79243  23901871.922                    23901876.004
        40.500          23.200
 120097566.661 8  93582556.85346  22853807.516                    22853811.988
        48.500          36.100
 119969358.049 7  93482640.35145  22829411.867                    22829415.070
        46.800          35.000
 108596328.295 8  84620585.46847  20665199.102                    20665205.727
        50.200          42.500
 120458773.477 6  93864016.63944  22922547.156                    22922550.422
        41.600          25.800
 124775702.713 7  97227874.59644  23744033.586                    23744039.934
        43.900          28.300
 16  9 14  1 48  0.0000000  0  9G15G28G13G20G17G19G24G18G10
 109055126.459 8  84978053.14647  20752496.945                    20752500.965
        49.500          42.400
 125679297.872 6  97931861.48644  23915948.250                    23915951.816
        41.900          26.400
 115086492.874 8  89677869.47045  21900233.984                    21900238.359
        48.400          33.200
 125703435.532 6  97950757.88243  23920570.102                    23920573.031
        41.100          23.400
 120071993.412 8  93562629.66546  22848940.820                    22848945.309
        48.500          37.100
 119893255.158 7  93423339.41245  22814929.609                    22814932.605
        46.000          34.800
 108555107.475 8  84588465.35847  20657355.289                    20657361.609
        51.100          42.500
 120468819.732 7  93871844.86444  22924458.305                    22924461.652
        42.000          26.400
 124734447.181 7  97195727.42944  23736182.273                    23736187.984
        44.500          27.300
 16  9 14  1 48 30.0000000  0  9G15G28G13G20G17G19G24G18G10
 109099471.146 8  85012607.43546  20760935.211                    20760939.316
        49.100          41.800
 125770922.672 7  98003257.43943  23933383.836                    23933387.070
        42.700          22.800
 115174799.425 8  89746679.74345  21917038.297                    21917042.371
        49.100          32.600
 125801810.929 6  98027414.03644  23939290.109                    23939294.078
        40.900          25.000
 120046954.515 8  93543118.86146  22844176.242                    22844180.500
        48.600          36.000
 119817596.587 7  93364384.70745  22800532.758                    22800535.176
        46.100          35.000
 108514215.718 8  84556601.65847  20649573.922                    20649580.574
        50.800          42.500
 120479375.663 7  93880070.22144  22926467.531                    22926470.965
        42.800          25.800
 124693740.157 7  97164007.66144  23728436.047                    23728441.363
        44.300          28.400
 16  9 14  1 49  0.0000000  0  9G15G28G13G20G17G19G24G18G10
 109144310.262 8  85047546.99247  20769467.875                    20769472.156
        50.300          42.100
 125862678.344 7  98074755.36143  23950844.656                    23950847.520
        42.400          23.000
 115263445.720 8  89815754.76645  21933907.234                    21933910.996
        49.500          32.600
 125900304.136 6  98104161.97744  23958032.094                    23958036.355
        41.400          24.400
 120022450.996 8  93524025.23646  22839513.508                    22839517.473
        48.700          36.100
 119742385.585 7  93305778.76345  22786220.586                    22786223.371
        45.100          34.400
 108473653.621 8  84524994.83247  20641855.219                    20641860.973
        51.000          42.500
 120490440.382 7  93888692.06944  22928573.633                    22928576.121
        42.700          25.800
 124653582.850 7  97132716.25244  23720794.242                    23720800.980
        44.100          28.200
 16  9 14  1 49 30.0000000  0  9G15G28G13G20G17G19G24G18G10
 109189644.286 8  85082872.19146  20778094.883                    20778099.113
        50.000          41.900
 125954563.492 7  98146354.19343  23968329.781                    23968332.609
        42.300          22.600
 115352430.538 8  89885093.58345  21950840.813                    21950844.234
        49.100          32.400
 125998912.392 6  98180999.56744  23976796.508                    23976800.840
        41.300          26.500
 119998484.177 7  93505349.80945  22834952.539                    22834956.723
        47.800          35.600
 119667625.969 7  93247524.53045  22771993.953                    22771997.125
        44.800          34.600
 108433422.364 8  84493645.81047  20634198.906                    20634205.348
        50.500          42.400
 120502013.854 7  93897710.33844  22930775.297                    22930778.934
        43.200          27.500
 124613977.114 7  97101854.62944  23713258.180                    23713264.582
        44.800          28.200
 16  9 14  1 50  0.0000000  0  9G15G28G13G20G17G19G24G18G10
 109235472.055 8  85118582.12147  20786815.719                    20786819.652
        48.700          42.000
 126046576.140 7  98218052.34943  23985838.664                    23985841.840
        43.000          21.700
 115441752.334 8  89954694.95845  21967837.711                    21967841.824
        48.500          32.500
 126097632.777 6  98257924.53544  23995583.305                    23995588.176
        40.100          25.000
 119975055.288 7  93487093.55045  22830493.844                    22830498.211
        47.600          35.800
 119593320.461 7  93189624.14945  22757853.813                    22757857.098
        44.700          33.700
 108393522.697 8  84462555.16847  20626606.656                    20626612.891
        50.100          42.500
 120514095.324 7  93907124.44644  22933074.773                    22933078.270
        44.200          28.900
 124574924.161 7  97071423.74844  23705826.063                    23705833.270
        44.600          29.100
 16  9 14  1 50 30.0000000  0  9G15G28G13G20G17G19G24G18G10
 109281791.127 8  85154674.89247  20795629.578                    20795633.957
        49.400          42.400
 126138713.616 7  98289847.78643  24003372.805                    24003374.766
        42.100          22.500
 115531408.742 7  90024557.08145  21984898.617                    21984902.922
        47.400          32.700
 126196461.863 6  98334934.19844  24014389.391                    24014394.539
        40.200          24.100
 119952164.816 8  93469256.83945  22826137.953                    22826142.301
        48.100          34.900
 119519471.536 7  93132079.53645  22743800.953                    22743803.352
        44.900          33.100
 108353954.095 8  84431722.49347  20619077.180                    20619083.266
        50.500          42.600
 120526683.239 7  93916933.20144  22935470.367                    22935473.559
        43.900          29.200
 124536424.543 7  97041424.06144  23698500.219                    23698507.578
        43.800          29.600
 16  9 14  1 51  0.0000000  0  9G15G28G13G20G17G19G24G18G10
 109328602.360 8  85191151.16747  20804537.539                    20804541.949
        48.900          42.000
 126230974.929 7  98361739.72243  24020929.148                    24020931.340
        44.100          22.600
 115621398.835 8  90094679.20645  22002023.242                    22002027.473
        48.200          32.800
 126295397.037 6  98412026.51243  24033216.344                    24033220.992
        40.700          23.800
 119929814.656 8  93451841.15545  22821885.188                    22821889.555
        48.600          35.700
 119446082.849 7  93074893.58345  22729835.594                    22729837.867
        44.500          33.200
 108314718.048 8  84401148.95047  20611610.672                    20611617.277
        50.600          43.200
 120539777.647 7  93927136.62244  22937961.938                    22937965.582
        45.000          28.900
 124498480.267 7  97011857.07144  23691279.180                    23691286.113
        43.700          28.700
 16  9 14  1 51 30.0000000  0  9G15G28G13G20G17G19G24G18G10
 109375904.050 8  85228009.62846  20813538.711                    20813542.750
        49.600          41.700
 126323357.972 7  98433726.48843  24038509.625                    24038511.395
        45.000          22.600
 115711720.945 8  90165060.04645  22019210.805                    22019215.277
        48.200          32.700
 126394435.208 6  98489199.09943  24052062.336                    24052067.348
        40.500          22.600
 119908005.673 8  93434847.16745  22817735.102                    22817738.988
        48.000          35.800
 119373157.317 7  93018068.52645  22715958.469                    22715960.570
        45.000          32.800
 108275815.431 8  84370835.22747  20604207.953                    20604214.031
        49.900          42.800
 120553377.591 7  93937733.97544  22940550.141                    22940553.824
        44.900          29.600
 124461092.362 7  96982723.64444  23684164.813                    23684171.164
        44.500          29.400
 16  9 14  1 52  0.0000000  0  9G15G28G13G20G17G19G24G18G10
 109423695.389 8  85265249.62647  20822633.336                    20822637.203
        50.000          42.300
 126415860.827 6  98505806.60143  24056111.844                    24056114.250
        41.600          22.600
 115802373.505 8  90235698.40445  22036462.102                    22036465.633
        48.000          31.500
 126493573.530 6  98566449.73343  24070927.648                    24070932.355
        41.100          22.300
 119886738.923 8  93418275.69746  22813688.070                    22813692.309
        48.100          36.900
 119300698.306 7  92961606.97445  22702169.688                    22702172.172
        45.400          33.600
 108237246.775 8  84340781.73947  20596868.094                    20596874.652
        50.100          42.800
 120567481.961 7  93948724.36744  22943233.789                    22943238.086
        44.600          29.200
 124424262.073 7  96954024.72545  23677156.703                    23677162.277
        45.600          30.700
 16  9 14  1 52 30.0000000  0  9G15G28G13G20G17G19G24G18G10
 109471975.029 8  85302870.11146  20831820.563                    20831824.367
        49.100          41.400
 126508481.211 7  98577978.32043  24073736.906                    24073738.559
        42.700          22.300
 115893354.452 8  90306592.64645  22053775.281                    22053778.746
        48.100          32.500
 126592809.024 6  98643776.08943  24089811.594                    24089816.313
        40.700          22.500
 119866015.420 8  93402127.53246  22809744.695                    22809748.418
        49.300          36.800
 119228708.524 7  92905511.06745  22688470.391                    22688472.750
        44.600          32.400
 108199012.330 8  84310988.66447  20589592.672                    20589599.094
        49.100          42.800
 120582090.052 7  93960107.28344  22946014.188                    22946017.035
        43.800          28.500
 124387990.372 7  96925761.02845  23670254.297                    23670259.777
        45.700          30.200
 16  9 14  1 53  0.0000000  0  9G15G28G13G20G17G19G24G18G10
 109520742.472 8  85340870.70346  20841100.867                    20841104.348
        49.800          40.600
 126601217.383 7  98650240.27643  24091383.055                    24091386.828
        42.600          22.600
 115984662.593 8  90377741.83045  22071150.805                    22071153.938
        48.100          32.300
 126692138.633 6  98721175.75243  24108713.984                    24108718.258
        41.300          22.800
 119845836.404 8  93386403.63046  22805904.703                    22805908.867
        49.300          36.800
 119157191.107 7  92849783.25245  22674860.438                    22674863.680
        45.100          33.200
 108161113.092 8  84281456.79247  20582380.922                    20582387.152
        49.000          42.700
 120597201.317 7  93971882.28444  22948889.133                    22948892.895
        44.600          28.700
 124352278.630 7  96897933.69544  23663458.602                    23663464.793
        43.200          29.900
 16  9 14  1 53 30.0000000  0  9G15G28G13G20G17G19G24G18G10
 109569996.621 8  85379250.54646  20850473.438                    20850476.953
        49.500          41.300
 126694067.728 6  98722591.19744  24109052.398                    24109056.152
        41.400          24.600
 116076296.064 8  90449144.51445  22088587.695                    22088590.797
        48.600          31.700
 126791559.501 6  98798646.57643  24127632.938                    24127637.137
        41.100          21.800
 119826202.485 8  93371104.49046  22802168.617                    22802172.109
        48.800          37.300
 119086148.976 7  92794425.76545  22661341.938                    22661344.836
        44.100          33.300
 108123549.179 8  84252186.20047  20575232.641                    20575238.547
        50.300          42.500
 120612814.469 7  93984048.35244  22951860.281                    22951864.281
        44.100          29.200
 124317127.816 7  96870543.43145  23656769.602                    23656776.293
        44.800          30.200
 16  9 14  1 54  0.0000000  0  9G15G28G13G20G17G19G24G18G10
 109619735.870 8  85418008.39946  20859939.148                    20859942.426
        48.700          41.100
 126787030.205 6  98795029.46543  24126742.758                    24126746.324
        41.700          22.600
 116168253.231 8  90520799.42845  22106086.398                    22106090.250
        48.600          31.100
 126891068.209 6  98876185.79643  24146568.352                    24146573.520
        40.300          21.700
 119807114.528 8  93356230.78146  22798535.758                    22798539.891
        48.200          36.600
 119015585.078 7  92739440.92445  22647913.586                    22647917.305
        43.800          33.600
 108086321.177 8  84223177.37447  20568148.375                    20568154.098
        48.300          43.200
 120628928.642 7  93996604.84444  22954926.891                    22954930.059
        44.800          29.100
 124282538.884 7  96843591.00544  23650187.602                    23650194.289
        42.100          29.700
 16  9 14  1 54 30.0000000  0  9G15G28G13G20G17G19G24G18G10
 109669959.193 8  85457143.44646  20869495.758                    20869499.949
        48.700          41.400
 126880102.802 7  98867553.55843  24144454.539                    24144456.941
        42.800          22.300
 116260532.195 8  90592705.09845  22123646.195                    22123651.090
        48.300          32.400
 126990662.053 6  98953791.41843  24165520.195                    24165525.777
        41.500          22.200
 119788573.633 8  93341783.35345  22795007.969                    22795011.844
        48.100          35.900
 118945502.162 7  92684830.88345  22634577.906                    22634581.238
        45.700          34.400
 108049429.557 8  84194430.66247  20561128.156                    20561134.160
        49.200          43.200
 120645543.001 7  94009551.07344  22958088.578                    22958091.883
        44.300          28.700
 124248512.878 7  96817077.23844  23643712.273                    23643719.176
        45.400          29.800
 16  9 14  1 55  0.0000000  0  9G15G28G13G20G17G19G24G18G10
 109720666.017 8  85496655.24946  20879144.844                    20879148.938
        49.600          40.500
 126973283.723 7  98940162.06143  24162186.734                    24162189.266
        42.700          22.600
 116353131.859 7  90664860.66545  22141267.492                    22141271.852
        47.300          31.000
 127090338.188 6  99031461.10443  24184488.000                    24184493.371
        41.700          21.800
 119770580.915 7  93327763.08445  22791583.617                    22791587.930
        47.500          33.900
 118875903.734 7  92630598.36645  22621333.742                    22621337.246
        45.000          33.400
 108012875.802 8  84165947.22647  20554172.133                    20554178.121
        49.200          42.000
 120662656.914 7  94022886.57144  22961345.023                    22961348.324
        44.900          27.500
 124215051.299 7  96791003.26244  23637345.227                    23637351.074
        45.800          29.400
 16  9 14  1 55 30.0000000  0  9G15G28G13G20G17G19G24G18G10
 109771855.058 8  85536542.79646  20888886.391                    20888890.336
        48.400          40.600
 127066570.976 7  99012853.41343  24179937.789                    24179940.836
        42.600          22.200
 116446050.183 8  90737264.53345  22158949.133                    22158953.660
        48.100          31.000
 127190093.704 7  99109192.68243  24203471.313                    24203476.195
        43.600          22.200
 119753137.179 7  93314170.57445  22788263.922                    22788268.422
        47.200          33.600
 118806792.288 7  92576745.31145  22608182.555                    22608185.352
        44.600          33.500
 107976659.762 8  84137726.94247  20547280.484                    20547286.543
        48.800          42.200
 120680269.177 7  94036610.38144  22964697.445                    22964700.152
        43.900          27.300
 124182154.808 7  96765369.62944  23631085.625                    23631090.684
        45.800          28.400
 16  9 14  1 56  0.0000000  0  9G15G28G13G20G17G19G24G18G10
 109823524.942 8  85576805.02246  20898718.344                    20898722.316
        49.500          40.500
 127159963.021 7  99085626.41243  24197710.008                    24197712.996
        42.300          22.200
 116539285.535 8  90809915.45645  22176691.258                    22176695.781
        48.100          32.100
 127289925.279 7  99186983.50643  24222469.289                    24222472.086
        43.400          21.100
 119736243.284 7  93301006.51545  22785049.203                    22785053.457
        47.600          34.000
 118738170.976 7  92523274.19245  22595124.289                    22595127.188
        45.300          33.700
 107940782.475 8  84109770.61447  20540453.117                    20540458.844
        49.600          42.800
 120698378.893 7  94050721.83044  22968142.719                    22968146.281
        44.100          26.400
 124149824.573 7  96740177.22744  23624932.813                    23624938.262
        42.800          27.500
 16  9 14  1 56 30.0000000  0  9G15G28G13G20G17G19G24G18G10
 109875674.959 8  85617441.39446  20908642.367                    20908646.086
        49.000          39.900
 127253457.606 7  99158479.35543  24215501.750                    24215504.395
        42.300          21.800
 116632836.210 7  90882812.06145  22194493.422                    22194498.164
        47.800          32.500
 127389830.549 7  99264831.77743  24241480.164                    24241483.621
        42.500          20.900
 119719900.056 7  93288271.55445  22781939.070                    22781943.367
        47.400          33.700
 118670042.872 7  92470187.38345  22582160.086                    22582162.758
        45.000          33.700
 107905244.274 8  84082078.50647  20533690.422                    20533696.105
        48.800          42.400
 120716984.668 7  94065219.81044  22971683.531                    22971686.914
        44.900          28.200
 124118061.585 7  96715426.83944  23618888.594                    23618894.730
        44.600          28.100
 16  9 14  1 57  0.0000000  0  9G15G28G13G20G17G19G24G18G10
 109928303.823 8  85658450.88646  20918657.516                    20918660.957
        49.900          40.200
 127347053.153 6  99231410.91043  24233311.992                    24233315.273
        41.800          21.300
 116726700.458 8  90955953.00645  22212355.359                    22212359.961
        48.000          30.800
 127489806.389 7  99342735.05843  24260504.695                    24260509.301
        43.300          20.900
 119704108.370 7  93275966.36445  22778934.141                    22778937.992
        46.800          34.900
 118602410.408 7  92417486.77045  22569289.953                    22569293.250
        45.100          34.100
 107870045.796 8  84054651.12246  20526992.297                    20526997.945
        49.400          41.400
 120736085.841 7  94080103.83644  22975318.789                    22975321.832
        44.800          26.900
 124086866.735 7  96691119.18744  23612952.594                    23612958.445
        43.700          29.400
 16  9 14  1 57 30.0000000  0  9G15G28G13G20G17G19G24G18G10
 109981410.964 8  85699833.06246  20928763.555                    20928767.234
        49.900          40.300
 127440748.016 6  99304419.89743  24251141.203                    24251144.629
        40.100          21.500
 116820876.845 8  91029337.20245  22230276.867                    22230281.211
        48.300          31.200
 127589849.786 7  99420691.00443  24279541.906                    24279547.188
        42.600          20.400
 119688869.191 7  93264091.70545  22776034.672                    22776038.563
        47.900          33.900
 118535277.167 7  92365175.18345  22556514.313                    22556517.809
        45.600          34.000
 107835187.904 8  84027489.13246  20520359.273                    20520364.633
        49.600          41.400
 120755681.454 7  94095373.14244  22979047.359                    22979051.180
        43.200          27.900
 124056241.304 7  96667255.22344  23607124.516                    23607130.375
        42.600          28.300
 16  9 14  1 58  0.0000000  0  9G15G28G13G20G17G19G24G18G10
 110034994.451 8  85741586.41246  20938960.172                    20938963.738
        48.300          40.600
 127534539.986 6  99377504.52543  24268989.305                    24268992.406
        41.400          20.600
 116915363.281 7  91102962.98845  22248256.797                    22248261.039
        47.600          30.500
 127689957.786 7  99498697.21843  24298591.875                    24298597.020
        42.700          20.900
 119674182.915 7  93252647.89145  22773239.523                    22773243.750
        47.600          34.200
 118468645.445 7  92313254.38345  22543835.430                    22543838.301
        45.900          34.600
 107800670.949 8  84000592.80247  20513790.813                    20513796.398
        48.900          42.100
 120775770.289 7  94111026.77044  22982870.109                    22982873.398
        43.600          28.500
 124026185.849 7  96643835.39344  23601405.242                    23601411.426
        44.000          28.600
 16  9 14  1 58 30.0000000  0  9G15G28G13G20G17G19G24G18G10
 110089053.229 8  85783710.12246  20949247.117                    20949251.000
        49.300          40.600
 127628427.139 6  99450663.35143  24286855.359                    24286858.641
        39.300          20.600
 117010157.937 7  91176828.92744  22266295.492                    22266299.711
        46.400          28.700
 127790127.228 7  99576751.36243  24317654.133                    24317658.457
        43.300          19.600
 119660050.431 7  93241635.59245  22770550.227                    22770554.059
        47.300          34.000
 118402518.039 7  92261726.55845  22531251.766                    22531254.586
        44.500          33.900
 107766494.879 8  83973962.10847  20507287.656                    20507293.082
        49.500          42.200
 120796351.407 7  94127064.00544  22986786.586                    22986790.047
        42.800          26.900
 123996701.142 7  96620860.29244  23595793.898                    23595801.031
        43.900          28.800
 16  9 14  1 59  0.0000000  0  9G15G28G13G20G17G19G24G18G10
 110143586.041 8  85826203.21746  20959623.844                    20959628.113
        49.600          40.000
 127722407.941 6  99523895.15243  24304738.961                    24304742.746
        40.200          20.400
 117105259.683 7  91250934.16844  22284392.086                    22284396.660
        46.800          27.900
 127890355.521 7  99654851.32443  24336726.289                    24336732.000
        42.300          19.300
 119646472.617 7  93231055.50045  22767966.414                    22767970.164
        47.000          33.700
 118336898.023 7  92210594.10345  22518763.961                    22518767.684
        45.500          34.000
 107732661.563 8  83947598.48147  20500848.953                    20500854.977
        49.600          42.000
 120817423.841 7  94143484.07244  22990796.617                    22990799.566
        44.400          27.500
 123967788.406 7  96598330.88744  23590292.539                    23590298.613
        44.100          28.900
 16  9 14  1 59 30.0000000  0  9G15G28G13G20G17G19G24G18G10
 110198591.912 8  85869064.93246  20970090.922                    20970095.586
        48.900          39.800
 127816480.855 6  99597198.72743  24322641.727                    24322644.879
        41.100          20.600
 117200666.652 7  91325277.25444  22302547.586                    22302552.418
        46.600          28.500
 127990639.556 7  99732994.71843  24355810.195                    24355814.473
        42.700          19.000
 119633449.986 7  93220908.01445  22765487.867                    22765492.051
        47.000          34.000
 118271788.433 7  92159859.38345  22506374.102                    22506377.453
        44.300          33.800
 107699171.035 8  83921501.96747  20494476.000                    20494481.828
        49.600          42.000
 120838986.254 7  94160285.94144  22994899.727                    22994902.785
        44.700          27.800
 123939448.449 7  96576247.83044  23584899.445                    23584905.391
        44.100          29.000
                            4  1
RINEX FILE SPLICE; other post-header comments skipped       COMMENT
 16  9 14  2  0  0.0000000  0  9G15G28G13G20G17G19G24G18G10
 110254069.617 8  85912294.30146  20980647.961                    20980652.402
        49.100          39.500
 127910643.579 6  99670572.25743  24340558.750                    24340563.348
        39.300          20.400
 117296376.992 7  91399856.72744  22320760.867                    22320764.680
        47.600          28.600
 128090976.630 7  99811179.47243  24374904.031                    24374907.863
        43.000          19.300
 119620983.687 7  93211194.04445  22763115.711                    22763120.148
        46.400          33.700
 118207191.839 7  92109524.40345  22494082.109                    22494084.523
        44.200          33.700
 107666024.153 8  83895673.22447  20488168.172                    20488174.172
        48.700          42.000
 120861037.885 7  94177469.00144  22999096.680                    22999099.609
        46.300          27.900
 123911682.112 7  96554611.72244  23579616.148                    23579621.773
        44.600          29.400
 16  9 14  2  0 30.0000000  0  9G15G28G13G20G17G19G24G18G10
 110310017.698 8  85955890.17946  20991295.141                    20991299.441
        49.200          40.000
 128004894.121 6  99744014.22043  24358494.195                    24358498.586
        41.400          20.600
 117392388.651 7  91474670.99744  22339031.820                    22339035.254
        47.400          29.300
 128191363.857 7  99889403.32943  24394006.852                    24394010.559
        42.900          18.600
 119609074.175 7  93201913.91145  22760849.414                    22760853.766
        46.100          33.900
 118143110.937 7  92059591.26645  22481887.391                    22481890.824
        43.500          32.900
 107633221.003 8  83870112.32546  20481925.891                    20481932.059
        49.100          41.300
 120883577.269 7  94195032.13144  23003385.336                    23003388.035
        44.600          27.800
 123884490.088 7  96533423.12945  23574441.164                    23574447.121
        45.000          30.400
 16  9 14  2  1  0.0000000  0  9G15G28G13G20G17G19G24G18G10
 110366435.083 8  85999851.76746  21002030.914                    21002035.164
        49.100          40.500
 128099231.002 6  99817523.48143  24376446.398                    24376450.738
        41.600          20.400
 117488700.135 8  91549718.88844  22357359.422                    22357363.055
        48.200          29.000
 128291798.185 7  99967663.87343  24413118.508                    24413121.887
        42.100          18.300
 119597722.054 7  93193068.12145  22758689.734                    22758694.027
        47.200          33.300
 118079548.781 7  92010062.35745  22469792.328                    22469795.223
        44.700          32.700
 107600762.101 8  83844819.67447  20475749.695                    20475755.449
        50.000          42.400
 120906603.008 7  94212974.22644  23007766.820                    23007770.199
        45.900          28.500
 123857873.134 7  96512682.65744  23569376.305                    23569382.211
        42.800          29.100
 16  9 14  2  1 30.0000000  0  9G15G28G13G20G17G19G24G18G10
 110423320.821 8  86044178.30846  21012856.344                    21012860.250
        48.800          40.500
 128193652.819 6  99891098.91343  24394414.078                    24394418.070
        40.500          21.500
 117585309.909 7  91624999.20845  22375743.711                    22375747.582
        47.600          30.400
 128392276.816 6 100045958.90342  24432238.508                    24432242.488
        40.800          17.800
 119586927.965 7  93184657.15745  22756635.234                    22756639.559
        47.000          33.400
 118016508.215 7  91960939.86645  22457795.938                    22457798.598
        44.500          32.500
 107568648.728 8  83819796.27447  20469638.813                    20469644.051
        50.700          42.200
 120930114.232 7  94231294.64344  23012241.023                    23012244.211
        44.500          28.000
 123831832.381 7  96492391.17044  23564420.680                    23564427.359
        43.700          27.800
 16  9 14  2  2  0.0000000  0  9G15G28G13G20G17G19G24G18G10
 110480673.363 8  86088868.58646  21023769.664                    21023774.191
        49.000          40.500
 128288157.676 6  99964739.05443  24412398.195                    24412401.293
        41.200          21.500
 117682216.009 7  91700510.45045  22394184.516                    22394188.520
        47.500          30.500
 128492796.817 6 100124286.22743  24451367.570                    24451371.594
        41.400          18.300
 119576692.622 7  93176681.57945  22754687.453                    22754691.480
        46.600          33.900
 117953991.747 7  91912225.75545  22445899.586                    22445901.789
        44.900          32.800
 107536881.096 8  83795042.28147  20463593.141                    20463599.246
        50.200          42.300
 120954109.538 7  94249992.28344  23016806.867                    23016810.137
        44.900          28.000
 123806368.332 7  96472549.04044  23559575.344                    23559581.324
        43.800          27.900
 16  9 14  2  2 30.0000000  0  9G15G28G13G20G17G19G24G18G10
 110538491.142 8  86133921.40946  21034772.195                    21034776.230
        49.000          40.300
 128382743.304 6 100038442.12543  24430397.414                    24430400.543
        39.800          20.400
 117779416.751 7  91776251.27245  22412680.914                    22412685.324
        47.300          30.400
 128593355.236 7 100202643.44543  24470503.250                    24470509.051
        42.100          19.300
 119567016.494 7  93169141.76745  22752846.328                    22752850.516
        47.200          32.900
 117892001.966 7  91863922.05545  22434103.523                    22434105.113
        45.800          33.200
 107505459.688 8  83770558.07447  20457613.648                    20457619.785
        50.000          42.100
 120978587.755 7  94269066.20644  23021465.289                    23021469.227
        45.400          27.700
 123781481.653 7  96453156.82144  23554839.594                    23554845.258
        43.000          27.200
 16  9 14  2  3  0.0000000  0  9G15G28G13G20G17G19G24G18G10
 110596773.058 8  86179335.87046  21045862.906                    21045867.227
        50.500          39.600
 128477408.155 6 100112206.91843  24448411.719                    24448415.125
        41.400          21.300
 117876910.117 7  91852220.11345  22431233.078                    22431237.586
        46.500          30.100
 128693949.140 6 100281028.31943  24489645.539                    24489651.375
        40.900          20.400
 119557899.981 7  93162038.00745  22751111.820                    22751115.695
        46.400          33.600
 117830541.512 7  91816030.80945  22422407.766                    22422410.379
        45.800          34.100
 107474384.933 8  83746343.97247  20451700.602                    20451706.453
        49.300          42.100
 121003547.810 7  94288515.58544  23026214.078                    23026218.457
        44.000          26.800
 123757172.851 7  96434214.90044  23550212.719                    23550219.926
        42.600          25.500
 16  9 14  2  3 30.0000000  0  9G15G28G13G20G17G19G24G18G10
 110655517.637 8  86225110.84546  21057041.719                    21057045.652
        49.500          39.800
 128572150.376 6 100186032.01443  24466440.344                    24466443.793
        41.300          20.100
 117974694.451 7  91928415.67544  22449841.039                    22449845.246
        47.500          29.200
 128794575.847 6 100359438.69743  24508795.086                    24508799.516
        41.200          19.900
 119549343.782 7  93155370.86345  22749483.508                    22749487.355
        47.300          34.300
 117769613.260 7  91768554.27145  22410813.297                    22410816.070
        47.000          34.600
 107443657.741 8  83722400.69746  20445853.141                    20445859.422
        49.900          41.200
 121028988.278 7  94308339.34044  23031056.250                    23031059.395
        45.100          28.900
 123733442.753 7  96415723.95344  23545697.039                    23545704.672
        42.600          26.400
 16  9 14  2  4  0.0000000  0  9G15G28G13G20G17G19G24G18G10
 110714723.958 8  86271245.61546  21068308.141                    21068312.281
        49.000          39.800
 128666968.435 6 100259916.19343  24484483.875                    24484487.227
        41.300          19.600
 118072767.799 7  92004836.43144  22468503.688                    22468508.188
        47.300          29.100
 128895232.370 6 100437872.38543  24527947.867                    24527952.785
        40.000          18.600
 119541348.320 7  93149140.64445  22747961.594                    22747966.445
        47.200          33.500
 117709220.183 7  91721494.76045  22399321.227                    22399323.301
        47.400          34.800
 107413278.731 8  83698728.73647  20440072.211                    20440078.500
        49.800          42.200
 121054908.114 7  94328536.60144  23035988.883                    23035992.859
        44.800          28.700
 123710292.173 6  96397684.55344  23541291.250                    23541299.254
        41.300          25.000
 16  9 14  2  4 30.0000000  0  9G15G28G13G20G17G19G24G18G10
 110774390.270 8  86317738.83846  21079662.016                    21079666.023
        48.400          40.400
 128761860.362 6 100333857.95243  24502540.813                    24502544.246
        40.500          19.600
 118171128.704 8  92081481.27544  22487221.164                    22487225.809
        48.000          29.400
 128995915.752 6 100516326.97143  24547107.977                    24547111.688
        39.800          18.300
 119533914.103 7  93143347.76345  22746547.289                    22746551.379
        45.800          34.100
 117649364.381 7  91674853.88245  22387931.305                    22387933.355
        46.900          35.000
 107383248.048 8  83675328.20947  20434357.781                    20434363.887
        49.100          42.100
 121081305.686 7  94349106.12744  23041012.039                    23041015.477
        45.300          28.200
 123687721.536 7  96380097.03444  23536996.328                    23537003.484
        42.400          25.400
 16  9 14  2  5  0.0000000  0  9G15G28G13G20G17G19G24G18G10
 110834514.898 8  86364589.19846  21091103.695                    21091107.906
        49.200          40.500
 128856824.468 6 100407855.96743  24520612.344                    24520615.785
        39.700          21.300
 118269775.078 8  92158348.57245  22505993.055                    22505997.195
        48.200          30.400
 129096623.088 6 100594800.23143  24566271.773                    24566275.773
        39.600          19.000
 119527041.586 7  93137992.57745  22745239.320                    22745243.637
        46.000          35.000
 117590048.641 7  91628633.84445  22376643.352                    22376645.695
        47.700          35.800
 107353566.293 8  83652199.57347  20428709.539                    20428715.426
        49.400          43.000
 121108179.786 7  94370046.98244  23046126.266                    23046129.004
        45.100          28.800
 123665731.281 7  96362961.77344  23532812.844                    23532818.512
        43.400          27.900
 16  9 14  2  5 30.0000000  0  9G15G28G13G20G17G19G24G18G10
 110895097.397 8  86411796.34546  21102631.859                    21102636.133
        50.300          41.300
 128951859.169 6 100481908.96243  24538696.500                    24538699.863
        38.400          20.600
 118368705.320 8  92235437.06944  22524819.008                    22524822.551
        48.100          29.600
 129197351.981 6 100673290.27143  24585439.633                    24585444.063
        38.500          20.400
 119520731.625 7  93133075.72345  22744038.648                    22744042.855
        46.700          35.300
 117531275.795 7  91582836.83145  22365459.445                    22365461.711
        47.000          35.800
 107324234.711 8  83629343.80147  20423127.938                    20423134.297
        49.300          42.800
 121135529.449 7  94391358.38244  23051330.078                    23051333.297
        43.900          29.100
 123644322.567 7  96346279.65044  23528738.742                    23528744.063
        43.300          27.500
 16  9 14  2  6  0.0000000  0  9G15G28G13G20G17G19G24G18G10
 110956136.202 8  86459359.03446  21114247.820                    21114251.965
        50.000          40.900
 129046962.743 6 100556015.64643  24556794.141                    24556797.551
        37.500          18.600
 118467917.463 7  92312745.21944  22543698.219                    22543702.195
        47.500          29.200
 129298098.950 6 100751794.38543  24604611.625                    24604616.352
        36.100          20.100
 119514984.364 7  93128597.34545  22742944.555                    22742948.805
        47.600          35.400
 117473048.518 7  91537464.94645  22354379.039                    22354381.039
        47.200          35.700
 107295253.147 8  83606760.76547  20417612.820                    20417619.035
        49.400          42.700
 121163352.921 7  94413039.00344  23056625.031                    23056627.473
        44.300          28.300
 123623495.612 7  96330050.83644  23524775.477                    23524781.543
        43.700          29.400
 16  9 14  2  6 30.0000000  0  9G15G28G13G20G17G19G24G18G10
 111017629.525 8  86507275.89746  21125948.938                    21125953.039
        49.100          40.900
 129142133.567 6 100630174.68443  24574904.234                    24574907.836
        37.800          19.300
 118567410.006 7  92390271.88344  22562630.336                    22562634.668
        46.900          29.500
 129398861.524 6 100830310.67743  24623786.180                    24623790.789
        36.500          20.400
 119509800.181 7  93124557.73045  22741958.070                    22741962.395
        47.000          35.700
 117415369.139 7  91492520.00045  22343402.922                    22343405.348
        47.000          35.000
 107266622.710 8  83584451.33447  20412164.523                    20412170.883
        49.600          43.500
 121191649.116 7  94435087.97144  23062009.484                    23062012.988
        44.200          28.500
 123603251.018 7  96314275.80444  23520922.984                    23520929.574
        44.200          28.300
 16  9 14  2  7  0.0000000  0  9G15G28G13G20G17G19G24G18G10
 111079575.716 8  86555545.63346  21137737.242                    21137740.969
        48.800          40.100
 129237369.590 6 100704384.56643  24593027.141                    24593029.957
        38.900          19.000
 118667180.743 7  92468015.28944  22581616.688                    22581621.141
        47.000          28.700
 129499637.100 6 100908837.06343  24642962.477                    24642966.805
        37.000          19.300
 119505179.426 7  93120957.15646  22741079.070                    22741083.375
        47.000          36.100
 117358240.298 7  91448004.02645  22332531.336                    22332534.109
        46.000          35.700
 107238343.665 8  83562415.71047  20406783.094                    20406789.227
        49.400          43.200
 121220416.235 7  94457503.88244  23067483.156                    23067486.543
        43.900          28.700
 123583589.107 7  96298954.85244  23517181.117                    23517188.008
        44.600          29.700
 16  9 14  2  7 30.0000000  0  9G15G28G13G20G17G19G24G18G10
 111141974.052 8  86604167.70546  21149610.555                    21149615.219
        48.000          39.600
 129332669.382 6 100778644.10943  24611162.227                    24611164.730
        38.000          18.600
 118767228.145 7  92545974.29044  22600654.523                    22600659.707
        46.200          28.200
 129600422.519 6 100987371.15743  24662140.445                    24662145.301
        36.300          18.300
 119501122.655 8  93117796.06246  22740306.828                    22740311.125
        48.200          36.400
 117301664.685 7  91403919.15545  22321765.578                    22321768.379
        46.200          35.200
 107210416.512 8  83540654.29747  20401468.875                    20401475.094
        49.400          42.900
 121249652.973 7  94480285.74044  23073047.383                    23073049.719
        44.400          27.900
 123564510.581 7  96284088.44744  23513550.984                    23513557.176
        43.900          29.600
 16  9 14  2  8  0.0000000  0  9G15G28G13G20G17G19G24G18G10
 111204822.470 8  86653140.48746  21161570.578                    21161574.953
        48.500          40.200
 129428031.107 6 100852951.93543  24629309.078                    24629311.617
        38.600          19.900
 118867550.035 7  92624147.19444  22619745.281                    22619750.297
        46.100          29.200
 129701215.062 5 101065910.80343  24681322.031                    24681324.867
        35.500          18.600
 119497629.806 7  93115074.38146  22739642.539                    22739646.496
        47.800          36.200
 117245644.263 7  91360266.90345  22311105.484                    22311108.016
        46.300          35.900
 107182842.016 8  83519167.68047  20396221.875                    20396227.691
        49.400          43.200
 121279358.122 7  94503432.60044  23078700.063                    23078703.035
        44.100          28.600
 123546015.585 7  96269676.75745  23510031.898                    23510037.879
        46.000          31.100
 16  9 14  2  8 30.0000000  0  9G15G28G13G20G17G19G24G18G10
 111268120.001 8  86702463.22546  21173615.914                    21173620.355
        48.700          40.800
 129523453.203 6 100927306.82543  24647467.227                    24647470.711
        38.700          19.000
 118968144.905 7  92702532.77844  22638888.109                    22638892.527
        47.100          29.900
 129802011.869 6 101144453.76743  24700503.914                    24700506.801
        36.500          20.600
 119494701.402 7  93112792.52846  22739085.133                    22739089.973
        47.300          36.100
 117190181.863 7  91317049.46845  22300550.641                    22300554.039
        45.900          35.900
 107155620.647 8  83497956.23047  20391042.156                    20391047.727
        49.600          43.600
 121309530.191 7  94526943.27844  23084441.914                    23084444.621
        44.100          28.900
 123528104.863 7  96255720.33445  23506623.289                    23506629.133
        44.700          30.700
 16  9 14  2  9  0.0000000  0  9G15G28G13G20G17G19G24G18G10
 111331864.893 8  86752134.55646  21185746.570                    21185750.508
        49.500          41.000
 129618933.746 6 101001707.25943  24665636.594                    24665639.754
        39.200          20.600
 119069010.727 7  92781129.51645  22658082.594                    22658087.078
        47.200          30.600
 129902809.944 6 101222997.71043  24719685.727                    24719687.922
        38.900          20.400
 119492337.725 7  93110950.72745  22738635.203                    22738639.563
        47.000          35.300
 117135279.995 7  91274268.81045  22290103.633                    22290106.582
        47.100          35.400
 107128752.853 8  83477020.29047  20385929.031                    20385934.902
        49.500          43.600
 121340167.608 7  94550816.55944  23090272.008                    23090274.980
        43.900          29.000
 123510778.719 7  96242219.43144  23503326.336                    23503331.457
        43.900          29.100
 16  9 14  2  9 30.0000000  0  9G15G28G13G20G17G19G24G18G10
 111396055.606 8  86802153.28346  21197961.352                    21197965.348
        49.200          40.700
 129714471.460 6 101076152.22643  24683816.617                    24683820.520
        38.800          21.100
 119170145.575 7  92859935.86645  22677327.945                    22677332.285
        47.200          30.600
 130003606.607 6 101301540.57743  24738865.617                    24738869.164
        37.200          20.900
 119490539.330 7  93109549.38845  22738293.211                    22738296.688
        47.600          35.500
 117080941.153 7  91231926.87245  22279763.164                    22279765.918
        44.900          35.400
 107102239.610 8  83456360.60847  20380883.633                    20380889.676
        48.700          43.100
 121371268.918 7  94575051.34244  23096189.945                    23096193.555
        43.800          29.400
 123494037.567 7  96229174.36745  23500140.680                    23500146.273
        43.500          30.300
 16  9 14  2 10  0.0000000  0  9G15G28G13G20G17G19G24G18G10
 111460690.897 8  86852518.42646  21210260.781                    21210265.496
        48.000          40.100
 129810064.255 6 101150640.12343  24702008.023                    24702010.898
        40.900          20.600
 119271547.748 7  92938950.54645  22696624.180                    22696628.223
        47.900          30.100
 130104399.256 6 101380080.30743  24758045.344                    24758050.027
        38.000          20.100
 119489306.149 7  93108588.47745  22738058.398                    22738062.512
        47.300          35.400
 117027167.907 7  91190025.66245  22269530.234                    22269532.902
        45.200          35.000
 107076081.166 8  83435977.41447  20375905.461                    20375911.969
        48.500          43.600
 121402832.819 7  94599646.57744  23102196.852                    23102200.383
        43.800          29.900
 123477881.665 7  96216585.34745  23497066.180                    23497072.656
        44.500          30.200
 16  9 14  2 10 30.0000000  0  9G15G28G13G20G17G19G24G18G10
 111525768.998 7  86903228.62046  21222644.398                    21222649.453
        47.200          39.200
 129905710.470 6 101225169.65243  24720208.820                    24720212.164
        39.700          21.100
 119373215.133 8  93018171.87145  22715971.070                    22715975.117
        48.000          30.200
 130205184.868 6 101458614.49843  24777224.367                    24777228.301
        38.300          20.400
 119488638.254 7  93108068.06545  22737931.078                    22737935.367
        47.900          35.700
 116973962.145 7  91148566.64145  22259405.945                    22259408.688
        46.500          35.300
 107050277.730 8  83415870.83747  20370995.703                    20371002.176
        48.500          43.200
 121434857.385 7  94624600.75444  23108290.688                    23108294.301
        44.200          29.200
 123462311.319 7  96204452.59445  23494102.703                    23494110.328
        44.000          30.200
 16  9 14  2 11  0.0000000  0  9G15G28G13G20G17G19G24G18G10
 111591288.551 7  86954282.80446  21235112.180                    21235117.051
        47.700          39.800
 130001408.722 6 101299739.68843  24738418.672                    24738422.570
        40.400          21.300
 119475145.903 7  93097598.44844  22735367.180                    22735371.719
        45.900          29.400
 130305960.558 6 101537141.02143  24796400.867                    24796404.527
        38.600          21.800
 119488536.055 7  93107988.42345  22737912.195                    22737916.105
        47.500          35.300
 116921326.775 7  91107552.08545  22249389.813                    22249392.344
        46.700          35.900
 107024830.235 8  83396041.62147  20366153.516                    20366159.426
        50.000          43.700
 121467341.585 7  94649913.10744  23114472.117                    23114476.031
        43.600          28.900
 123447326.968 7  96192776.47245  23491251.609                    23491258.414
        44.400          30.700
 16  9 14  2 11 30.0000000  0  9G15G28G13G20G17G19G24G18G10
 111657248.034 8  87005679.78446  21247664.742                    21247669.137
        48.200          40.400
 130097157.243 6 101374348.91843  24756639.797                    24756642.949
        40.800          20.600
 119577338.386 7  93177228.93844  22754813.938                    22754818.410
        45.700          27.700
 130406723.818 6 101615657.88143  24815575.570                    24815579.465
        39.400          21.100
 119488999.647 7  93108349.67045  22738000.203                    22738004.145
        46.900          35.900
 116869264.030 7  91066983.73545  22239482.711                    22239484.820
        46.400          35.900
 106999739.174 8  83376490.14247  20361378.742                    20361385.066
        48.600          43.200
 121500283.561 7  94675582.15444  23120740.586                    23120744.004
        42.100          28.200
 123432928.882 7  96181557.16245  23488511.953                    23488518.723
        44.400          30.400
 16  9 14  2 12  0.0000000  0  9G15G28G13G20G17G19G24G18G10
 111723645.917 8  87057418.38046  21260299.602                    21260304.234
        48.100          40.600
 130192954.400 6 101448996.02743  24774869.836                    24774872.988
        40.200          20.900
 119679790.631 7  93257061.83044  22774310.070                    22774314.527
        45.600          27.900
 130507471.840 6 101694162.81243  24834746.797                    24834750.934
        40.200          19.900
 119490029.158 8  93109151.90346  22738195.930                    22738200.035
        48.600          36.300
 116817776.129 7  91026863.31846  22229684.789                    22229686.984
        46.600          36.500
 106975004.860 8  83357216.65247  20356671.555                    20356677.559
        48.800          44.100
 121533681.477 6  94701606.49244  23127095.648                    23127099.324
        41.500          26.000
 123419117.233 7  96170794.84944  23485883.430                    23485890.711
        44.900          29.600
 16  9 14  2 12 30.0000000  0  9G15G28G13G20G17G19G24G18G10
 111790480.518 8  87109497.27446  21273018.078                    21273022.449
        48.300          40.600
 130288798.522 6 101523679.70643  24793107.859                    24793111.805
        40.900          21.100
 119782500.936 7  93337095.83044  22793854.867                    22793859.805
        44.700          27.500
 130608201.868 6 101772653.76543  24853914.922                    24853919.980
        40.100          20.900
 119491624.958 7  93110395.39446  22738499.938                    22738503.594
        47.300          36.500
 116766865.785 7  90987192.94546  22219997.273                    22219998.953
        46.800          36.400
 106950628.447 8  83338222.04547  20352032.727                    20352038.836
        49.600          43.400
 121567534.199 7  94727985.20944  23133537.984                    23133540.801
        42.800          26.800
 123405892.401 7  96160489.78444  23483367.094                    23483373.676
        44.600          29.500
 16  9 14  2 13  0.0000000  0  9G15G28G13G20G17G19G24G18G10
 111857750.300 7  87161915.26846  21285818.859                    21285823.363
        47.600          39.800
 130384687.930 6 101598398.71843  24811354.961                    24811358.789
        40.400          20.900
 119885467.202 7  93417329.25644  22813448.820                    22813453.582
        44.500          27.500
 130708910.900 6 101851128.35543  24873080.266                    24873082.641
        41.700          19.900
 119493786.612 7  93112079.81846  22738910.602                    22738914.957
        46.800          36.300
 116716534.587 7  90947973.84645  22210419.648                    22210421.676
        47.900          35.900
 106926609.854 8  83319506.25747  20347462.273                    20347468.453
        49.100          43.400
 121601840.035 7  94754717.01544  23140065.984                    23140069.859
        42.900          28.300
 123393254.386 7  96150641.96844  23480961.742                    23480968.492
        44.900          29.300
 16  9 14  2 13 30.0000000  0  9G15G28G13G20G17G19G24G18G10
 111925453.908 7  87214671.31346  21298702.234                    21298707.281
        47.200          39.700
 130480621.006 6 101673151.78043  24829610.234                    24829614.234
        38.600          20.900
 119988687.555 7  93497760.68744  22833091.625                    22833095.355
        45.400          26.600
 130809596.344 6 101929584.56143  24892241.484                    24892242.367
        41.000          19.600
 119496514.540 7  93114205.50346  22739430.281                    22739434.234
        46.200          36.300
 116666785.354 7  90909208.22845  22200952.188                    22200954.246
        46.300          35.700
 106902949.809 8  83301069.86047  20342960.023                    20342966.086
        49.500          44.000
 121636597.395 7  94781800.64344  23146680.422                    23146683.973
        43.100          28.500
 123381203.479 7  96141251.64845  23478668.922                    23478675.242
        45.300          30.200
 16  9 14  2 14  0.0000000  0  9G15G28G13G20G17G19G24G18G10
 111993589.312 7  87267763.81246  21311668.609                    21311672.551
        47.900          40.300
 130576596.135 6 101747937.58443  24847873.641                    24847877.742
        38.600          22.000
 120092160.130 7  93578388.65344  22852781.906                    22852785.188
        46.100          27.800
 130910255.256 6 102008020.09343  24911395.438                    24911398.344
        40.400          20.600
 119499809.141 7  93116772.73046  22740056.898                    22740061.383
        46.700          36.900
 116617620.064 7  90870897.62446  22191596.164                    22191598.563
        46.100          36.100
 106879648.940 8  83282913.34047  20338526.203                    20338532.578
        50.100          44.000
 121671804.681 7  94809234.87644  23153380.391                    23153383.719
        43.500          29.700
 123369739.842 7  96132318.94145  23476488.555                    23476493.715
        45.800          30.200
 16  9 14  2 14 30.0000000  0  9G15G28G13G20G17G19G24G18G10
 112062154.544 8  87321191.24346  21324716.086                    21324719.941
        48.600          39.900
 130672611.774 6 101822754.94643  24866145.172                    24866148.910
        39.200          21.800
 120195882.462 7  93659211.25344  22872519.688                    22872522.152
        46.600          27.000
 131010884.784 6 102086432.74243  24930543.750                    24930548.473
        40.500          20.900
 119503669.671 7  93119780.94445  22740791.531                    22740796.008
        45.100          35.200
 116569040.883 7  90833043.72146  22182352.078                    22182354.492
        47.300          36.000
 106856706.993 8  83265036.49747  20334160.359                    20334166.508
        48.500          44.300
 121707459.725 7  94837017.99944  23160165.234                    23160168.391
        44.100          29.700
 123358863.363 7  96123843.72344  23474418.359                    23474423.977
        45.300          29.700
 16  9 14  2 15  0.0000000  0  9G15G28G13G20G17G19G24G18G10
 112131149.149 8  87374953.26046  21337845.672                    21337849.922
        48.600          40.900
 130768666.319 6 101897602.67643  24884424.141                    24884427.348
        39.100          20.600
 120299853.157 7  93740227.36944  22892304.867                    22892306.484
        46.300          26.200
 131111482.809 6 102164820.80643  24949686.969                    24949691.258
        39.200          20.400
 119508096.664 7  93123230.57245  22741633.766                    22741638.023
        45.900          34.800
 116521050.441 7  90795648.58146  22173219.898                    22173222.293
        46.900          36.900
 106834125.177 8  83247440.28547  20329862.891                    20329869.348
        50.000          43.400
 121743561.216 7  94865149.00844  23167035.031                    23167038.426
        43.900          29.200
 123348574.520 7  96115826.44844  23472460.117                    23472465.668
        44.700          29.600
 16  9 14  2 15 30.0000000  0  9G15G28G13G20G17G19G24G18G10
 112200570.804 8  87429048.04446  21351055.945                    21351060.324
        48.100          40.600
 130864758.400 6 101972479.59743  24902709.477                    24902712.547
        39.300          20.600
 120404070.356 7  93821435.58644  22912136.039                    22912138.918
        46.300          26.000
 131212046.245 6 102243181.94543  24968822.133                    24968827.516
        38.300          20.100
 119513090.161 7  93127121.62445  22742584.641                    22742587.992
        47.600          35.300
 116473650.780 7  90758713.80446  22164199.711                    22164202.484
        46.800          36.600
 106811904.271 8  83230125.28847  20325635.203                    20325640.652
        49.800          44.700
 121780107.626 7  94893626.71444  23173989.680                    23173993.461
        44.300          29.900
 123338873.315 7  96108267.08544  23470613.320                    23470619.777
        43.900          29.800
