     2.11           OBSERVATION DATA    M (MIXED)           RINEX VERSION / TYPE
teqc  2016Apr1      anonyme             20160926 14:51:13UTCPGM / RUN BY / DATE
Linux 2.4.21-27.ELsmp|Opteron|gcc|Linux x86_64|=+           COMMENT
-Unknown-                                                   MARKER NAME
-Unknown-           -Unknown-                               OBSERVER / AGENCY
-Unknown-           U-BLOX              -Unknown-           REC # / TYPE / VERS
-Unknown-           UBLOX           NONE                    ANT # / TYPE
        0.0000        0.0000        0.0000                  APPROX POSITION XYZ
        0.0000        0.0000        0.0000                  ANTENNA: DELTA H/E/N
     1     0                                                WAVELENGTH FACT L1/2
     4    L1    C1    S1    D1                              # / TYPES OF OBSERV
 SNR is mapped to RINEX snr flag value [0-9]                COMMENT
  L1 & L2: min(max(int(snr_dBHz/6), 0), 9)                  COMMENT
  2016     9    14     0     1    0.0010000     GPS         TIME OF FIRST OBS
    17                                                      LEAP SECONDS
                                                            END OF HEADER
 16  9 14  0  1  0.0010000  0  9G24G15G20G28G05S20G13G08G30
  -7084359.376 6  23768462.416          40.000        2560.865
 -16486912.201 7  21343983.067          47.000        1297.836
  -8222931.780 7  21551785.705          46.000        -958.791
  -4797451.708 6  21617757.457          39.000       -1152.128
  -2672499.616 6  22830560.084          41.000       -3849.486
 104072141.398 6  38886505.138          39.000        -629.739
 -17848301.775 7  20326436.161          43.000        -478.861
   3014097.04315  25500163.523          31.000       -1893.916
   8426956.938 6  23175482.667          39.000       -3616.035
 16  9 14  0  2  0.0010000  0 10G24G15G20G28G21G05S20G13G08G30
  -7237505.160 7  23739321.163          44.000        2545.840
 -16563894.684 8  21329331.803          48.000        1269.788
  -8164031.186 8  21562994.730          48.000       -1002.937
  -4727099.124 6  21631148.885          40.000       -1191.558
   3054567.31014  25635109.267          26.000       -1829.166
  -2440824.945 6  22874642.013          41.000       -3871.404
 104110074.742 6  38893725.105          41.000        -633.586
 -17818546.056 7  20332098.635          44.000        -511.516
   3128852.76915  25522003.291          34.000       -1931.010
   8644385.561 7  23216863.398          43.000       -3629.434
 16  9 14  0  3  0.0010000  0  9G24G15G20G28G05S20G13G08G30
  -7389926.081 7  23710316.869          45.000        2535.830
 -16639380.962 8  21314967.412          48.000        1246.485
  -8102641.784 8  21574676.743          48.000       -1042.574
  -4654555.645 6  21644950.192          40.000       -1225.336
  -2207996.499 7  22918952.225          43.000       -3888.321
 104148044.983 6  38900950.402          41.000        -632.115
 -17786995.186 7  20338102.539          45.000        -539.898
   3245695.781 6  25544238.279          36.000       -1965.061
   8862417.291 6  23258350.802          41.000       -3637.133
 16  9 14  0  4  0.0010000  0  9G24G15G20G28G05S20G13G08G30
  -7541656.514 7  23681444.602          46.000        2522.603
 -16713399.872 8  21300883.464          49.000        1220.670
  -8038809.301 7  21586823.447          47.000       -1084.592
  -4579870.563 6  21659166.134          41.000       -1262.747
  -1974076.953 7  22963469.310          44.000       -3908.678
 104186004.351 6  38908173.074          41.000        -633.594
 -17753685.211 7  20344439.909          43.000        -570.445
   3364575.020 5  25566856.519          33.000       -1999.608
   9080999.433 6  23299945.926          39.000       -3649.313
 16  9 14  0  5  0.0000000  0  9G24G15G20G28G05S20G13G08G30
  -7692603.120 7  23352925.424          45.000        2510.025
 -16785852.238 7  20987300.424          47.000        1195.388
  -7972452.495 7  21299657.813          47.000       -1125.611
  -4502965.362 6  21374005.015          40.000       -1299.484
  -1739002.174 7  22708409.703          43.000       -3926.565
 104224044.569 6  38615619.597          41.000        -634.039
 -17718524.522 7  20051338.303          43.000        -600.466
   3485565.14215  25290088.815          32.000       -2035.549
   9300206.464 6  23041862.650          37.000       -3658.503
 16  9 14  0  6  0.0000000  0 10G24G15G20G28G21G05S20G13G08G30
  -7842994.011 7  23324303.961          44.000        2501.756
 -16856960.981 7  20973770.477          47.000        1173.528
  -7903811.708 7  21312717.756          45.000       -1162.993
  -4424083.188 6  21389011.853          38.000       -1331.320
   3503036.13214  25421015.861          28.000       -1921.100
  -1503028.808 7  22753315.709          43.000       -3940.497
 104261924.229 6  38622827.183          41.000        -630.498
 -17681743.809 7  20058338.013          43.000        -626.957
   3608419.396 5  25313470.073          35.000       -2062.606
   9519791.491 6  23083653.601          41.000       -3663.187
 16  9 14  0  7  0.0000000  0 10G24G15G20G28G21G05S20G13G08G30
  -7992765.623 7  23295802.180          42.000        2491.257
 -16926656.316 8  20960509.428          49.000        1150.030
  -7832835.934 7  21326226.188          47.000       -1202.000
  -4343176.187 6  21404406.933          37.000       -1365.266
   3618962.24514  25443065.782          29.000       -1942.178
  -1266122.815 6  22798393.783          41.000       -3955.531
 104299710.525 6  38630017.248          41.000        -628.744
 -17643281.388 7  20065655.247          42.000        -654.729
   3733183.161 5  25337208.800          33.000       -2094.518
   9739800.080 7  23125518.532          42.000       -3670.402
 16  9 14  0  8  0.0000000  0  9G24G15G20G28G05S20G13G08G30
  -8141936.701 7  23267419.017          42.000        2480.961
 -16994952.081 8  20947511.537          48.000        1126.481
  -7759556.832 7  21340169.191          46.000       -1240.440
  -4260279.106 6  21420183.491          38.000       -1398.269
  -1028330.631 6  22843640.121          40.000       -3970.668
 104337383.133 6  38637186.697          41.000        -626.621
 -17603159.001 7  20073290.450          43.000        -682.151
   3859818.11915  25361310.447          32.000       -2123.821
   9960194.946 7  23167459.345          43.000       -3676.893
 16  9 14  0  9  0.0000000  0  9G24G15G20G28G05S20G13G08G30
  -8290492.007 7  23239151.680          42.000        2470.240
 -17061827.405 8  20934787.423          49.000        1102.081
  -7683972.750 7  21354553.693          47.000       -1279.761
  -4175392.574 6  21436340.883          40.000       -1431.826
   -789666.297 6  22889058.580          41.000       -3985.614
 104374938.889 6  38644333.424          41.000        -625.938
 -17561363.197 7  20081245.970          44.000        -711.544
   3988320.87415  25385761.937          32.000       -2157.533
  10180973.344 7  23209472.306          43.000       -3683.115
 16  9 14  0 10  0.0000000  0 10G24G15G20G28G21G05S20G13G08G30
  -8438343.852 7  23211015.490          42.000        2458.512
 -17127189.315 8  20922348.829          48.000        1077.302
  -7606010.024 7  21369389.537          46.000       -1318.388
  -4088445.776 6  21452884.815          38.000       -1465.240
   3973265.69414  25510677.436          27.000       -2006.653
   -550071.561 7  22934654.803          43.000       -3999.554
 104412452.082 6  38651470.982          41.000        -624.191
 -17517809.345 7  20089531.333          43.000        -740.106
   4118759.00615  25410584.086          30.000       -2190.320
  10402204.423 7  23251571.820          43.000       -3690.249
 16  9 14  0 11  0.0000000  0 10G24G15G20G28G21G05S20G13G08G30
  -8585543.240 7  23183006.241          44.000        2447.451
 -17191083.935 8  20910188.924          49.000        1051.833
  -7525733.488 7  21384665.676          45.000       -1357.812
  -3999506.249 6  21469808.220          37.000       -1498.783
   4094228.48214  25533690.931          26.000       -2027.554
   -309625.925 7  22980409.667          44.000       -4015.134
 104449871.337 6  38658591.134          41.000        -622.471
 -17472550.880 7  20098145.703          43.000        -768.440
   4251061.68914  25435759.123          24.000       -2220.357
  10623819.460 7  23293744.712          45.000       -3696.690
 16  9 14  0 12  0.0000000  0  9G24G15G20G28G05S20G13G08G30
  -8732026.046 7  23155131.638          46.000        2435.750
 -17253440.645 8  20898322.864          48.000        1026.725
  -7443093.396 7  21400393.662          47.000       -1396.519
  -3908525.692 6  21487120.973          39.000       -1532.924
    -68293.782 6  23026333.195          41.000       -4028.772
 104487248.321 6  38665702.804          41.000        -622.300
 -17425526.719 7  20107094.079          44.000        -798.151
   4385273.63414  25461300.736          29.000       -2251.854
  10845865.107 7  23335998.652          43.000       -3703.915
 16  9 14  0 13  0.0000000  0 10G24G15G20G28G21G05S20G13G08G30
  -8877865.427 7  23127378.018          47.000        2425.465
 -17314327.939 8  20886737.045          49.000        1002.997
  -7358178.644 7  21416550.094          47.000       -1433.988
  -3815595.727 6  21504805.190          41.000       -1562.977
   4339147.68314  25580458.379          27.000       -2064.884
    173822.509 6  23072402.102          40.000       -4041.394
 104524511.427 7  38672794.302          42.000        -619.346
 -17376812.914 7  20116365.798          44.000        -825.264
   4521300.64014  25487186.974          29.000       -2281.622
  11068250.058 7  23378314.828          43.000       -3708.409
 16  9 14  0 14  0.0000000  0  9G24G15G20G28G05S20G13G08G30
  -9023055.785 7  23099748.190          47.000        2413.353
 -17373734.544 8  20875431.650          48.000         976.490
  -7270998.159 7  21433139.545          46.000       -1472.722
  -3720727.172 6  21522856.681          38.000       -1598.494
    416699.953 6  23118620.190          38.000       -4054.240
 104561665.677 6  38679865.898          41.000        -618.986
 -17326406.207 7  20125956.595          44.000        -855.081
   4659128.54513  25513409.224          23.000       -2321.439
  11290962.735 7  23420696.049          42.000       -3715.509
 16  9 14  0 15  0.0000000  0  9G24G15G20G28G05S20G13G08G30
  -9167479.364 7  23072265.214          46.000        2401.343
 -17431537.831 8  20864432.045          48.000         950.531
  -7181449.596 7  21450182.501          47.000       -1511.209
  -3623820.678 6  21541301.282          40.000       -1630.055
    660426.482 6  23164998.576          38.000       -4069.032
 104598814.720 6  38686934.292          41.000        -618.285
 -17274193.529 7  20135890.184          43.000        -884.887
   4798842.00013  25540004.429          22.000       -2344.108
  11514102.943 6  23463154.628          40.000       -3722.216
 16  9 14  0 16  0.0000000  0  9G24G15G20G28G05S20G13G08G30
  -9311190.659 7  23044918.358          45.000        2388.625
 -17487786.687 8  20853730.071          49.000         923.921
  -7089603.810 7  21467658.702          47.000       -1550.343
  -3524947.778 7  21560117.791          42.000       -1664.275
    904919.993 6  23211530.088          41.000       -4081.196
 104635902.814 6  38693993.429          41.000        -617.836
 -17220231.314 7  20146161.984          44.000        -914.807
   4940371.09913  25566939.669          23.000       -2369.654
  11737599.501 6  23505687.108          41.000       -3727.976
 16  9 14  0 17  0.0000000  0  8G24G15G20G28G05S20G13G30
  -9454118.545 7  23017716.374          43.000        2375.669
 -17542404.554 7  20843335.256          47.000         897.018
  -6995405.379 7  21485584.717          47.000       -1589.251
  -3424054.454 7  21579317.157          43.000       -1698.738
   1150222.978 7  23258211.759          43.000       -4094.460
 104672985.824 6  38701049.721          41.000        -617.551
 -17164451.558 7  20156773.871          43.000        -944.443
  11961506.622 7  23548297.791          42.000       -3734.867
 16  9 14  0 18  0.0000000  0  9G24G15G20G28G05S20G13G08G30
  -9596298.378 7  22990662.830          45.000        2363.233
 -17595422.333 8  20833245.985          48.000         870.104
  -6898906.712 7  21503947.843          47.000       -1626.992
  -3321195.643 7  21598889.086          43.000       -1730.303
   1396269.899 7  23305031.583          42.000       -4107.178
 104710014.085 7  38708096.302          42.000        -617.463
 -17106893.897 7  20167729.458          45.000        -973.733
   5228868.35112  25621860.120          15.000       -2439.554
  12185771.234 7  23590975.222          42.000       -3740.936
 16  9 14  0 19  0.0000000  0  9G24G15G20G28G05S20G13G08G30
  -9737698.327 7  22963756.854          47.000        2350.347
 -17646803.048 8  20823468.942          49.000         842.922
  -6800093.156 7  21522750.575          46.000       -1665.692
  -3216357.778 7  21618836.744          42.000       -1763.220
   1643064.369 6  23351996.104          41.000       -4119.014
 104747022.647 6  38715139.402          41.000        -615.646
 -17047530.110 7  20179023.501          43.000       -1004.134
   5375924.32012  25649864.534          15.000       -2472.902
  12410408.119 6  23633719.975          41.000       -3746.204
 16  9 14  0 20  0.0000000  0  9G24G15G20G28G05S20G13G08G30
  -9878378.903 8  22936986.972          48.000        2339.006
 -17696601.842 8  20813992.863          48.000         816.927
  -6699042.322 7  21541979.650          45.000       -1702.069
  -3109619.993 6  21639145.351          40.000       -1794.274
   1890516.899 6  23399084.217          40.000       -4128.568
 104783950.170 6  38722166.413          41.000        -613.715
 -16986424.658 7  20190653.085          43.000       -1032.921
   5524730.23113  25678170.088          18.000       -2497.054
  12635340.374 7  23676525.438          42.000       -3750.753
 16  9 14  0 21  0.0000000  0  8G24G15G20G28G05S20G13G30
 -10018320.152 7  22910356.099          47.000        2324.852
 -17744794.567 8  20804821.212          48.000         788.897
  -6595752.286 7  21561636.396          46.000       -1741.085
  -3000981.114 6  21659821.102          40.000       -1827.090
   2138618.561 6  23446293.172          38.000       -4141.057
 104820802.535 6  38729178.189          41.000        -615.402
 -16923561.333 7  20202615.462          43.000       -1063.546
  12860570.559 6  23719382.981          41.000       -3756.800
 16  9 14  0 22  0.0000000  0  8G24G15G20G28G05S20G13G30
 -10157422.900 7  22883884.922          45.000        2311.900
 -17791275.418 8  20795975.914          49.000         760.753
  -6490140.675 7  21581734.361          46.000       -1779.089
  -2890359.794 6  21680871.709          40.000       -1859.604
   2387440.799 6  23493640.219          37.000       -4151.831
 104857679.843 6  38736196.885          41.000        -614.683
 -16858844.141 7  20214928.816          42.000       -1093.559
  13086182.670 6  23762315.978          41.000       -3762.920
 16  9 14  0 23  0.0000000  0  9G24G15G20G28G17G05S20G13G30
 -10295721.940 7  22857566.617          44.000        2298.271
 -17836076.215 8  20787451.029          48.000         731.981
  -6382261.763 7  21602262.544          45.000       -1817.174
  -2777811.538 6  21702290.194          40.000       -1892.302
   -135141.41516  24889205.948          37.000        2251.917
   2636919.179 6  23541121.337          39.000       -4163.714
 104894528.588 6  38743208.522          40.000        -614.289
 -16792313.146 7  20227590.127          42.000       -1124.929
  13312124.386 7  23805312.870          42.000       -3769.119
 16  9 14  0 24  0.0000000  0 10G24G15G20G28G17G05S20G13G18G30
 -10433143.950 7  22831414.926          44.000        2283.141
 -17879117.945 8  20779259.347          48.000         703.010
  -6272060.007 7  21623233.902          46.000       -1855.920
  -2663281.722 6  21724086.223          41.000       -1925.226
   -269984.204 6  24863557.112          36.000        2242.907
   2887098.667 6  23588728.567          41.000       -4175.610
 104931410.345 6  38750225.255          41.000        -614.174
 -16723899.488 7  20240609.202          43.000       -1155.439
   -102988.28316  24016513.056          38.000        1708.088
  13538453.064 6  23848378.978          41.000       -3774.479
 16  9 14  0 25  0.0000000  0 10G24G15G20G28G17G05S20G13G18G30
 -10569754.023 7  22805420.166          46.000        2270.101
 -17920460.627 8  20771393.557          49.000         674.947
  -6159619.553 7  21644628.157          45.000       -1892.518
  -2546854.601 6  21746237.808          39.000       -1956.450
   -404306.80315  24838000.858          33.000        2233.722
   3137886.058 7  23636452.915          42.000       -4184.619
 104968259.553 6  38757236.787          41.000        -613.803
 -16653671.128 7  20253972.858          43.000       -1185.765
   -204767.36416  23997144.457          37.000        1684.650
  13765088.052 6  23891505.882          40.000       -3779.382
 16  9 14  0 26  0.0000000  0  9G24G15G20G28G05S20G13G18G30
 -10705508.724 7  22779586.253          46.000        2255.604
 -17960056.970 8  20763859.879          49.000         645.815
  -6044916.798 7  21666458.658          47.000       -1930.714
  -2428506.984 6  21768756.564          38.000       -1987.231
   3389295.299 6  23684291.535          40.000       -4194.308
 105005106.644 6  38764250.073          41.000        -613.641
 -16581590.325 7  20267689.829          44.000       -1216.487
   -305059.272 6  23978055.446          36.000        1659.731
  13992055.993 6  23934694.979          38.000       -3785.777
 16  9 14  0 27  0.0000000  0 10G24G15G20G28G05S20G13G08G18G30
 -10840429.478 7  22753912.009          45.000        2241.553
 -17997923.301 8  20756653.376          48.000         616.901
  -5927991.519 7  21688706.918          46.000       -1967.433
  -2308279.855 6  21791632.717          38.000       -2019.435
   3641277.120 6  23732244.035          41.000       -4204.496
 105041933.807 6  38771258.491          41.000        -613.995
 -16507682.661 7  20281752.767          43.000       -1247.257
   6612641.24713  25885816.484          20.000       -2699.066
   -403873.83615  23959248.552          35.000        1633.475
  14219320.125 6  23977943.817          38.000       -3789.569
 16  9 14  0 28  0.0000000  0  9G24G15G20G28G05S20G13G18G30
 -10974536.762 7  22728390.734          43.000        2228.037
 -18034076.212 8  20749773.095          49.000         587.748
  -5808885.597 7  21711370.537          45.000       -2003.996
  -2186214.909 7  21814869.602          43.000       -2050.051
   3893782.298 6  23780292.137          41.000       -4212.877
 105078719.086 6  38778258.768          41.000        -613.302
 -16431974.291 7  20296163.994          45.000       -1277.314
   -501223.346 6  23940725.233          38.000        1608.533
  14446843.481 6  24021239.569          37.000       -3795.481
 16  9 14  0 29  0.0000000  0 11G24G15G20G28G21G17G05S20G13G18G30
 -11107734.686 7  22703045.183          45.000        2212.421
 -18068415.406 8  20743238.922          49.000         557.406
  -5687522.384 7  21734465.822          45.000       -2041.478
  -2062234.883 7  21838462.174          43.000       -2082.125
    164046.02513  25986057.323          23.000       -2362.830
   -936731.83215  24736862.407          31.000        2194.358
   4146878.526 6  23828456.840          41.000       -4223.128
 105115542.005 6  38785264.419          41.000        -613.634
 -16354373.305 7  20310926.390          43.000       -1308.288
   -597002.799 6  23922502.913          40.000        1583.258
  14674706.850 6  24064600.080          36.000       -3800.802
 16  9 14  0 30  0.0000000  0 10G24G15G20G28G17G05S20G13G18G30
 -11240065.537 7  22677864.082          45.000        2198.286
 -18100978.554 8  20737042.219          48.000         528.563
  -5563964.847 7  21757980.138          46.000       -2077.065
  -1936403.320 6  21862403.114          41.000       -2112.591
  -1067987.05515  24711879.759          35.000        2183.028
   4400494.535 6  23876712.634          38.000       -4229.711
 105152346.524 6  38792267.890          41.000        -612.803
 -16274927.883 7  20326044.857          43.000       -1339.004
   -691245.223 6  23904570.729          40.000        1558.282
  14902852.239 6  24108019.860          37.000       -3804.480
 16  9 14  0 31  0.0000000  0 10G24G15G20G28G17G05S20G13G18G30
 -11371544.894 7  22652844.807          44.000        2183.748
 -18131776.889 8  20731181.773          48.000         498.203
  -5438248.900 7  21781902.293          47.000       -2113.854
  -1808755.997 7  21886697.979          43.000       -2142.681
  -1198581.640 6  24687027.673          40.000        2170.904
   4654587.032 6  23925066.228          38.000       -4239.546
 105189117.974 6  38799266.090          41.000        -613.524
 -16193658.313 7  20341511.430          44.000       -1370.257
   -783957.125 6  23886926.666          41.000        1532.549
  15131249.008 5  24151484.504          34.000       -3807.023
 16  9 14  0 32  0.0000000  0 10G24G15G20G28G17G05S20G13G18G30
 -11502087.336 7  22628004.212          45.000        2168.358
 -18160721.858 8  20725673.646          48.000         467.542
  -5310311.107 7  21806248.060          46.000       -2150.408
  -1679229.299 7  21911343.253          43.000       -2173.490
  -1328414.903 6  24662320.538          37.000        2158.057
   4909212.510 6  23973524.139          40.000       -4247.759
 105225927.457 6  38806270.660          41.000        -613.560
 -16110485.509 7  20357337.286          44.000       -1401.716
   -875045.473 6  23869591.462          41.000        1504.035
  15359966.93914  24195005.060          28.000       -3815.399
 16  9 14  0 33  0.0000000  0 10G24G15G20G28G17G05S20G13G18G30
 -11631757.036 7  22603328.514          46.000        2153.364
 -18187872.603 8  20720507.605          48.000         436.732
  -5180236.290 7  21831000.409          46.000       -2186.782
  -1547906.976 7  21936333.832          43.000       -2204.624
  -1457532.291 6  24637743.591          36.000        2145.394
   5164279.323 6  24022061.728          40.000       -4256.389
 105262715.868 6  38813272.062          41.000        -613.744
 -16025478.146 7  20373514.763          44.000       -1432.406
   -964564.330 6  23852553.741          40.000        1477.873
  15588925.61215  24238578.088          34.000       -3818.834
 16  9 14  0 34  0.0000000  0 10G24G15G20G28G17G05S20G13G18G30
 -11760476.543 7  22578835.912          47.000        2137.417
 -18213148.697 8  20715696.196          48.000         405.646
  -5047969.274 7  21856169.085          45.000       -2222.193
  -1414733.390 7  21961675.204          45.000       -2234.559
  -1585840.163 5  24613317.343          34.000        2131.129
   5419835.399 6  24070690.755          41.000       -4263.350
 105299559.964 6  38820282.373          41.000        -613.424
 -15938565.321 7  20390055.860          45.000       -1463.841
  -1052427.794 7  23835835.682          42.000        1450.735
  15818188.976 6  24282204.120          36.000       -3823.836
 16  9 14  0 35  0.0000000  0 10G24G15G20G28G17G05S20G13G18G30
 -11888292.645 7  22554510.674          44.000        2122.980
 -18236592.682 7  20711235.292          47.000         375.842
  -4913577.996 7  21881742.693          44.000       -2257.252
  -1279776.028 7  21987360.633          46.000       -2263.900
  -1713368.404 6  24589051.201          36.000        2120.559
   5675807.634 6  24119396.704          38.000       -4269.297
 105336400.122 6  38827293.452          41.000        -614.213
 -15849799.055 7  20406946.327          44.000       -1494.425
  -1138674.475 7  23819424.276          42.000        1424.381
  16047694.811 5  24325870.062          35.000       -3825.983
 16  9 14  0 36  0.0000000  0 10G24G15G20G28G17G05S20G13G18G30
 -12015212.182 7  22530360.140          45.000        2106.992
 -18258207.782 7  20707121.168          47.000         344.540
  -4777091.318 7  21907714.401          44.000       -2293.141
  -1143062.862 7  22013370.985          43.000       -2294.229
  -1840105.51614  24564915.273          28.000        2105.522
   5932159.675 6  24168182.286          38.000       -4276.897
 105373228.206 6  38834300.726          41.000        -614.590
 -15759192.258 7  20424184.681          43.000       -1526.063
  -1223302.494 6  23803318.048          41.000        1395.796
  16277421.739 6  24369590.666          37.000       -3831.299
 16  9 14  0 37  0.0000000  0 11G24G15G20G28G21G17G05S20G13G18G30
 -12141111.918 7  22506399.272          44.000        2089.695
 -18277867.701 8  20703381.333          48.000         311.624
  -4638409.506 7  21934105.264          44.000       -2328.933
  -1004492.464 7  22039745.663          46.000       -2324.176
   1325347.97012  26207814.891          15.000       -2489.738
  -1966098.01715  24541004.688          33.000        2088.402
   6188987.919 6  24217056.306          38.000       -4282.690
 105410151.271 6  38841326.647          41.000        -615.139
 -15666628.544 7  20441800.519          43.000       -1557.942
  -1306181.365 7  23787550.729          43.000        1366.707
  16507477.731 6  24413368.534          38.000       -3835.935
 16  9 14  0 38  0.0010000  0 10G24G15G20G28G17G05S20G13G18G30
 -12266068.363 7  22482623.168          45.000        2074.339
 -18295643.904 8  20699998.871          48.000         280.553
  -4497627.478 7  21960895.345          44.000       -2363.520
   -864158.901 7  22066448.274          45.000       -2353.467
  -2091035.965 6  24517236.479          39.000        2074.988
   6446193.111 6  24266001.655          37.000       -4289.323
 105447083.248 6  38848354.451          40.000        -615.397
 -15572186.967 7  20459774.182          44.000       -1590.115
  -1387378.302 7  23772102.549          43.000        1339.227
  16737777.361 6  24457191.397          36.000       -3840.092
 16  9 14  0 39  0.0010000  0 10G24G15G20G28G17G05S20G13G18G30
 -12390061.383 7  22459025.483          44.000        2057.574
 -18311516.035 7  20696977.994          47.000         248.104
  -4354755.945 7  21988085.349          45.000       -2399.100
   -722071.503 7  22093485.572          45.000       -2383.128
  -2215065.412 6  24493633.690          40.000        2058.852
   6703755.119 5  24315010.015          34.000       -4296.618
 105484041.716 6  38855387.910          41.000        -617.410
 -15475860.686 7  20478103.786          43.000       -1621.585
  -1466866.150 7  23756975.601          43.000        1309.730
  16968315.253 6  24501064.533          38.000       -3844.677
 16  9 14  0 40  0.0010000  0 10G24G15G20G28G17G05S20G13G18G30
 -12513013.253 7  22435631.476          46.000        2041.248
 -18325401.153 7  20694336.781          47.000         215.599
  -4209735.776 7  22015679.719          43.000       -2434.371
   -578170.287 7  22120870.199          45.000       -2412.952
  -2338091.709 6  24470216.867          39.000        2042.109
   6961731.37715  24364100.601          32.000       -4300.000
 105521107.967 6  38862442.440          40.000        -618.520
 -15377574.942 7  20496804.696          42.000       -1654.012
  -1544558.881 7  23742193.103          43.000        1280.816
  17199160.776 6  24544997.777          39.000       -3849.272
 16  9 14  0 41  0.0010000  0 10G24G15G20G28G17G05S20G13G18G30
 -12634986.400 7  22412419.624          47.000        2024.357
 -18337359.523 8  20692061.342          48.000         182.935
  -4062654.040 7  22043667.914          44.000       -2468.778
   -432539.512 7  22148584.259          47.000       -2442.020
  -2460161.523 6  24446986.666          39.000        2026.232
   7220029.708 5  24413253.040          34.000       -4307.866
 105558206.261 6  38869501.856          41.000        -619.712
 -15277399.712 7  20515868.422          43.000       -1685.419
  -1620511.969 7  23727737.107          43.000        1251.763
  17430236.664 5  24588963.671          33.000       -3853.440
 16  9 14  0 42  0.0010000  0 10G24G15G20G28G17G05S20G13G18G30
 -12755906.463 7  22389406.329          44.000        2006.737
 -18347313.642 8  20690166.650          48.000         149.927
  -3913459.952 7  22072060.430          43.000       -2503.129
   -285127.272 7  22176634.996          46.000       -2471.545
  -2581183.723 6  24423953.382          36.000        2008.574
   7478698.200 6  24462481.465          36.000       -4313.548
 105595410.023 6  38876580.353          41.000        -621.052
 -15175267.613 7  20535306.447          44.000       -1718.629
  -1694642.740 7  23713629.225          43.000        1220.399
  17661602.84616  24632991.207          36.000       -3857.972
 16  9 14  0 43  0.0010000  0 10G24G15G20G28G17G05S20G13G18G30
 -12875872.884 7  22366580.651          46.000        1992.018
 -18355361.349 7  20688633.797          46.000         118.754
  -3762276.312 7  22100829.461          43.000       -2535.190
   -136055.141 7  22205001.642          46.000       -2497.791
  -2701239.65315  24401135.975          30.000        1992.448
   7737609.640 6  24511754.005          39.000       -4316.575
 105632604.111 6  38883657.865          40.000        -618.287
 -15071285.166 7  20555092.568          43.000       -1748.132
  -1767044.127 7  23699847.916          43.000        1193.186
  17893146.322 6  24677059.551          40.000       -3860.742
 16  9 14  0 44  0.0010000  0  9G24G15G20G28G05S20G13G18G30
 -12994917.815 7  22343925.967          47.000        1975.819
 -18361530.645 7  20687457.486          46.000          86.813
  -3609160.128 7  22129966.901          43.000       -2568.065
     14623.172 7  22233677.428          47.000       -2525.134
   7996704.247 6  24561056.907          39.000       -4320.035
 105669744.619 6  38890725.238          40.000        -619.402
 -14965491.095 7  20575223.296          42.000       -1779.045
  -1837740.838 7  23686396.241          43.000        1163.162
  18124821.091 6  24721139.551          36.000       -3863.077
 16  9 14  0 45  0.0010000  0 10G24G15G20G28G17G05S20G13G18G30
 -13112932.816 7  22321467.379          45.000        1958.875
 -18365711.431 8  20686665.587          48.000          53.542
  -3454027.000 7  22159485.271          42.000       -2601.468
    166993.506 7  22262666.716          44.000       -2553.464
  -2938962.27015  24355968.686          30.000        1959.247
   8256062.840 6  24610410.695          38.000       -4324.970
 105706944.036 6  38897805.603          40.000        -619.952
 -14857785.343 7  20595719.938          42.000       -1810.610
  -1906617.107 6  23673287.088          41.000        1133.427
  18356721.673 5  24765263.962          34.000       -3867.911
 16  9 14  0 46  0.0010000  0 10G24G15G20G28G17G05S20G13G18G30
 -13230000.033 7  22299191.635          47.000        1943.517
 -18367983.147 8  20686233.685          48.000          22.454
  -3296984.068 7  22189370.941          42.000       -2632.774
    320951.101 7  22291967.586          47.000       -2578.649
  -3055982.11815  24333699.225          31.000        1940.560
   8515576.374 6  24659794.593          39.000       -4326.084
 105744118.389 6  38904881.081          41.000        -618.848
 -14748257.114 7  20616562.120          42.000       -1840.420
  -1973747.816 6  23660513.083          41.000        1104.260
  18588752.314 6  24809421.503          38.000       -3867.738
 16  9 14  0 47  0.0010000  0 10G24G15G20G28G17G05S20G13G18G30
 -13346145.191 7  22277088.814          46.000        1927.693
 -18368370.292 8  20686161.563          48.000          -9.805
  -3138081.902 7  22219607.108          42.000       -2664.440
    476448.234 7  22321556.183          46.000       -2604.775
  -3172000.33515  24311622.675          34.000        1926.227
   8775191.134 6  24709198.437          39.000       -4328.518
 105781231.210 6  38911942.443          40.000        -618.498
 -14636940.463 6  20637742.889          41.000       -1870.902
  -2039153.330 7  23648070.406          43.000        1075.143
  18820873.502 6  24853594.809          37.000       -3870.013
 16  9 14  0 48  0.0010000  0 10G24G15G20G28G17G05S20G13G18G30
 -13461273.510 7  22255181.497          46.000        1910.924
 -18366775.764 8  20686463.740          48.000         -42.260
  -2977251.074 7  22250215.383          42.000       -2695.802
    633556.854 7  22351453.851          46.000       -2631.292
  -3286906.531 6  24289775.316          41.000        1906.012
   9034975.676 6  24758634.389          39.000       -4331.068
 105818376.053 6  38919011.430          40.000        -619.057
 -14523748.496 7  20659283.551          42.000       -1901.377
  -2102731.337 7  23635970.460          43.000        1044.936
  19053166.434 5  24897792.808          35.000       -3872.118
 16  9 14  0 49  0.0000000  0 10G24G15G20G28G17G05S20G13G18G30
 -13575430.908 7  21933666.147          47.000        1894.203
 -18363244.146 7  20387340.431          47.000         -75.415
  -2814562.671 7  21981381.028          42.000       -2726.683
    792208.410 7  22081851.416          45.000       -2656.713
  -3400729.463 6  23968323.634          41.000        1887.849
   9294855.946 6  24508294.246          37.000       -4333.545
 105855490.735 6  38626281.288          40.000        -618.201
 -14408735.426 7  20381379.672          44.000       -1932.210
  -2164522.229 7  23324417.666          42.000        1014.511
  19285571.984 6  24642233.174          38.000       -3874.096
 16  9 14  0 50  0.0000000  0 10G24G15G20G28G17G05S20G13G18G30
 -13688563.919 7  21912137.674          47.000        1877.672
 -18357719.645 8  20388394.520          49.000        -107.822
  -2649988.676 7  22012699.754          43.000       -2757.381
    952433.822 7  22112342.853          46.000       -2682.417
  -3513398.516 6  23946880.422          39.000        1869.719
   9554859.401 6  24557773.300          38.000       -4333.893
 105892617.179 6  38633344.682          40.000        -617.821
 -14291855.440 7  20403623.273          45.000       -1962.651
  -2224465.344 7  23313012.989          42.000         984.153
  19518131.17715  24686483.541          33.000       -3876.542
 16  9 14  0 51  0.0000000  0 10G24G15G20G28G17G05S20G13G18G30
 -13800737.014 7  21890791.713          46.000        1861.233
 -18350265.890 8  20389813.345          48.000        -140.399
  -2483619.369 7  22044356.613          42.000       -2787.355
   1114146.059 7  22143115.474          46.000       -2707.538
  -3624962.204 6  23925639.092          36.000        1849.569
   9814894.052 6  24607255.818          36.000       -4334.941
 105929690.229 6  38640400.695          40.000        -616.945
 -14173182.171 7  20426203.035          42.000       -1992.684
  -2282620.612 7  23301949.185          43.000         953.926
  19750764.87014  24730744.029          29.000       -3881.816
 16  9 14  0 52  0.0000000  0 10G24G15G20G28G17G05S20G13G18G30
 -13911933.448 7  21869629.799          47.000        1844.793
 -18340864.984 8  20391601.800          48.000        -173.245
  -2315464.214 7  22076354.798          42.000       -2816.943
   1277338.533 7  22174169.742          47.000       -2732.389
  -3735388.27216  23904621.439          38.000        1830.894
  10074949.010 5  24656731.391          32.000       -4335.218
 105966715.632 6  38647444.737          40.000        -617.044
 -14052707.730 7  20449126.914          42.000       -2023.674
  -2338964.921 7  23291229.045          45.000         923.465
  19983476.76815  24775039.749          34.000       -3879.806
 16  9 14  0 53  0.0000000  0 10G24G15G20G28G17G05S20G13G18G30
 -14022104.949 7  21848666.451          47.000        1827.972
 -18329466.754 8  20393771.456          49.000        -206.739
  -2145500.061 7  22108700.835          43.000       -2847.598
   1442037.082 7  22205512.218          47.000       -2757.163
  -3844609.831 6  23883839.242          38.000        1810.383
  10335048.21915  24706230.800          32.000       -4336.268
 106003745.261 6  38654492.549          40.000        -616.644
 -13930392.122 7  20472407.669          44.000       -2053.745
  -2393443.913 7  23280859.009          44.000         892.770
  20216303.853 6  24819350.371          36.000       -3880.129
 16  9 14  0 54  0.0000000  0 10G24G15G20G28G17G05S20G13G18G30
 -14131301.209 8  21827887.586          48.000        1811.506
 -18316121.308 8  20396311.230          49.000        -238.875
  -1973804.690 7  22141373.314          44.000       -2876.479
   1608168.560 7  22237125.312          47.000       -2781.167
  -3952662.599 6  23863283.933          40.000        1791.363
  10595113.00215  24755719.566          34.000       -4333.304
 106040728.551 6  38661530.099          40.000        -616.732
 -13806294.769 7  20496017.953          42.000       -2083.252
  -2446103.445 7  23270835.133          43.000         861.421
  20449182.151 5  24863665.234          34.000       -3881.785
 16  9 14  0 55  0.0000000  0 10G24G15G20G28G17G05S20G13G18G30
 -14239500.026 8  21807298.982          48.000        1794.168
 -18300804.984 7  20399223.462          47.000        -272.502
  -1800381.136 7  22174372.549          44.000       -2905.542
   1775732.849 7  22269012.077          46.000       -2805.692
  -4059506.972 7  23842958.041          42.000        1770.212
  10855139.751 5  24805206.603          35.000       -4334.229
 106077671.508 6  38668559.553          40.000        -615.857
 -13680401.665 7  20519975.898          43.000       -2114.104
  -2496914.768 7  23261166.630          44.000         830.401
  20682121.98015  24907978.055          32.000       -3884.187
 16  9 14  0 56  0.0000000  0 10G24G15G20G28G17G05S20G13G18G30
 -14346624.640 7  21786914.667          47.000        1776.767
 -18283441.087 7  20402527.574          47.000        -306.223
  -1625179.926 7  22207715.290          44.000       -2933.854
   1944782.704 7  22301180.122          46.000       -2829.231
  -4165051.115 6  23822871.096          41.000        1748.060
  11115178.728 6  24854693.484          36.000       -4334.108
 106114639.654 6  38675593.910          40.000        -616.399
 -13552646.355 7  20544285.849          42.000       -2144.441
  -2545797.194 7  23251863.640          44.000         799.117
  20915185.84915  24952330.488          33.000       -3883.958
 16  9 14  0 57  0.0000000  0 10G24G15G20G28G17G05S20G13G18G30
 -14452749.736 7  21766717.715          47.000        1759.853
 -18264104.450 7  20406207.057          47.000        -338.858
  -1448302.611 7  22241370.723          44.000       -2962.249
   2115221.010 7  22333613.219          46.000       -2852.469
  -4269352.896 6  23803017.861          40.000        1727.598
  11375128.957 6  24904161.326          36.000       -4331.991
 106151558.189 6  38682618.687          40.000        -615.691
 -13423113.283 7  20568936.061          42.000       -2174.324
  -2592820.663 7  23242917.960          45.000         768.039
  21148288.44415  24996686.603          33.000       -3884.302
 16  9 14  0 58  0.0000000  0 10G24G15G20G28G17G05S20G13G18G30
 -14557824.755 7  21746722.244          46.000        1742.717
 -18242743.336 8  20410274.214          48.000        -372.818
  -1269725.841 7  22275355.004          45.000       -2990.194
   2287074.888 7  22366317.178          46.000       -2875.961
  -4372345.870 6  23783412.279          38.000        1705.076
  11635014.355 6  24953616.569          37.000       -4331.162
 106188465.132 6  38689641.824          40.000        -615.388
 -13291760.990 7  20593932.241          43.000       -2204.179
  -2637930.501 7  23234333.273          45.000         736.043
  21381465.71215  25041061.478          33.000       -3887.549
 16  9 14  0 59  0.0000000  0 10G24G15G20G28G17G05S20G13G18G30
 -14661915.470 7  21726913.664          46.000        1727.003
 -18219424.022 8  20414712.345          49.000        -404.964
  -1089541.830 7  22309642.012          45.000       -3015.835
   2460256.165 7  22399271.600          46.000       -2897.225
  -4474080.546 6  23764060.232          41.000        1685.297
  11894743.002 6  25003038.710          36.000       -4327.416
 106225298.853 6  38696650.757          40.000        -613.664
 -13158665.124 7  20619258.545          43.000       -2232.222
  -2681187.314 7  23226100.068          45.000         705.539
  21614641.691 5  25085440.871          33.000       -3886.500
 16  9 14  1  1  0.0000000  0 10G24G15G20G28G17G05S20G13G18G30
 -14867005.670 7  21687889.009          46.000        1689.148
 -18166775.394 7  20424726.083          44.000        -475.104
   -724325.329 7  22379139.529          44.000       -3072.355
   2810643.426 7  22465947.504          43.000       -2944.146
  -4673573.539 7  23726104.665          43.000        1636.647
  12413764.74015  25101805.528          31.000       -4319.647
 106298872.299 6  38710653.579          38.000        -614.968
 -12887146.656 6  20670925.865          40.000       -2294.242
  -2761990.441 7  23210728.329          45.000         638.970
  22081076.15815  25174207.267          31.000       -3889.113
 16  9 14  1  2  0.0000000  0 10G24G15G20G28G17G05S20G13G18G30
 -14967637.244 7  21668738.372          47.000        1666.662
 -18137078.395 7  20430380.372          47.000        -513.603
   -538979.741 7  22414411.043          46.000       -3103.740
   2988171.733 7  22499730.462          45.000       -2971.574
  -4770932.415 6  23707567.962          41.000        1609.410
  12673374.01015  25151206.030          32.000       -4326.428
 106335968.675 6  38717713.047          40.000        -620.384
 -12748375.927 6  20697333.123          41.000       -2328.915
  -2799161.282 7  23203655.075          47.000         601.584
  22314678.40615  25218659.550          32.000       -3894.689
 16  9 14  1  3  0.0000000  0 10G24G15G20G28G17G05S20G13G18G30
 -15067013.407 7  21649827.362          47.000        1647.523
 -18105155.350 8  20436457.533          49.000        -549.139
   -351866.897 7  22450016.991          47.000       -3131.667
   3167205.137 7  22533799.814          46.000       -2994.698
  -4866700.304 6  23689343.094          40.000        1583.404
  12932994.21915  25200608.940          33.000       -4325.580
 106373233.900 6  38724802.198          40.000        -621.168
 -12607632.218 7  20724120.045          44.000       -2361.311
  -2834194.168 7  23196988.498          47.000         567.591
  22548501.22315  25263155.075          31.000       -3896.553
 16  9 14  1  4  0.0000000  0 10G24G15G20G28G17G05S20G13G18G30
 -15165412.861 7  21631103.453          47.000        1631.816
 -18071285.204 7  20442900.275          47.000        -581.104
   -163292.405 7  22485901.095          47.000       -3154.797
   3347441.997 7  22568099.246          47.000       -3013.547
  -4961139.018 7  23671379.264          43.000        1562.423
  13192321.82215  25249960.721          35.000       -4317.850
 106410380.311 6  38731870.740          40.000        -618.076
 -12465204.721 7  20751219.238          42.000       -2387.403
  -2867364.425 7  23190673.195          45.000         537.178
  22782254.28514  25307631.405          24.000       -3895.801
 16  9 14  1  5  0.0000000  0 10G24G15G20G28G17G05S20G13G18G30
 -15262791.457 7  21612572.055          46.000        1614.229
 -18035426.057 7  20449723.625          46.000        -614.253
     26758.441 7  22522067.317          46.000       -3179.813
   3528902.617 7  22602629.632          46.000       -3034.136
  -5054191.129 7  23653668.724          42.000        1539.296
  13451374.108 5  25299253.556          34.000       -4313.544
 106447454.509 6  38738928.062          40.000        -616.813
 -12321060.830 7  20778651.975          42.000       -2416.109
  -2898625.825 7  23184726.056          47.000         505.254
  23015982.14013  25352107.665          22.000       -3887.191
 16  9 14  1  6  0.0000000  0 10G24G15G20G28G17G05S20G13G18G30
 -15359199.274 7  21594225.978          47.000        1598.885
 -17997629.114 8  20456916.447          48.000        -646.245
    218207.901 7  22558497.299          46.000       -3202.286
   3711513.373 7  22637378.059          47.000       -3052.653
  -5145891.622 6  23636208.106          37.000        1516.698
  13710075.449 5  25348481.876          33.000       -4309.414
 106484405.126 6  38745959.610          41.000        -613.822
 -12175261.827 7  20806395.588          42.000       -2443.877
  -2928025.974 8  23179132.179          48.000         474.577
  23249588.46714  25396569.843          24.000       -3893.017
 16  9 14  1  7  0.0000000  0 10G24G15G20G28G17G05S20G13G18G30
 -15454609.383 7  21576067.333          45.000        1581.338
 -17957869.244 7  20464482.548          47.000        -679.749
    411054.481 7  22595196.014          46.000       -3226.053
   3895278.082 7  22672346.097          46.000       -3072.672
  -5236198.013 7  23619037.091          42.000        1493.331
  13968428.13415  25397649.976          33.000       -4302.344
 106521249.237 6  38752969.188          40.000        -613.870
 -12027791.949 7  20834456.567          43.000       -2471.234
  -2955535.632 8  23173896.625          48.000         442.032
  23483117.72213  25441021.131          22.000       -3891.465
 16  9 14  1  8  0.0000000  0 10G24G15G20G28G17G05S20G13G18G30
 -15548949.844 7  21558118.423          46.000        1563.406
 -17916076.430 8  20472437.264          48.000        -713.743
    605342.546 7  22632168.244          46.000       -3250.016
   4080246.068 7  22707546.763          45.000       -3093.112
  -5325023.896 7  23602137.166          46.000        1468.116
  14226479.85115  25446755.866          32.000       -4297.531
 106558057.956 6  38759975.974          40.000        -612.122
 -11878590.046 6  20862847.600          41.000       -2501.352
  -2981080.199 7  23169034.820          47.000         409.051
  23716617.90613  25485449.665          22.000       -3891.685
 16  9 14  1  9  0.0000000  0  8G24G15G20G28G17S20G13G18
 -15642240.776 7  21540363.891          46.000        1545.865
 -17872273.531 7  20480770.162          47.000        -746.797
    801022.291 7  22669403.414          45.000       -3273.161
   4266373.261 7  22742961.928          44.000       -3111.911
  -5412375.271 7  23585509.098          43.000        1443.730
 106594794.688 6  38766966.234          40.000        -611.816
 -11727688.442 7  20891566.872          42.000       -2529.441
  -3004678.744 7  23164542.105          46.000         376.784
 16  9 14  1 10  0.0000000  0  8G24G15G20G28G17S20G13G18
 -15734423.262 7  21522819.931          44.000        1527.393
 -17826403.936 7  20489499.564          47.000        -781.210
    998124.200 7  22706911.331          45.000       -3296.584
   4453695.089 7  22778609.180          43.000       -3132.514
  -5498178.611 6  23569173.949          38.000        1417.526
 106631508.994 6  38773950.998          41.000        -611.872
 -11575040.079 7  20920613.143          43.000       -2558.829
  -3026271.123 7  23160434.009          47.000         343.513
 16  9 14  1 11  0.0000000  0  8G24G15G20G28G17S20G13G18
 -15825545.887 7  21505483.698          46.000        1509.404
 -17778518.832 8  20498612.957          48.000        -815.053
   1196571.635 7  22744674.893          44.000       -3318.869
   4642141.129 6  22814467.318          41.000       -3150.452
  -5582468.637 6  23553141.893          40.000        1392.651
 106668155.002 6  38780925.937          40.000        -610.547
 -11420705.577 7  20949982.698          43.000       -2587.174
  -3045904.278 7  23156699.628          47.000         310.490
 16  9 14  1 12  0.0000000  0  8G24G15G20G28G17S20G13G18
 -15915567.624 7  21488353.430          47.000        1491.750
 -17728579.977 7  20508115.910          47.000        -848.959
   1396377.004 7  22782698.447          45.000       -3340.654
   4831728.166 6  22850548.994          41.000       -3168.539
  -5665190.064 7  23537404.013          42.000        1365.901
 106704773.912 6  38787895.293          40.000        -609.776
 -11264655.810 7  20979676.110          43.000       -2614.768
  -3063535.957 7  23153343.410          47.000         277.675
 16  9 14  1 13  0.0000000  0  9G24G15G20G28G17G05S20G13G18
 -16004551.938 7  21471418.325          46.000        1474.905
 -17676654.853 7  20517994.914          47.000        -881.579
   1597446.665 7  22820959.829          45.000       -3361.184
   5022368.784 6  22886820.598          39.000       -3185.678
  -5746393.075 6  23521942.021          38.000        1341.645
  15511178.86914  25691276.135          26.000       -4265.051
 106741290.388 6  38794843.585          41.000        -607.219
 -11106967.047 7  21009686.105          44.000       -2640.995
  -3079229.977 7  23150357.084          47.000         245.763
 16  9 14  1 14  0.0000000  0  9G24G15G20G28G17G05S20G13G18
 -16092503.316 7  21454684.352          47.000        1456.237
 -17622750.261 7  20528253.112          47.000        -915.612
   1799747.913 7  22859454.416          43.000       -3382.930
   5214035.983 6  22923297.643          41.000       -3203.524
  -5826068.188 6  23506785.390          39.000        1313.632
  15766867.18714  25739922.997          25.000       -4257.548
 106777700.333 6  38801772.421          40.000        -607.303
 -10947656.196 7  21040000.797          44.000       -2669.136
  -3092990.087 7  23147739.639          47.000         211.900
 16  9 14  1 15  0.0000000  0  8G24G15G20G28G17S20G13G18
 -16179326.782 7  21438161.194          46.000        1438.502
 -17566775.519 8  20538906.697          48.000        -949.651
   2003346.803 7  22898197.040          43.000       -3402.973
   5406801.913 6  22959981.543          41.000       -3221.698
  -5904107.040 7  23491937.000          42.000        1287.877
 106814083.099 6  38808694.678          40.000        -605.000
 -10786640.341 7  21070643.205          44.000       -2696.602
  -3104721.101 7  23145508.594          47.000         179.019
 16  9 14  1 16  0.0000000  0  8G24G15G20G28G17S20G13G18
 -16265082.421 7  21421843.408          47.000        1418.928
 -17508794.708 8  20549939.143          48.000        -984.266
   2208153.443 7  22937172.992          44.000       -3425.120
   5600582.721 6  22996852.841          39.000       -3238.773
  -5980556.392 6  23477388.963          41.000        1259.459
 106850368.394 6  38815599.852          40.000        -605.445
 -10623992.578 7  21101591.062          43.000       -2725.723
  -3114483.134 8  23143651.664          48.000         145.170
 16  9 14  1 17  0.0000000  0  9G24G15G20G28G17G05S20G13G18
 -16349687.122 7  21405742.162          47.000        1400.912
 -17448728.881 8  20561370.641          49.000       -1018.145
   2414222.351 7  22976387.854          44.000       -3444.525
   5795438.317 7  23033937.328          42.000       -3256.388
  -6055320.231 5  23463157.088          35.000        1232.005
  16531303.59413  25885391.240          21.000       -4237.488
 106886640.925 6  38822503.332          40.000        -604.349
 -10459644.046 7  21132864.906          43.000       -2752.911
  -3122194.599 7  23142182.355          47.000         111.933
 16  9 14  1 18  0.0000000  0  8G24G15G20G28G17S20G13G18
 -16433187.845 7  21389851.819          47.000        1381.958
 -17386628.804 8  20573187.353          49.000       -1052.030
   2621476.958 7  23015826.201          44.000       -3464.084
   5991299.020 6  23071205.218          40.000       -3272.741
  -6128432.662 7  23449254.535          42.000        1204.630
 106922856.111 6  38829394.004          40.000        -603.469
 -10293653.821 7  21164451.964          44.000       -2780.812
  -3127902.257 7  23141096.411          47.000          78.033
 16  9 14  1 19  0.0000000  0  8G24G15G20G28G17S20G13G18
 -16515549.679 8  21374180.390          48.000        1363.763
 -17322464.351 8  20585397.567          49.000       -1085.945
   2829922.966 7  23055492.553          44.000       -3483.317
   6188176.509 6  23108669.561          40.000       -3289.631
  -6199846.275 7  23435660.327          42.000        1177.074
 106959037.122 6  38836280.838          40.000        -602.175
 -10126000.245 7  21196357.383          45.000       -2807.598
  -3131572.400 7  23140398.175          47.000          44.430
 16  9 14  1 20  0.0000000  0  9G24G15G20G28G17G05S20G13G18
 -16596828.976 7  21358712.377          47.000        1345.024
 -17256297.983 8  20597989.312          49.000       -1119.694
   3039474.417 7  23095369.337          44.000       -3501.712
   6385991.173 6  23146313.450          41.000       -3304.954
  -6269604.819 5  23422370.921          35.000        1147.997
  17291359.19312  26029987.548          16.000       -4223.694
 106995126.614 6  38843148.004          40.000        -600.260
  -9956753.713 7  21228564.186          44.000       -2834.225
  -3133263.157 7  23140074.753          46.000          11.523
 16  9 14  1 21  0.0010000  0  8G24G15G20G28G17S20G13G18
 -16676967.163 8  21343463.653          48.000        1326.481
 -17188072.842 8  20610970.015          48.000       -1153.927
   3250165.511 7  23135462.739          45.000       -3520.421
   6584783.407 6  23184141.465          40.000       -3320.800
  -6337637.001 6  23409435.154          37.000        1119.245
 107031169.738 6  38850006.752          40.000        -600.417
  -9785864.838 7  21261080.756          43.000       -2861.165
  -3132915.966 7  23140140.724          46.000         -22.573
 16  9 14  1 22  0.0010000  0  8G24G15G20G28G17S20G13G18
 -16756025.414 7  21328417.691          47.000        1308.044
 -17117860.249 8  20624331.838          48.000       -1186.933
   3461895.467 7  23175752.046          44.000       -3537.493
   6784459.728 6  23222140.326          41.000       -3335.530
  -6403993.319 6  23396809.014          38.000        1091.364
 107067090.462 6  38856841.461          40.000        -598.519
  -9613417.793 7  21293898.491          45.000       -2887.367
  -3130597.423 7  23140582.214          46.000         -55.275
 16  9 14  1 23  0.0010000  0  8G24G15G20G28G17S20G13G18
 -16833967.603 8  21313587.275          48.000        1289.392
 -17045627.682 8  20638076.817          48.000       -1221.056
   3674675.961 7  23216244.439          46.000       -3555.111
   6985038.095 6  23260308.856          41.000       -3351.409
  -6468625.056 6  23384515.946          41.000        1063.033
 107102927.695 6  38863660.901          40.000        -597.685
  -9439385.109 7  21327015.165          44.000       -2914.229
  -3126272.151 7  23141407.034          47.000         -89.286
 16  9 14  1 24  0.0010000  0  8G24G15G20G28G17S20G13G18
 -16910712.914 7  21298981.006          46.000        1269.795
 -16971299.457 7  20652220.724          47.000       -1255.649
   3888559.033 7  23256944.576          45.000       -3572.952
   7186577.065 7  23298659.304          42.000       -3366.651
  -6531439.223 6  23372557.382          40.000        1032.863
 107138751.334 6  38870478.597          40.000        -595.225
  -9263700.392 7  21360445.751          44.000       -2940.859
  -3119860.936 7  23142627.659          47.000        -123.230
 16  9 14  1 25  0.0010000  0  8G24G15G20G28G17S20G13G18
 -16986334.890 7  21284592.621          47.000        1250.164
 -16894955.136 7  20666749.200          47.000       -1290.371
   4103440.749 7  23297834.031          44.000       -3590.919
   7388980.018 7  23337178.723          44.000       -3381.525
  -6592498.326 6  23360936.688          40.000        1001.778
 107174491.925 6  38877279.662          40.000        -595.687
  -9086451.550 7  21394177.807          46.000       -2968.147
  -3111440.717 7  23144228.193          46.000        -158.188
 16  9 14  1 26  0.0010000  0  8G24G15G20G28G17S20G13G18
 -17060763.892 8  21270429.867          49.000        1230.905
 -16816532.089 7  20681671.317          46.000       -1323.811
   4319360.737 7  23338923.413          44.000       -3606.947
   7592293.372 7  23375866.432          44.000       -3395.285
  -6651722.308 7  23349670.147          42.000         971.973
 107210218.738 6  38884079.384          40.000        -595.862
  -8907583.788 7  21428212.276          45.000       -2994.170
  -3100944.867 7  23146226.138          46.000        -191.860
 16  9 14  1 27  0.0010000  0  9G24G10G15G20G28G17S20G13G18
 -17134023.450 7  21256487.230          47.000        1211.347
    -89519.70616  24369539.503          40.000        1478.749
 -16736060.830 7  20696986.431          47.000       -1358.017
   4536266.842 7  23380197.872          43.000       -3623.354
   7796470.880 7  23414720.912          45.000       -3410.192
  -6709123.945 6  23338742.193          38.000         941.410
 107245892.198 6  38890867.169          40.000        -594.160
  -8727135.659 7  21462552.856          45.000       -3021.057
  -3088401.201 7  23148612.002          46.000        -225.692
 16  9 14  1 28  0.0010000  0  9G24G10G15G20G28G17S20G13G18
 -17206089.800 7  21242773.977          47.000        1191.621
   -177254.700 6  24352838.719          37.000        1446.439
 -16653523.864 7  20712691.801          47.000       -1392.613
   4754151.879 7  23421660.933          44.000       -3639.396
   8001514.110 7  23453738.412          44.000       -3424.633
  -6764668.231 6  23328179.681          39.000         910.651
 107281524.913 6  38897647.225          40.000        -593.238
  -8545097.545 7  21497194.103          46.000       -3046.815
  -3073789.673 7  23151393.549          46.000        -260.493
 16  9 14  1 29  0.0010000  0 10G24G10G15G20G28G17S20G13G12G18
 -17276978.124 7  21229283.650          46.000        1171.180
   -263097.469 5  24336504.705          34.000        1415.707
 -16568943.948 7  20728787.830          47.000       -1426.864
   4972972.210 7  23463301.777          45.000       -3655.076
   8207385.644 7  23492914.221          44.000       -3438.717
  -6818360.158 6  23317960.554          38.000         879.562
 107317103.883 6  38904417.682          40.000        -592.955
  -8361499.468 7  21532130.852          47.000       -3073.224
   -194642.88616  23941549.076          40.000        3244.302
  -3057128.800 7  23154562.037          45.000        -294.961
 16  9 14  1 30  0.0010000  0 10G24G10G15G20G28G17S20G13G12G18
 -17346658.000 7  21216024.398          47.000        1151.708
   -347006.900 6  24320540.181          39.000        1382.492
 -16482296.956 7  20745274.255          46.000       -1460.714
   5192727.927 7  23505118.659          45.000       -3669.510
   8414092.742 7  23532249.786          44.000       -3451.215
  -6870159.405 6  23308101.320          36.000         847.578
 107352646.851 6  38911181.038          40.000        -591.980
  -8176326.760 7  21567368.339          47.000       -3098.757
   -388974.355 6  23904565.520          39.000        3233.997
  -3038392.738 7  23158128.024          45.000        -328.672
 16  9 14  1 31  0.0000000  0 11G24G19G10G15G20G28G17S20G13G12G18
 -17415175.093 8  20903194.074          48.000        1132.596
    -93411.41217  23280667.597          43.000        2368.396
   -429018.797 6  24005138.847          38.000        1350.820
 -16393637.536 8  20462353.255          48.000       -1494.125
   5413343.518 7  23247306.481          43.000       -3683.501
   8621567.532 7  23271939.260          44.000       -3463.493
  -6920101.28915  22998804.561          30.000         817.434
 107388113.879 6  38618137.271          40.000        -589.580
  -7989639.846 7  21303097.207          44.000       -3123.229
   -582699.935 7  23567913.904          42.000        3224.473
  -3017632.898 7  22862284.719          43.000        -362.910
 16  9 14  1 32  0.0000000  0 11G24G19G10G15G20G28G17S20G13G12G18
 -17482551.235 8  20890372.911          48.000        1112.784
   -234885.701 7  23253749.520          46.000        2346.858
   -509144.159 5  23989883.727          33.000        1319.023
 -16302994.779 8  20479604.645          48.000       -1527.876
   5634768.025 7  23289441.218          42.000       -3697.990
   8829766.366 7  23311559.980          44.000       -3476.285
  -6968198.72516  22989661.013          39.000         785.758
 107423481.953 6  38624866.494          40.000        -589.109
  -7801475.978 7  21338908.666          45.000       -3149.140
   -775828.525 7  23531164.321          44.000        3213.034
  -2994875.254 7  22866617.190          44.000        -397.515
 16  9 14  1 33  0.0000000  0 11G24G19G10G15G20G28G17S20G13G12G18
 -17548693.670 7  20877785.807          47.000        1092.209
   -374996.354 8  23227089.845          48.000        2323.928
   -587280.471 6  23975027.152          36.000        1286.516
 -16210283.673 8  20497246.745          48.000       -1561.761
   5857063.953 7  23331741.977          42.000       -3711.595
   9038759.264 7  23351328.537          43.000       -3489.169
  -7014349.374 6  22980876.626          38.000         752.915
 107458829.504 6  38631594.565          41.000        -588.237
  -7611757.853 7  21375009.397          45.000       -3174.710
   -968256.592 7  23494547.901          46.000        3201.719
  -2970032.623 7  22871344.000          44.000        -430.950
 16  9 14  1 34  0.0000000  0 11G24G19G10G15G20G28G17S20G13G12G18
 -17613694.957 7  20865415.906          47.000        1073.884
   -513814.508 7  23200672.152          46.000        2302.724
   -663510.75415  23960520.420          34.000        1254.535
 -16115605.811 7  20515262.367          47.000       -1594.259
   6080109.340 7  23374189.876          43.000       -3723.173
   9248431.197 6  23391224.900          40.000       -3499.575
  -7058636.720 5  22972433.862          32.000         722.496
 107494051.819 6  38638295.291          40.000        -585.529
  -7420594.275 7  21411386.191          46.000       -3198.007
  -1160065.931 7  23458046.949          45.000        3191.781
  -2943203.655 7  22876447.787          43.000        -463.739
 16  9 14  1 35  0.0000000  0 11G24G19G10G15G20G28G17S20G13G12G18
 -17677540.444 8  20853267.832          48.000        1053.919
   -651303.129 7  23174509.983          46.000        2279.772
   -737809.64714  23946368.381          28.000        1222.532
 -16018954.343 8  20533655.281          48.000       -1627.162
   6303889.187 7  23416771.164          42.000       -3735.815
   9458775.433 6  23431253.152          40.000       -3511.798
  -7101036.911 6  22964377.777          40.000         690.130
 107529164.541 6  38644976.858          40.000        -584.301
  -7227985.467 7  21448039.256          46.000       -3222.198
  -1351228.978 7  23421670.888          44.000        3180.046
  -2914379.115 7  22881933.996          44.000        -496.908
 16  9 14  1 36  0.0000000  0 11G24G19G10G15G20G28G17S20G13G12G18
 -17740124.787 7  20841356.872          46.000        1032.446
   -787336.519 7  23148622.986          47.000        2255.011
   -810065.51015  23932629.091          34.000        1185.697
 -15920234.048 7  20552440.789          47.000       -1662.476
   6528478.677 7  23459511.110          43.000       -3749.624
   9669874.407 6  23471422.332          39.000       -3524.795
  -7141437.827 5  22956681.026          33.000         656.493
 107564261.896 6  38651655.614          40.000        -584.721
  -7033843.487 7  21484984.735          46.000       -3248.061
  -1541629.837 6  23385434.290          41.000        3166.984
  -2883460.496 7  22887818.052          45.000        -532.701
 16  9 14  1 37  0.0000000  0 11G24G19G10G15G20G28G17S20G13G12G18
 -17801530.241 7  20829673.096          47.000        1014.064
   -921973.829 7  23123002.193          46.000        2232.867
   -880347.66515  23919258.316          35.000        1153.915
 -15819534.854 7  20571603.466          47.000       -1694.158
   6753767.308 7  23502379.978          43.000       -3760.403
   9881625.349 6  23511718.968          41.000       -3534.641
  -7179908.70015  22949367.989          35.000         625.063
 107599266.205 6  38658318.404          40.000        -581.544
  -6838265.025 7  21522201.513          45.000       -3270.676
  -1731338.069 6  23349331.709          41.000        3156.944
  -2850535.990 7  22894084.478          46.000        -564.954
 16  9 14  1 38  0.0000000  0 11G24G19G10G15G20G28G17S20G13G12G18
 -17861788.767 8  20818205.755          48.000         993.979
  -1055227.056 6  23097638.266          41.000        2207.834
   -948682.511 5  23906253.052          35.000        1122.796
 -15716898.421 7  20591134.431          47.000       -1727.452
   6979691.935 7  23545371.974          43.000       -3771.919
  10093973.758 6  23552126.343          40.000       -3544.715
  -7216479.736 6  22942406.504          37.000         591.432
 107634146.861 6  38664954.757          40.000        -581.637
  -6641299.535 7  21559680.759          45.000       -3295.360
  -1920375.357 7  23313361.540          43.000        3144.006
  -2815645.215 7  22900724.338          46.000        -599.010
 16  9 14  1 39  0.0000000  0 11G24G19G10G15G20G28G17S20G13G12G18
 -17920779.942 8  20806979.943          48.000         973.403
  -1186953.819 6  23072568.132          40.000        2182.872
  -1014939.563 5  23893641.693          31.000        1086.469
 -15612214.645 7  20611053.209          46.000       -1761.042
   7206343.872 7  23588505.859          45.000       -3782.398
  10307017.535 6  23592667.980          41.000       -3555.713
  -7251020.17214  22935812.154          26.000         559.022
 107669007.819 6  38671589.155          41.000        -579.371
  -6442842.831 7  21597445.211          46.000       -3319.205
  -2108609.116 7  23277546.172          45.000        3131.276
  -2778675.011 7  22907760.597          47.000        -632.984
 16  9 14  1 40  0.0000000  0 11G24G19G10G15G20G28G17S20G13G12G18
 -17978558.816 8  20795985.625          48.000         952.972
  -1317187.749 6  23047784.704          40.000        2157.876
  -1079165.14515  23881413.330          30.000        1052.762
 -15505547.613 7  20631352.262          46.000       -1793.995
   7433639.343 7  23631756.677          44.000       -3793.529
  10520681.452 7  23633328.226          43.000       -3565.626
  -7283578.23715  22929637.709          35.000         526.351
 107703784.482 6  38678207.429          40.000        -579.131
  -6242965.140 7  21635483.772          47.000       -3342.876
  -2296082.899 7  23241871.279          46.000        3118.548
  -2739686.995 7  22915179.453          46.000        -666.746
 16  9 14  1 41  0.0000000  0 11G24G19G10G15G20G28G17S20G13G12G18
 -18035143.503 7  20785218.003          47.000         932.482
  -1445926.032 7  23023296.360          45.000        2131.973
  -1141370.89115  23869586.149          35.000        1019.455
 -15396925.573 7  20652024.575          47.000       -1827.337
   7661530.193 7  23675123.278          44.000       -3803.815
  10734925.213 7  23674098.496          43.000       -3575.715
  -7314163.199 5  22923810.575          33.000         493.168
 107738458.207 6  38684803.996          40.000        -576.932
  -6041702.594 7  21673783.003          47.000       -3366.658
  -2482803.401 7  23206338.116          46.000        3105.202
  -2698707.885 7  22922976.350          46.000        -699.956
 16  9 14  1 42  0.0000000  0 11G24G19G10G15G20G28G17S20G13G12G18
 -18090408.567 7  20774700.303          47.000         910.624
  -1573022.546 7  22999110.917          46.000        2104.706
  -1201422.25715  23858155.610          30.000         984.443
 -15286233.815 7  20673086.481          47.000       -1861.626
   7890111.782 7  23718621.034          45.000       -3814.396
  10949852.937 7  23714997.165          44.000       -3586.981
  -7342644.28115  22918389.054          35.000         459.200
 107773143.399 6  38691404.889          41.000        -577.817
  -5838946.014 7  21712364.650          46.000       -3390.685
  -2668633.827 7  23170975.947          46.000        3090.637
  -2655620.592 7  22931174.532          45.000        -734.873
 16  9 14  1 43  0.0000000  0 11G24G19G10G15G20G28G17S20G13G12G18
 -18144436.787 7  20764420.066          47.000         890.104
  -1698539.760 7  22975226.315          46.000        2078.467
  -1259396.19915  23847116.254          32.000         950.698
 -15173566.073 7  20694525.941          46.000       -1894.375
   8119272.553 7  23762228.308          45.000       -3823.708
  11165359.658 7  23756006.346          44.000       -3596.550
  -7369098.025 5  22913360.198          35.000         424.865
 107807762.410 6  38697990.811          40.000        -576.367
  -5634795.303 7  21751213.371          46.000       -3414.221
  -2853646.073 7  23135766.835          45.000        3077.000
  -2610516.778 7  22939757.334          46.000        -768.634
 16  9 14  1 44  0.0000000  0 11G24G19G10G15G20G28G17S20G13G12G18
 -18197233.490 7  20754371.201          46.000         869.163
  -1822460.971 7  22951640.950          43.000        2051.453
  -1315289.51615  23836483.801          30.000         912.356
 -15058938.316 7  20716340.877          47.000       -1927.126
   8348977.014 7  23805941.749          45.000       -3833.234
  11381419.586 7  23797119.635          43.000       -3605.562
  -7393522.59115  22908704.166          31.000         389.950
 107842309.558 6  38704565.530          40.000        -574.816
  -5429272.996 7  21790323.445          45.000       -3437.610
  -3037834.125 7  23100717.724          45.000        3062.185
  -2563409.718 7  22948722.785          46.000        -802.261
 16  9 14  1 45  0.0000000  0 11G24G19G10G15G20G28G17S20G13G12G18
 -18248718.236 7  20744575.033          47.000         847.717
  -1944685.876 7  22928382.340          42.000        2023.189
  -1369013.71614  23826255.775          29.000         878.674
 -14942280.243 7  20738539.683          47.000       -1960.651
   8579277.708 7  23849766.156          45.000       -3842.518
  11598092.473 7  23838350.224          43.000       -3615.992
  -7415832.778 6  22904470.219          36.000         355.331
 107876851.642 6  38711139.620          40.000        -574.710
  -5222315.417 7  21829705.079          44.000       -3460.646
  -3221105.632 7  23065844.266          46.000        3047.179
  -2514227.843 7  22958081.214          46.000        -836.749
 16  9 14  1 46  0.0000000  0 11G24G19G10G15G20G28G17S20G13G12G18
 -18298936.327 7  20735019.276          47.000         826.798
  -2065239.062 7  22905444.639          45.000        1995.379
  -1420611.23715  23816440.045          32.000         842.384
 -14823648.957 7  20761114.035          46.000       -1993.107
   8810098.802 7  23893690.920          45.000       -3851.025
  11815311.597 7  23879687.696          44.000       -3623.823
  -7436066.35715  22900605.171          32.000         319.010
 107911330.716 6  38717700.815          40.000        -574.072
  -5013985.419 7  21869348.728          44.000       -3483.200
  -3403494.920 7  23031135.295          45.000        3032.741
  -2463027.142 7  22967823.828          45.000        -869.555
 16  9 14  1 47  0.0000000  0 11G24G19G10G15G20G28G17S20G13G12G18
 -18347896.780 8  20725703.320          48.000         805.152
  -2184109.344 7  22882823.887          44.000        1966.973
  -1470083.569 6  23807032.562          36.000         807.615
 -14703065.236 7  20784061.054          46.000       -2026.238
   9041402.547 7  23937705.778          44.000       -3859.321
  12033046.626 7  23921122.732          45.000       -3633.798
  -7454230.094 6  22897166.343          40.000         284.901
 107945739.910 6  38724247.176          40.000        -572.959
  -4804309.256 7  21909251.041          46.000       -3506.191
  -3585000.033 7  22996594.665          44.000        3017.470
  -2409825.514 7  22977950.643          46.000        -903.871
 16  9 14  1 48  0.0000000  0 11G24G19G10G15G20G28G17S20G13G12G18
 -18395537.470 7  20716635.350          47.000         783.432
  -2301214.720 7  22860540.587          46.000        1937.232
  -1517360.65715  23798027.500          31.000         768.419
 -14580478.204 7  20807387.458          46.000       -2059.087
   9273222.233 7  23981819.475          44.000       -3867.625
  12251338.471 7  23962660.375          43.000       -3642.479
  -7470254.542 5  22894105.313          33.000         250.850
 107980130.741 6  38730792.108          40.000        -572.544
  -4593241.809 7  21949415.143          45.000       -3529.014
  -3765547.696 7  22962238.397          45.000        3001.617
  -2354571.179 7  22988462.305          45.000        -937.793
 16  9 14  1 49  0.0000000  0 11G24G19G10G15G20G28G17S20G13G12G18
 -18441896.428 8  20707814.299          48.000         762.360
  -2416572.819 7  22838589.365          45.000        1908.317
  -1562476.89515  23789447.786          35.000         735.218
 -14455938.495 7  20831088.675          46.000       -2091.478
   9505490.518 7  24026018.050          44.000       -3874.561
  12470130.018 7  24004294.815          43.000       -3650.401
  -7484173.13315  22891456.074          33.000         215.019
 108014469.020 6  38737327.930          40.000        -571.784
  -4380839.086 7  21989832.273          44.000       -3550.411
  -3945164.937 7  22928057.748          45.000        2986.381
  -2297312.427 7  22999359.896          46.000        -970.895
 16  9 14  1 50  0.0000000  0 11G24G19G10G15G20G28G17S20G13G12G18
 -18486969.284 8  20699238.442          48.000         739.812
  -2530159.334 7  22816969.680          43.000        1877.619
  -1605421.47416  23781277.647          38.000         696.988
 -14329453.419 7  20855154.759          44.000       -2125.459
   9738182.174 7  24070297.174          43.000       -3882.136
  12689403.692 7  24046021.758          43.000       -3659.348
  -7495978.618 6  22889216.635          38.000         178.573
 108048759.191 6  38743852.932          40.000        -571.204
  -4167114.402 7  22030504.385          44.000       -3574.001
  -4123836.393 7  22894060.135          46.000        2969.077
  -2238055.751 7  23010636.035          47.000       -1005.204
 16  9 14  1 51  0.0000000  0 11G24G19G10G15G20G28G17S20G13G12G18
 -18530696.572 8  20690916.905          48.000         717.824
  -2641894.919 7  22795707.793          44.000        1847.493
  -1646129.764 6  23773533.798          38.000         659.919
 -14200976.241 7  20879603.875          46.000       -2157.387
   9971328.992 7  24114665.819          44.000       -3889.014
  12909199.440 7  24087847.173          43.000       -3667.550
  -7505606.377 6  22887385.269          40.000         142.727
 108083052.423 6  38750378.808          41.000        -571.014
  -3952025.659 7  22071432.109          44.000       -3595.744
  -4301490.672 7  22860253.130          45.000        2953.041
  -2176751.878 7  23022300.633          46.000       -1038.228
 16  9 14  1 52  0.0000000  0 11G24G19G10G15G20G28G17S20G13G12G18
 -18573152.873 7  20682836.197          47.000         697.328
  -2751836.013 7  22774791.718          46.000        1817.149
  -1684672.692 6  23766198.617          38.000         623.161
 -14070594.614 7  20904415.066          46.000       -2188.635
  10204825.716 7  24159097.912          43.000       -3893.940
  13129421.477 7  24129756.680          44.000       -3673.768
  -7513128.565 6  22885954.718          40.000         107.908
 108117272.327 6  38756891.473          40.000        -569.871
  -3735666.424 7  22112605.252          45.000       -3616.322
  -4478193.098 7  22826626.142          45.000        2937.827
  -2113488.108 7  23034340.237          47.000       -1070.493
 16  9 14  1 53  0.0000000  0 11G24G19G10G15G20G28G17S20G13G12G18
 -18614331.863 8  20675001.416          48.000         674.946
  -2859956.185 7  22754212.746          43.000        1785.997
  -1721039.088 6  23759275.958          38.000         587.852
 -13938315.099 7  20929586.307          45.000       -2221.162
  10438650.844 7  24203592.408          43.000       -3900.281
  13350055.592 7  24171740.525          42.000       -3682.060
  -7518534.688 6  22884923.969          39.000          71.479
 108151411.183 6  38763386.724          40.000        -568.188
  -3518048.316 7  22154020.028          46.000       -3637.949
  -4653926.001 7  22793185.138          45.000        2920.005
  -2048269.249 7  23046751.285          47.000       -1103.643
 16  9 14  1 54  0.0000000  0 11G24G19G10G15G20G28G17S20G13G12G18
 -18654154.867 7  20667422.490          47.000         652.578
  -2966157.026 7  22734001.730          43.000        1754.000
  -1755145.739 6  23752780.115          37.000         550.376
 -13804070.981 7  20955133.321          46.000       -2253.684
  10672854.673 7  24248159.932          42.000       -3906.367
  13571161.718 6  24213814.466          41.000       -3688.801
  -7521742.988 6  22884313.351          39.000          34.585
 108185536.387 6  38769880.421          40.000        -568.755
  -3299109.817 7  22195680.189          45.000       -3659.912
  -4828599.584 7  22759947.690          45.000        2902.424
  -1981027.999 8  23059548.036          48.000       -1137.138
 16  9 14  1 55  0.0000000  0 11G24G19G10G15G20G28G17S20G13G12G18
 -18692690.451 8  20660090.746          48.000         631.954
  -3070488.599 7  22714151.740          45.000        1723.483
  -1787057.488 6  23746714.943          39.000         513.341
 -13667945.293 7  20981036.302          46.000       -2283.816
  10907339.717 7  24292780.715          42.000       -3909.907
  13792651.032 7  24255964.891          42.000       -3694.203
  -7522819.191 6  22884105.117          38.000           1.524
 108219582.245 6  38776358.727          40.000        -565.728
  -3078937.960 7  22237578.546          46.000       -3679.084
  -5002271.187 7  22726897.310          45.000        2886.538
  -1911844.846 7  23072713.004          47.000       -1168.852
 16  9 14  1 56  0.0000000  0 11G24G19G10G15G20G28G17S20G13G12G18
 -18729957.160 8  20652999.518          48.000         609.955
  -3172951.119 7  22694652.117          43.000        1691.622
  -1816789.711 6  23741059.397          41.000         476.595
 -13529970.069 7  21007293.436          45.000       -2315.301
  11142058.657 7  24337447.985          42.000       -3913.958
  14014484.506 7  24298178.556          42.000       -3700.171
  -7521779.839 6  22884306.283          40.000         -35.005
 108253517.349 6  38782816.267          40.000        -564.716
  -2857569.738 7  22279705.291          45.000       -3700.318
  -5174948.957 7  22694036.735          44.000        2868.909
  -1840751.124 7  23086241.215          47.000       -1201.220
 16  9 14  1 57  0.0000000  0 11G24G19G10G15G20G28G17S20G13G12G18
 -18765874.787 7  20646164.390          47.000         587.612
  -3273445.342 7  22675527.411          43.000        1658.135
  -1844259.022 6  23735827.630          36.000         438.695
 -13390078.577 7  21033912.940          45.000       -2347.802
  11377063.883 7  24382168.879          42.000       -3919.179
  14236722.795 7  24340470.206          42.000       -3706.957
  -7518542.515 6  22884922.712          41.000         -72.050
 108287429.526 6  38789269.951          41.000        -565.807
  -2634943.471 7  22322066.689          44.000       -3720.954
  -5346542.257 7  22661385.789          46.000        2850.525
  -1767680.006 8  23100147.206          48.000       -1234.638
 16  9 14  1 58  0.0000000  0 11G24G19G10G15G20G28G17S20G13G12G18
 -18800490.302 7  20639576.218          46.000         566.526
  -3372000.204 7  22656771.550          42.000        1626.652
  -1869509.75215  23731017.686          35.000         401.659
 -13248331.328 7  21060885.148          44.000       -2378.033
  11612279.479 6  24426928.234          41.000       -3922.007
  14459299.488 6  24382823.751          41.000       -3712.258
  -7513152.771 6  22885943.951          38.000        -106.756
 108321271.078 6  38795710.425          40.000        -563.694
  -2411124.768 7  22364657.453          42.000       -3739.636
  -5517087.857 7  22628932.590          46.000        2833.319
  -1692691.260 7  23114416.145          47.000       -1265.938
 16  9 14  1 59  0.0000000  0 11G24G19G10G15G20G28G17S20G13G12G18
 -18833812.289 7  20633235.349          47.000         543.785
  -3468606.008 7  22638388.444          43.000        1593.370
  -1892547.334 6  23726642.149          40.000         364.542
 -13104751.309 7  21088208.629          45.000       -2409.053
  11847669.224 7  24471720.552          42.000       -3925.050
  14682186.759 6  24425238.756          40.000       -3719.042
  -7505617.297 6  22887381.204          39.000        -143.835
 108355018.141 6  38802131.861          40.000        -562.256
  -2186140.239 7  22407471.371          43.000       -3760.757
  -5686582.976 7  22596679.038          46.000        2815.609
  -1615805.562 7  23129047.140          47.000       -1297.593
 16  9 14  2  1  0.0000000  0 11G24G19G10G15G20G28G17S20G13G12G18
 -18896369.026 7  20621331.666          45.000         498.519
  -3655693.886 6  22602790.087          41.000        1524.537
  -1931770.962 5  23719170.001          33.000         289.072
 -12811946.515 7  21143928.099          42.000       -2471.510
  12319062.880 6  24561424.409          37.000       -3931.135
  15129020.683 5  24510262.953          33.000       -3729.546
  -7483901.039 6  22891514.602          40.000        -218.246
 108422406.919 6  38814954.124          38.000        -560.706
  -1732543.388 6  22493788.454          39.000       -3800.245
  -6022175.628 7  22532815.656          43.000        2777.796
  -1456195.123 7  23159420.501          45.000       -1362.348
 16  9 14  2  2  0.0000000  0 11G24G19G10G15G20G28G17S20G13G12G18
 -18925482.554 7  20615791.763          47.000         472.089
  -3746019.220 7  22585597.976          42.000        1486.794
  -1947832.18716  23716121.675          39.000         247.367
 -12662628.994 7  21172342.062          46.000       -2505.257
  12555132.499 6  24606348.005          40.000       -3936.771
  15353050.968 6  24552897.063          36.000       -3738.675
  -7469597.431 7  22894236.103          42.000        -257.993
 108456159.537 6  38821377.584          41.000        -563.835
  -1503847.296 6  22537306.505          41.000       -3823.298
  -6188131.539 7  22501234.601          45.000        2754.634
  -1373377.560 7  23175178.972          47.000       -1398.005
 16  9 14  2  3  0.0000000  0 11G24G19G10G15G20G28G17S20G13G12G18
 -18953147.156 8  20610526.578          48.000         450.834
  -3834170.426 6  22568823.046          41.000        1452.677
  -1961518.834 6  23713520.754          41.000         209.250
 -12511382.490 7  21201123.806          46.000       -2535.262
  12791419.515 6  24651307.601          37.000       -3938.040
  15577470.455 5  24595600.625          35.000       -3740.846
  -7452990.758 6  22897396.372          41.000        -294.278
 108489959.442 6  38827808.862          41.000        -562.633
  -1273905.061 7  22581066.695          43.000       -3841.062
  -6352840.610 7  22469892.841          45.000        2736.277
  -1288564.639 7  23191318.853          47.000       -1428.349
 16  9 14  2  4  0.0000000  0 11G24G19G10G15G20G28G17S20G13G12G18
 -18979509.186 8  20605510.967          48.000         428.396
  -3920277.105 7  22552442.003          44.000        1417.492
  -1972976.978 5  23711336.057          35.000         172.041
 -12358368.805 7  21230243.141          46.000       -2565.842
  13027749.545 6  24696280.163          36.000       -3939.131
  15802113.637 5  24638351.163          35.000       -3745.102
  -7434228.367 7  22900969.531          43.000        -330.642
 108523661.115 6  38834221.991          41.000        -561.281
  -1042882.889 7  22625029.186          43.000       -3859.560
  -6516439.362 7  22438762.403          45.000        2717.049
  -1201917.704 7  23207809.099          47.000       -1459.720
 16  9 14  2  5  0.0010000  0 10G24G19G15G20G28G17S20G13G12G18
 -19004500.384 7  20600754.832          47.000         405.057
  -4004254.903 7  22536461.051          45.000        1382.032
 -12203531.625 7  21259707.371          45.000       -2595.762
  13264167.899 6  24741270.777          36.000       -3939.255
  16027035.058 6  24681158.459          37.000       -3750.254
  -7413241.134 7  22904961.923          43.000        -368.211
 108557322.630 6  38840628.795          40.000        -560.462
   -810726.138 7  22669205.939          43.000       -3878.353
  -6678851.374 7  22407854.377          44.000        2697.133
  -1113381.141 8  23224656.595          48.000       -1490.898
 16  9 14  2  6  0.0010000  0 11G24G19G10G15G20G28G17S20G13G12G18
 -19028124.079 7  20596259.795          47.000         383.381
  -4086089.045 7  22520885.510          43.000        1346.034
     -6903.74516  23708294.144          39.000          96.168
 -12046895.654 7  21289510.965          45.000       -2624.972
  13500634.557 5  24786266.442          35.000       -3941.301
  16252204.033 6  24724005.741          36.000       -3753.393
  -7390035.015 7  22909378.503          43.000        -404.341
 108590940.537 6  38847026.097          41.000        -559.686
   -577466.770 6  22713592.522          41.000       -3896.716
  -6840066.026 7  22377176.842          44.000        2677.650
  -1022977.606 8  23241859.997          48.000       -1521.455
 16  9 14  2  7  0.0010000  0 11G24G19G10G15G20G28G17S20G13G12G18
 -19050465.534 7  20592006.584          46.000         361.549
  -4165849.816 7  22505707.816          44.000        1311.219
    -11561.640 5  23707397.482          35.000          60.035
 -11888559.872 7  21319643.530          46.000       -2653.663
  13737041.377 6  24831257.274          36.000       -3939.774
  16477521.342 5  24766879.390          34.000       -3757.253
  -7364696.226 6  22914198.288          41.000        -440.058
 108624416.152 6  38853396.072          41.000        -556.553
   -343204.516 7  22758172.750          43.000       -3912.984
  -7000160.598 7  22346711.711          45.000        2658.475
   -930806.180 8  23259398.548          48.000       -1550.818
 16  9 14  2  8  0.0010000  0 11G24G19G10G15G20G28G17S20G13G12G18
 -19071437.039 7  20588017.011          47.000         338.083
  -4243433.527 7  22490944.862          44.000        1274.917
    -13924.067 5  23706937.599          34.000          18.683
 -11728451.522 7  21350111.749          46.000       -2683.032
  13973449.372 5  24876244.477          35.000       -3940.990
  16703056.55115  24809797.886          32.000       -3760.773
  -7337138.176 7  22919444.051          44.000        -477.665
 108657825.481 6  38859754.112          40.000        -557.512
   -107870.792 6  22802954.546          40.000       -3931.453
  -7159037.451 7  22316479.435          44.000        2637.759
   -836795.084 7  23277288.773          47.000       -1582.137
 16  9 14  2  9  0.0010000  0 11G24G19G10G15G20G28G17S20G13G12G18
 -19091061.837 7  20584282.385          47.000         315.751
  -4318848.515 7  22476593.297          44.000        1238.475
    -14015.028 6  23706937.878          40.000         -17.938
 -11566610.287 7  21380907.545          45.000       -2711.782
  14209807.831 6  24921225.275          37.000       -3938.437
  16928768.11415  24852752.976          32.000       -3763.377
  -7307386.765 7  22925105.041          43.000        -514.176
 108691152.342 6  38866095.974          41.000        -554.444
    128491.863 6  22847933.966          41.000       -3948.181
  -7316710.627 7  22286474.519          44.000        2617.709
   -740983.193 7  23295522.837          46.000       -1612.050
 16  9 14  2 10  0.0010000  0 11G24G19G10G15G20G28G17S20G13G12G18
 -19109316.122 7  20580808.535          47.000         291.990
  -4392055.600 7  22462664.097          46.000        1201.369
    -11812.669 6  23707354.694          37.000         -56.569
 -11403029.503 7  21412035.592          46.000       -2741.398
  14446112.82314  24966181.991          29.000       -3940.324
  17154662.76014  24895733.072          29.000       -3767.028
  -7275420.154 7  22931188.763          43.000        -552.419
 108724420.846 6  38872427.908          41.000        -554.156
    365887.037 6  22893107.501          41.000       -3965.859
  -7473146.518 7  22256705.320          45.000        2596.403
   -643363.603 7  23314096.203          45.000       -1642.613
 16  9 14  2 11  0.0010000  0 11G24G19G10G15G20G28G17S20G13G12G18
 -19126119.921 7  20577611.830          47.000         268.313
  -4462959.502 7  22449172.043          45.000        1162.572
     -7238.30214  23708201.954          29.000         -95.662
 -11237644.511 7  21443508.212          47.000       -2770.837
  14682418.60415  25011154.867          30.000       -3935.707
  17380800.97715  24938777.437          32.000       -3771.808
  -7241160.916 7  22937709.543          44.000        -589.756
 108757701.000 6  38878759.440          40.000        -554.270
    604376.229 6  22938491.836          40.000       -3983.344
  -7628254.924 7  22227191.557          45.000        2574.228
   -543871.961 7  23333029.951          47.000       -1673.602
 16  9 14  2 12  0.0010000  0 11G24G19G10G15G20G28G17S20G13G12G18
 -19141546.397 7  20574676.092          46.000         245.832
  -4531618.597 7  22436106.733          44.000        1125.446
      -366.69416  23709534.505          39.000        -133.273
 -11070545.229 7  21475306.435          46.000       -2799.130
  14918624.77314  25056107.378          27.000       -3935.494
  17607093.51115  24981840.229          32.000       -3770.075
  -7204685.295 7  22944645.795          43.000        -625.930
 108790921.422 6  38885081.881          41.000        -552.078
    843866.602 6  22984057.932          38.000       -3998.021
  -7782100.364 7  22197914.856          45.000        2554.135
   -442598.767 7  23352300.122          47.000       -1702.158
 16  9 14  2 13  0.0010000  0 11G24G19G10G15G20G28G17S20G13G12G18
 -19155584.859 7  20572004.499          47.000         221.080
  -4598008.540 7  22423468.884          43.000        1086.354
      8809.472 5  23711277.817          34.000        -172.561
 -10901738.544 7  21507429.773          45.000       -2828.619
  15154715.96415  25101040.118          30.000       -3934.809
  17833532.42915  25024926.160          30.000       -3774.899
  -7165986.374 7  22952012.369          44.000        -663.954
 108824078.128 6  38891391.252          41.000        -552.886
   1084349.430 6  23029822.751          38.000       -4017.518
  -7934662.055 7  22168882.335          45.000        2530.696
   -339550.584 7  23371910.712          46.000       -1733.276
 16  9 14  2 14  0.0010000  0 11G24G19G10G15G20G28G17S20G13G12G18
 -19168156.811 7  20569612.754          47.000         198.223
  -4662036.756 7  22411287.463          45.000        1048.085
     20366.17015  23713463.980          33.000        -211.989
 -10731162.252 7  21539888.818          46.000       -2857.247
  15390704.52914  25145944.694          25.000       -3931.996
  18060177.00014  25068053.588          27.000       -3777.988
  -7124988.833 7  22959816.578          45.000        -702.217
 108857239.482 6  38897701.006          40.000        -551.965
   1325883.781 7  23075789.783          43.000       -4033.397
  -8085852.802 7  22140111.533          45.000        2509.222
   -234665.348 7  23391868.264          43.000       -1762.411
 16  9 14  2 15  0.0010000  0 11G24G19G10G15G20G28G17S20G13G12G18
 -19179305.977 7  20567489.883          47.000         173.697
  -4723732.189 7  22399545.840          45.000        1008.530
     34257.563 6  23716114.826          37.000        -251.367
 -10558876.925 7  21572674.235          47.000       -2885.738
  15626600.74214  25190838.974          29.000       -3931.667
  18286972.19614  25111211.571          26.000       -3779.587
  -7081739.451 7  22968044.530          44.000        -740.193
 108890368.973 6  38904007.742          41.000        -551.722
   1568406.629 6  23121938.576          40.000       -4050.273
  -8235705.920 7  22111593.776          44.000        2485.970
   -128004.074 7  23412165.991          44.000       -1792.070
 16  9 14  2 16  0.0000000  0 10G24G19G10G15G20G17S20G13G12G18
 -19189026.117 7  20265847.522          47.000         149.412
  -4783076.384 7  22088460.485          44.000         968.639
     50485.299 6  23419418.292          39.000        -291.028
 -10384894.121 7  21305989.615          46.000       -2914.181
  15862342.88114  24935916.395          29.000       -3934.304
  -7036237.407 7  22676910.236          44.000        -777.820
 108923473.154 6  38610512.835          41.000        -550.976
   1811904.032 6  22868485.724          41.000       -4066.005
  -8384207.284 7  21783542.482          44.000        2463.065
    -19579.380 7  23133008.340          47.000       -1822.154
 16  9 14  2 17  0.0000000  0 10G24G19G10G15G28G17S20G13G12G18
 -19197257.268 7  20264281.976          47.000         125.339
  -4839996.522 7  22077629.850          45.000         929.167
     69105.286 6  23422958.854          39.000        -329.511
 -10209171.733 7  21339428.962          46.000       -2942.451
  18740354.91013  24897819.271          22.000       -3774.848
  -6988427.679 7  22686008.169          44.000        -815.739
 108956601.606 6  38616817.354          40.000        -551.673
   2056416.166 7  22915017.323          44.000       -4083.236
  -8531287.278 7  21755554.828          44.000        2439.607
     90651.093 7  23153982.332          47.000       -1851.764
 16  9 14  2 18  0.0000000  0 11G24G19G10G15G20G28G17S20G13G12G18
 -19204059.338 8  20262986.873          48.000         102.190
  -4894539.260 7  22067252.991          47.000         889.417
     90053.596 6  23426935.898          37.000        -368.288
 -10031786.847 7  21373182.272          47.000       -2969.431
  16333331.11714  25025540.835          28.000       -3922.163
  18967384.78314  24941069.880          27.000       -3786.604
  -6938374.582 7  22695532.288          45.000        -852.376
 108989695.768 7  38623115.661          42.000        -550.578
   2301863.638 6  22961718.887          39.000       -4098.277
  -8676997.495 7  21727827.043          45.000        2417.531
    202608.928 7  23175285.610          45.000       -1880.191
 16  9 14  2 19  0.0000000  0 10G24G19G10G15G28G17S20G13G12G18
 -19209429.550 7  20261965.756          47.000          76.616
  -4946689.092 7  22057327.778          45.000         848.431
    113329.225 5  23431365.095          34.000        -406.684
  -9852753.735 7  21407251.955          46.000       -2998.075
  19194688.29814  24984318.727          25.000       -3789.828
  -6886080.121 7  22705485.386          45.000        -891.313
 109022745.743 6  38629403.917          40.000        -551.572
   2548230.084 6  23008595.948          39.000       -4115.141
  -8821325.384 7  21700360.767          43.000        2393.229
    316279.805 7  23196916.935          42.000       -1909.445
 16  9 14  2 20  0.0000000  0 10G24G19G10G15G28G17S20G13G12G18
 -19213262.389 7  20261236.302          47.000          51.464
  -4996329.136 7  22047879.096          45.000         806.898
    139032.081 6  23436264.348          38.000        -448.994
  -9671985.441 7  21441650.993          46.000       -3026.593
  19422171.07614  25027607.412          28.000       -3792.278
  -6831445.253 7  22715878.405          43.000        -929.444
 109055848.872 6  38635704.196          41.000        -551.678
   2795600.669 7  23055673.075          42.000       -4130.779
  -8964156.994 7  21673179.435          42.000        2369.025
    431750.301 7  23218892.919          43.000       -1938.720
 16  9 14  2 21  0.0000000  0 10G24G19G10G15G28G17S20G13G12G18
 -19215629.345 7  20260786.784          47.000          27.126
  -5043519.265 7  22038902.320          46.000         766.218
    167085.423 6  23441599.473          37.000        -487.410
  -9489570.948 7  21476362.879          46.000       -3053.329
  19649754.44313  25070924.279          21.000       -3798.790
  -6774546.782 7  22726706.980          43.000        -966.960
 109088933.102 6  38641999.275          41.000        -551.134
   3043884.818 6  23102920.814          40.000       -4145.258
  -9105555.304 7  21646270.763          42.000        2344.145
    548929.393 7  23241191.750          44.000       -1966.905
 16  9 14  2 22  0.0000000  0 11G24G19G10G15G20G28G17S20G13G12G18
 -19216544.299 7  20260611.409          46.000           2.709
  -5088262.046 7  22030390.313          47.000         724.475
    197469.40815  23447370.592          33.000        -527.544
  -9305542.960 7  21511382.727          46.000       -3081.393
  17272051.86513  25204350.267          22.000       -3907.526
  19877383.51511  25114248.528          11.000       -3793.472
  -6715405.787 7  22737965.320          45.000       -1004.914
 109121975.151 6  38648285.908          40.000        -551.116
   3293047.632 7  23150337.959          43.000       -4160.427
  -9245525.696 6  21619633.652          41.000        2319.623
    667784.297 7  23263808.244          46.000       -1995.478
 16  9 14  2 23  0.0000000  0 11G24G19G10G15G20G28G17S20G13G12G18
 -19215930.912 7  20260726.197          45.000         -22.636
  -5130469.882 7  22022349.986          43.000         683.236
    230254.963 6  23453623.127          39.000        -566.647
  -9119843.270 7  21546720.412          46.000       -3108.395
  17506334.72114  25248930.810          25.000       -3903.600
  20104940.71011  25157624.796          11.000       -3792.588
  -6653951.011 7  22749660.072          45.000       -1042.937
 109155058.479 6  38654581.667          40.000        -551.104
   3543147.259 7  23197929.711          43.000       -4175.418
  -9383983.302 6  21593286.493          40.000        2296.192
    788373.237 7  23286755.071          46.000       -2023.480
 16  9 14  2 24  0.0000000  0 11G24G19G10G15G20G28G17S20G13G12G18
 -19213846.037 7  20261124.498          46.000         -46.654
  -5170189.682 7  22014798.858          47.000         641.235
    265378.626 7  23460310.853          43.000        -604.683
  -8932546.397 7  21582361.121          47.000       -3134.686
  17740311.22813  25293439.562          19.000       -3900.576
  20332735.43014  25200920.636          24.000       -3802.183
  -6590247.654 7  22761778.986          44.000       -1080.687
 109188126.092 6  38660874.460          41.000        -550.508
   3794105.519 6  23245681.883          39.000       -4189.595
  -9520976.498 7  21567223.249          45.000        2271.162
    910618.718 7  23310017.834          45.000       -2050.722
 16  9 14  2 25  0.0000000  0 10G24G19G10G15G28G17S20G13G12G18
 -19210299.950 7  20261800.101          46.000         -71.283
  -5207419.887 7  22007715.972          47.000         599.218
    302823.147 7  23467433.352          43.000        -643.461
  -8743681.529 7  21618302.165          47.000       -3160.571
  20560565.39414  25244285.998          26.000       -3797.764
  -6524311.677 7  22774326.321          43.000       -1117.841
 109221158.137 6  38667160.412          41.000        -550.481
   4045893.196 6  23293592.904          38.000       -4203.769
  -9656508.065 7  21541430.553          44.000        2246.658
   1034491.963 7  23333591.124          44.000       -2078.170
 16  9 14  2 26  0.0000000  0 10G24G19G10G15G20G17S20G13G12G18
 -19205217.348 7  20262766.319          46.000         -97.084
  -5242076.840 7  22001113.629          43.000         556.000
    342657.219 6  23475009.939          40.000        -683.618
  -8553191.434 7  21654551.572          47.000       -3187.839
  18207037.21712  25382307.099          17.000       -3889.218
  -6456075.869 7  22787312.651          44.000       -1155.898
 109254233.251 6  38673454.549          41.000        -550.687
   4298565.739 6  23341673.995          39.000       -4218.497
  -9790492.811 7  21515933.220          43.000        2220.151
   1160048.269 7  23357483.979          43.000       -2106.492
 16  9 14  2 27  0.0000000  0  9G24G19G10G15G17S20G13G12G18
 -19198645.320 7  20264018.111          47.000        -121.618
  -5274198.349 7  21995005.093          45.000         514.396
    384825.912 6  23483034.544          41.000        -721.528
  -8361142.643 7  21691096.569          47.000       -3213.434
  -6385595.077 7  22800722.183          43.000       -1193.100
 109287289.949 6  38679745.247          40.000        -550.023
   4552056.360 6  23389916.378          41.000       -4230.724
  -9922970.882 7  21490725.124          44.000        2196.153
   1287220.405 7  23381681.359          44.000       -2132.041
 16  9 14  2 28  0.0000000  0  9G24G19G10G15G17S20G13G12G18
 -19190589.939 7  20265548.669          45.000        -147.499
  -5303780.909 7  21989376.543          46.000         470.752
    429315.494 6  23491503.484          41.000        -761.364
  -8167560.240 7  21727934.240          47.000       -3239.808
  -6312884.266 7  22814559.700          43.000       -1231.014
 109320312.305 6  38686028.530          40.000        -551.075
   4806338.574 6  23438304.244          41.000       -4245.667
 -10053940.547 7  21465799.896          43.000        2168.917
   1415982.128 7  23406185.164          45.000       -2160.078
 16  9 14  2 29  0.0000000  0  9G24G19G10G15G17S20G13G12G18
 -19180950.973 7  20267384.293          45.000        -172.910
  -5330715.712 7  21984248.989          45.000         427.730
    476218.231 6  23500426.949          41.000        -801.485
  -7972361.971 7  21765079.803          47.000       -3266.140
  -6237850.741 7  22828839.039          43.000       -1269.453
 109353407.956 6  38692327.308          40.000        -550.568
   5061493.430 6  23486856.735          41.000       -4259.226
 -10183294.084 7  21441186.172          42.000        2143.115
   1546413.473 7  23431004.277          45.000       -2187.231
 16  9 14  2 30  0.0000000  0 10G24G19G10G15G28G17S20G13G12G18
 -19169783.414 7  20269509.991          46.000        -198.805
  -5355048.653 7  21979616.113          44.000         383.671
    525470.662 5  23509787.229          34.000        -840.659
  -7775622.200 7  21802518.024          47.000       -3292.180
  21699982.50814  25461184.038          24.000       -3798.802
  -6160558.448 7  22843549.101          44.000       -1307.029
 109386523.848 6  38698628.756          41.000        -552.396
   5317445.402 6  23535562.247          41.000       -4272.148
 -10311078.291 7  21416868.700          42.000        2116.408
   1678439.290 7  23456128.909          46.000       -2213.859
 16  9 14  2 31  0.0000000  0 10G24G19G10G15G28G17S20G13G12G18
 -19157061.619 7  20271932.465          47.000        -224.450
  -5376747.101 7  21975493.324          47.000         340.091
    577089.630 6  23519618.961          40.000        -879.181
  -7577334.598 7  21840249.129          46.000       -3317.417
  21928048.02612  25504584.457          16.000       -3798.837
  -6080990.250 7  22858688.578          42.000       -1344.325
 109419675.465 6  38704938.109          40.000        -552.396
   5574200.633 7  23584424.096          42.000       -4285.329
 -10437258.733 7  21392858.980          43.000        2089.828
   1812064.547 7  23481556.650          45.000       -2240.101
 16  9 14  2 32  0.0000000  0 10G24G19G10G15G28G17S20G13G12G18
 -19142844.671 7  20274635.242          46.000        -249.185
  -5395862.101 7  21971850.417          44.000         297.010
    631007.143 7  23529887.297          42.000        -917.712
  -7377577.227 7  21878261.845          47.000       -3341.204
  22156107.20412  25547959.468          14.000       -3786.419
  -5999214.409 7  22874249.810          43.000       -1380.646
 109452807.322 6  38711241.651          40.000        -551.511
   5831680.827 6  23633419.561          41.000       -4297.201
 -10561887.732 7  21369143.646          45.000        2065.143
   1947210.064 7  23507276.142          43.000       -2264.643
 16  9 14  2 33  0.0000000  0 10G24G19G10G15G28G17S20G13G12G18
 -19127136.548 7  20277625.703          45.000        -274.550
  -5412390.682 7  21968703.514          43.000         253.339
    687209.579 7  23540579.010          44.000        -956.363
  -7176372.993 7  21916549.979          46.000       -3366.247
  22384024.94812  25591351.721          16.000       -3800.110
  -5915244.823 7  22890228.538          44.000       -1418.083
 109485900.570 6  38717538.772          40.000        -551.951
   6089861.888 6  23682547.264          39.000       -4309.676
 -10684962.319 7  21345724.703          45.000        2037.604
   2083850.319 6  23533276.147          41.000       -2290.417
 16  9 14  2 34  0.0000000  0  9G24G19G10G15G17S20G13G12G18
 -19109865.903 7  20280910.532          45.000        -300.392
  -5426255.804 7  21966072.580          46.000         209.223
    745757.357 6  23551714.692          40.000        -994.930
  -6973671.031 7  21955123.685          47.000       -3390.129
  -5829020.407 7  22906635.250          42.000       -1455.866
 109519018.360 6  38723840.098          41.000        -551.291
   6348793.610 6  23731818.843          37.000       -4322.655
 -10806405.329 7  21322612.797          45.000        2010.837
   2222034.991 7  23559574.393          42.000       -2315.377
 16  9 14  2 35  0.0000000  0  9G24G19G10G15G17S20G13G12G18
 -19091074.110 7  20284487.862          45.000        -325.731
  -5437491.216 7  21963928.699          44.000         164.924
    806600.058 7  23563297.397          43.000       -1033.039
  -6769531.178 7  21993970.243          47.000       -3414.716
  -5740592.165 6  22923460.140          41.000       -1492.660
 109552126.222 6  38730142.418          41.000        -552.486
   6608416.980 6  23781225.121          39.000       -4332.948
 -10926248.232 7  21299809.219          46.000        1983.819
   2361702.156 7  23586151.319          43.000       -2340.341
 16  9 14  2 36  0.0000000  0  9G24G19G10G15G17S20G13G12G18
 -19070716.479 7  20288361.845          46.000        -351.879
  -5446045.968 7  21962298.936          44.000         120.398
    869772.385 7  23575318.293          43.000       -1072.104
  -6563928.774 7  22033093.631          45.000       -3438.344
  -5649925.493 7  22940715.770          43.000       -1529.601
 109585271.473 6  38736449.730          40.000        -551.584
   6868757.094 6  23830764.195          39.000       -4344.776
 -11044440.073 7  21277318.349          46.000        1957.031
   2502876.043 7  23613015.562          43.000       -2364.871
 16  9 14  2 37  0.0000000  0 10G24G19G10G15G28G17S20G13G12G18
 -19048849.038 7  20292522.064          45.000        -376.824
  -5451971.266 7  21961173.117          44.000          77.063
    935207.269 6  23587767.732          40.000       -1110.253
  -6356938.422 7  22072481.076          45.000       -3461.465
  23294456.48613  25764780.186          18.000       -3782.147
  -5557087.033 7  22958384.569          44.000       -1565.560
 109618388.978 6  38742752.871          40.000        -552.153
   7129737.395 6  23880423.746          37.000       -4355.022
 -11161029.947 7  21255130.624          46.000        1929.699
   2645479.036 7  23640150.843          45.000       -2388.959
 16  9 14  2 38  0.0000000  0 10G24G19G10G15G28G17S20G13G12G18
 -19025414.562 7  20296982.427          46.000        -403.178
  -5455204.293 7  21960560.789          44.000          32.217
   1002950.366 6  23600658.522          40.000       -1148.096
  -6148523.114 7  22112143.903          46.000       -3485.302
  23522055.37113  25808115.708          19.000       -3795.130
  -5462030.317 7  22976472.365          44.000       -1602.581
 109651538.215 6  38749060.304          40.000        -552.605
   7391394.986 6  23930222.130          39.000       -4367.056
 -11275954.653 7  21233262.919          47.000        1901.954
   2789546.480 7  23667568.014          46.000       -2412.436
 16  9 14  2 39  0.0000000  0 10G24G19G10G15G28G17S20G13G12G18
 -19000496.023 7  20301723.564          45.000        -426.817
  -5455823.709 6  21960437.032          41.000         -11.358
   1072907.696 6  23613970.438          40.000       -1183.698
  -5938785.205 7  22152054.924          46.000       -3505.848
  23749583.67811  25851425.892          11.000       -3788.275
  -5364849.657 7  22994965.530          43.000       -1636.460
 109684623.662 6  38755355.907          40.000        -550.725
   7653628.481 6  23980127.327          41.000       -4375.225
 -11389288.386 7  21211693.978          45.000        1876.116
   2934973.778 7  23695240.727          47.000       -2434.398
 16  9 14  2 40  0.0000000  0 10G24G19G10G15G28G17S20G13G12G18
 -18974091.931 7  20306749.715          47.000        -453.058
  -5453824.277 7  21960822.089          44.000         -56.121
   1145068.340 7  23627708.122          42.000       -1221.435
  -5727743.636 7  22192213.459          46.000       -3529.230
  23976871.54211  25894698.279          11.000       -3797.454
  -5265555.870 6  23013857.572          41.000       -1672.852
 109717637.287 6  38761636.763          40.000        -550.118
   7916418.432 6  24030135.341          41.000       -4385.446
 -11501025.870 7  21190432.075          46.000        1848.492
   3081740.178 7  23723169.050          47.000       -2458.209
 16  9 14  2 41  0.0000000  0 10G24G19G10G15G28G17S20G13G12G18
 -18946120.472 7  20312070.653          45.000        -478.878
  -5449119.437 7  21961716.203          43.000        -100.353
   1219502.663 6  23641868.503          40.000       -1258.603
  -5515336.152 7  22232634.411          46.000       -3550.728
  24204129.81412  25937946.480          15.000       -3791.178
  -5164077.841 6  23033168.332          41.000       -1708.801
 109750669.408 6  38767924.182          40.000        -550.565
   8179827.851 6  24080257.933          37.000       -4394.744
 -11611076.352 7  21169489.248          46.000        1820.769
   3229907.021 7  23751364.466          46.000       -2480.161
 16  9 14  2 42  0.0000000  0  9G24G19G10G15G17S20G13G12G18
 -18916651.102 7  20317678.403          45.000        -503.033
  -5441775.396 7  21963115.763          44.000        -143.575
   1296128.418 6  23656447.270          40.000       -1294.994
  -5301651.722 7  22273298.583          46.000       -3571.135
  -5060497.010 6  23052877.708          39.000       -1743.220
 109783653.241 6  38774201.671          40.000        -548.067
   8443766.852 5  24130474.041          34.000       -4402.796
 -11719504.203 7  21148857.524          47.000        1794.156
   3379381.937 7  23779807.867          45.000       -2501.651
 16  9 14  2 43  0.0000000  0  9G24G19G10G15G17S20G13G12G18
 -18885711.766 7  20323565.600          44.000        -529.563
  -5431816.538 7  21965007.733          42.000        -189.572
   1374905.873 7  23671443.830          43.000       -1332.425
  -5086738.349 7  22314194.442          45.000       -3593.310
  -4954852.637 7  23072985.890          42.000       -1778.943
 109816551.786 6  38780460.819          40.000        -549.054
   8708189.517 6  24180804.709          38.000       -4412.142
 -11826330.494 7  21128528.753          47.000        1765.889
   3530115.427 7  23808491.785          44.000       -2524.089
 16  9 14  2 44  0.0000000  0  9G24G19G10G15G17S20G13G12G18
 -18853189.312 7  20329753.936          44.000        -555.418
  -5419127.357 7  21967424.501          43.000        -233.998
   1455934.902 7  23686861.987          42.000       -1369.007
  -4870502.101 7  22355343.208          46.000       -3614.562
  -4847044.554 6  23093497.539          40.000       -1815.119
 109849481.507 6  38786728.152          40.000        -549.029
   8973189.040 6  24231228.806          38.000       -4421.321
 -11931435.260 7  21108525.831          47.000        1737.173
   3682198.705 7  23837433.075          44.000       -2545.356
 16  9 14  2 45  0.0000000  0  9G24G19G10G15G17S20G13G12G18
 -18819126.351 7  20336238.454          46.000        -581.113
  -5403749.047 7  21970348.704          42.000        -279.729
   1539158.617 6  23702695.756          40.000       -1405.566
  -4653007.461 7  22396730.186          45.000       -3635.906
  -4737128.693 6  23114415.796          41.000       -1849.714
 109882386.661 6  38792987.877          40.000        -548.446
   9238702.428 6  24281751.409          38.000       -4429.750
 -12034857.324 8  21088847.883          48.000        1709.715
   3835566.053 7  23866619.001          44.000       -2567.095
 16  9 14  2 46  0.0000000  0  9G24G19G10G15G17S20G13G12G18
 -18783469.302 7  20343024.879          46.000        -606.820
  -5385625.147 7  21973798.245          43.000        -324.916
   1624618.050 6  23718958.958          40.000       -1442.468
  -4434218.808 7  22438363.404          45.000       -3656.599
  -4625063.707 6  23135742.684          41.000       -1884.263
 109915312.682 6  38799255.611          40.000        -548.589
   9504764.538 5  24332371.071          32.000       -4437.793
 -12136535.190 7  21069497.825          47.000        1680.547
   3990249.309 7  23896053.138          43.000       -2587.702
 16  9 14  2 47  0.0000000  0  9G24G19G10G15G17S20G13G12G18
 -18746298.478 7  20350096.143          45.000        -632.238
  -5364835.298 7  21977755.117          43.000        -369.050
   1712218.906 7  23735634.176          42.000       -1477.915
  -4214236.976 7  22480227.017          47.000       -3676.553
  -4510942.835 6  23157457.421          41.000       -1919.449
 109948186.770 6  38805509.926          40.000        -547.896
   9771275.55015  24383107.596          35.000       -4445.544
 -12236543.615 8  21050467.839          48.000        1652.347
   4146146.497 7  23925719.677          42.000       -2608.542
 16  9 14  2 48  0.0000000  0  9G24G19G10G15G17S20G13G12G18
 -18707627.059 7  20357456.384          47.000        -657.232
  -5341390.873 7  21982212.775          43.000        -413.806
   1801934.091 7  23752702.130          43.000       -1512.722
  -3993095.469 7  22522307.781          47.000       -3695.852
  -4394791.981 7  23179560.757          43.000       -1952.913
 109981000.372 7  38811755.447          43.000        -546.641
  10038203.863 6  24433897.834          39.000       -4451.707
 -12334890.295 8  21031750.858          49.000        1624.756
   4303221.230 6  23955608.341          38.000       -2627.364
 16  9 14  2 49  0.0000000  0  9G24G19G10G15G17S20G13G12G18
 -18667381.254 7  20365115.075          45.000        -684.275
  -5315217.535 7  21987197.447          44.000        -458.974
   1893823.329 6  23770193.704          41.000       -1549.325
  -3770739.583 7  22564620.231          45.000       -3715.971
  -4276550.766 6  23202063.249          41.000       -1988.510
 110013818.980 6  38818001.176          40.000        -546.297
  10305603.756 6  24484779.824          38.000       -4460.996
 -12431495.478 8  21013369.933          48.000        1595.735
   4461526.13815  23985730.906          32.000       -2648.540
 16  9 14  2 50  0.0010000  0  9G24G19G10G15G17S20G13G12G18
 -18625605.018 7  20373060.473          44.000        -709.383
  -5286359.609 6  21992683.499          41.000        -503.874
   1987828.296 6  23788077.019          36.000       -1584.784
  -3547231.354 7  22607153.113          45.000       -3735.080
  -4156275.855 7  23224951.146          43.000       -2021.548
 110046601.323 6  38824239.751          40.000        -546.508
  10573415.736 6  24535743.796          37.000       -4467.614
 -12526400.605 8  20995309.568          48.000        1567.266
   4620995.14414  24016075.020          25.000       -2667.218
 16  9 14  2 51  0.0010000  0  9G24G19G10G15G17S20G13G12G18
 -18582267.940 7  20381309.697          45.000        -734.933
  -5254786.562 6  21998693.371          41.000        -547.823
   2083962.330 6  23806370.746          39.000       -1619.665
  -3322566.656 7  22649903.860          44.000       -3753.612
  -4033954.181 7  23248226.753          43.000       -2055.793
 110079365.184 6  38830472.951          40.000        -544.963
  10841642.74215  24586785.648          31.000       -4475.728
 -12619564.917 7  20977579.711          47.000        1538.463
   4781632.56114  24046662.146          25.000       -2688.089
 16  9 14  2 52  0.0010000  0  8G24G19G10G15G17S20G12G18
 -18537413.296 7  20389846.518          46.000        -760.377
  -5220543.046 7  22005211.342          42.000        -592.915
   2182168.280 6  23825059.091          40.000       -1654.876
  -3096804.952 7  22692863.365          43.000       -3771.772
  -3909641.103 6  23271879.703          41.000       -2089.170
 110112059.505 6  38836694.216          40.000        -544.438
 -12711029.003 8  20960176.521          48.000        1510.147
   4943089.35415  24077435.326          30.000       -2705.927
 16  9 14  2 53  0.0010000  0  9G24G19G10G15G25G17S20G13G12
 -18490950.306 7  20398688.648          46.000        -787.436
  -5183538.455 7  22012253.639          43.000        -639.061
   2282521.683 5  23844150.240          33.000       -1688.969
  -2869876.186 7  22736050.996          45.000       -3791.292
   -174017.89617  24035394.558          45.000        2900.130
  -3783259.967 6  23295925.823          40.000       -2123.204
 110144779.475 6  38842922.024          40.000        -544.951
  11378964.68515  24689076.591          32.000       -4484.853
 -12800697.303 8  20943111.709          48.000        1479.833
 16  9 14  2 54  0.0010000  0 10G24G19G10G15G25G17S20G13G12G18
 -18442969.533 7  20407816.735          45.000        -812.236
  -5143864.913 7  22019805.517          44.000        -682.917
   2384916.299 6  23863640.249          38.000       -1723.750
  -2641890.158 7  22779436.338          46.000       -3808.242
   -347708.683 7  24002342.659          45.000        2889.231
  -3654915.232 6  23320350.649          41.000       -2155.662
 110177427.316 6  38849133.708          40.000        -543.657
  11648298.04016  24740336.117          36.000       -4491.219
 -12888654.377 8  20926375.293          48.000        1451.873
   5269154.51014  24139635.196          25.000       -2740.337
 16  9 14  2 55  0.0010000  0 10G24G19G10G15G25G17S20G13G12G18
 -18393454.653 7  20417239.660          45.000        -838.337
  -5101508.104 7  22027862.370          42.000        -728.869
   2489352.507 6  23883515.087          39.000       -1757.570
  -2412850.918 7  22823018.571          44.000       -3826.406
   -520721.759 7  23969419.734          45.000        2877.419
  -3524605.422 7  23345152.033          43.000       -2188.874
 110210027.142 6  38855337.697          40.000        -543.756
  11917948.82915  24791644.538          33.000       -4497.248
 -12974879.093 7  20909966.312          47.000        1422.424
   5434183.38715  24171036.828          33.000       -2760.353
 16  9 14  2 56  0.0010000  0 10G24G19G10G15G25G17S20G13G12G18
 -18342370.427 7  20426957.460          43.000        -864.680
  -5056435.228 7  22036442.974          43.000        -773.915
   2595849.204 6  23903778.210          36.000       -1791.726
  -2182743.417 7  22866805.163          43.000       -3843.930
   -693012.883 7  23936633.567          44.000        2866.074
  -3392310.231 7  23370327.968          45.000       -2221.618
 110242616.143 6  38861539.016          40.000        -542.611
  12187933.28515  24843021.557          32.000       -4503.394
 -13059331.826 7  20893895.656          47.000        1393.030
   5600277.981 6  24202646.658          37.000       -2776.639
 16  9 14  2 57  0.0010000  0 10G24G19G10G15G25G17S20G13G12G18
 -18289741.138 7  20436976.171          45.000        -889.918
  -5008673.084 6  22045528.866          41.000        -818.934
   2704365.822 6  23924431.363          39.000       -1825.559
  -1951611.745 7  22910790.095          44.000       -3860.492
   -864597.090 7  23903980.458          43.000        2853.581
  -3258068.497 7  23395872.609          44.000       -2253.483
 110275159.968 6  38867731.976          40.000        -542.066
  12458209.12116  24894467.259          37.000       -4507.366
 -13142033.013 7  20878158.456          47.000        1363.715
   5767391.252 5  24234437.413          34.000       -2794.598
 16  9 14  2 58  0.0010000  0 10G24G19G10G15G25G17S20G13G12G18
 -18235517.627 7  20447294.118          45.000        -917.315
  -4958175.462 6  22055137.724          41.000        -864.072
   2814934.812 5  23945465.471          35.000       -1859.544
  -1719426.831 7  22954975.372          45.000       -3878.525
  -1035415.907 7  23871475.763          43.000        2840.686
  -3121846.550 7  23421793.895          43.000       -2287.153
 110307700.786 6  38873923.453          40.000        -542.048
  12728806.339 6  24945960.129          37.000       -4512.241
 -13222927.277 7  20862764.485          46.000        1333.080
   5935550.561 5  24266444.881          35.000       -2811.072
 16  9 14  2 59  0.0010000  0 10G24G19G10G15G25G17S20G13G12G18
 -18179762.273 7  20457905.595          45.000        -941.817
  -4905008.006 7  22065258.780          44.000        -907.681
   2927477.61715  23966889.226          32.000       -1892.032
  -1486270.478 7  22999345.360          45.000       -3894.451
  -1205522.178 7  23839106.918          44.000        2829.036
  -2983721.039 7  23448078.931          44.000       -2317.852
 110340181.291 6  38880103.744          40.000        -540.641
  12999644.615 6  24997500.115          36.000       -4515.627
 -13302072.774 7  20847702.993          46.000        1304.476
   6104670.59415  24298623.676          33.000       -2824.502
 16  9 14  3  1  0.0000000  0 11G24G19G10G15G25G32G17S20G13G12G18
 -18063503.876 7  20180236.771          43.000        -997.133
  -4790529.429 6  21787245.296          38.000       -1000.898
   3158565.279 5  23711068.196          35.000       -1959.577
  -1016973.533 6  22788850.661          40.000       -3928.683
  -1543409.799 7  23475015.052          42.000        2800.718
   -307158.11415  23662500.925          32.000        2542.624
  -2701672.625 7  23201958.687          42.000       -2383.695
 110405098.242 6  38592665.066          37.000        -542.690
  13542121.01314  24800952.798          24.000       -4525.637
 -13454951.593 7  20518819.123          44.000        1241.916
   6445852.21015  24063760.969          33.000       -2860.889
 16  9 14  3  2  0.0000000  0 10G24G19G10G15G25G32G17S20G12G18
 -18002728.449 7  20191800.228          45.000       -1027.332
  -4728954.314 7  21798965.927          43.000       -1049.965
   3277348.462 6  23733675.337          38.000       -1995.556
   -780599.500 7  22833833.867          44.000       -3948.713
  -1710899.716 7  23443142.683          46.000        2783.667
   -458935.54216  23633617.481          36.000        2519.038
  -2557507.443 7  23229390.098          43.000       -2419.269
 110437820.413 6  38598891.129          39.000        -546.555
 -13528403.750 7  20504841.847          47.000        1207.824
   6618141.008 5  24096541.656          32.000       -2880.012
 16  9 14  3  3  0.0000000  0 11G24G19G10G15G25G32G17S20G13G12G18
 -17940252.365 7  20203690.527          45.000       -1054.491
  -4664559.222 7  21811221.285          43.000       -1095.783
   3398203.383 6  23756670.431          40.000       -2030.201
   -543165.684 7  22879017.681          43.000       -3964.809
  -1877472.134 7  23411445.532          45.000        2769.799
   -609451.584 6  23604974.223          36.000        2498.588
  -2411333.588 7  23257209.200          44.000       -2451.171
 110470644.526 6  38605137.225          39.000        -546.538
  14085750.54014  24904468.921          28.000       -4538.547
 -13599922.274 7  20491230.957          46.000        1176.957
   6791468.00815  24129527.070          31.000       -2896.332
 16  9 14  3  4  0.0000000  0 11G24G19G10G15G25G32G17S20G13G12G18
 -17876203.082 7  20215878.038          45.000       -1081.058
  -4597476.521 7  21823986.503          42.000       -1140.728
   3520985.781 7  23780034.493          42.000       -2063.153
   -304818.939 7  22924374.234          44.000       -3980.513
  -2043244.169 7  23379897.877          45.000        2755.607
   -758813.018 6  23576556.316          39.000        2478.951
  -2263293.206 7  23285379.313          44.000       -2483.134
 110503437.666 6  38611377.877          40.000        -547.345
  14358153.74515  24956313.710          33.000       -4542.838
 -13669630.428 7  20477967.134          47.000        1146.398
   6965683.32015  24162678.051          33.000       -2910.812
 16  9 14  3  5  0.0000000  0 11G24G19G10G15G25G32G17S20G13G12G18
 -17810653.705 7  20228349.255          43.000       -1103.968
  -4527785.021 7  21837245.824          42.000       -1182.373
   3645604.011 6  23803746.372          41.000       -2091.574
    -65651.693 7  22969884.315          43.000       -3991.637
  -2208279.803 7  23348492.249          45.000        2744.747
   -907073.599 6  23548338.494          38.000        2461.589
  -2113475.731 7  23313891.643          46.000       -2511.010
 110536130.494 6  38617598.757          40.000        -542.499
  14630656.96015  25008167.782          33.000       -4541.653
 -13737598.564 7  20465032.962          47.000        1119.163
   7140691.18315  24195987.655          32.000       -2923.314
 16  9 14  3  6  0.0000000  0 10G24G19G10G15G25G32G17S20G13G12
 -17743657.577 7  20241100.426          44.000       -1128.470
  -4455543.797 7  21850994.292          43.000       -1225.621
   3771987.110 6  23827798.531          39.000       -2120.208
    174263.118 6  23015535.393          41.000       -4004.397
  -2372622.549 7  23317220.150          45.000        2733.239
  -1054266.319 6  23520329.708          38.000        2443.261
  -1961950.172 7  23342724.969          45.000       -2539.680
 110568664.258 6  38623789.466          40.000        -541.167
  14903191.60715  25060027.526          30.000       -4540.250
 -13803874.924 7  20452420.242          47.000        1090.284
 16  9 14  3  7  0.0000000  0 10G24G19G10G15G25G32G17S20G13G12
 -17675165.285 7  20254132.562          44.000       -1154.684
  -4380710.925 7  21865233.565          42.000       -1269.686
   3900165.292 6  23852192.609          41.000       -2152.269
    414954.608 7  23061341.377          43.000       -4018.831
  -2536214.273 7  23286089.869          46.000        2719.533
  -1200322.477 6  23492536.938          41.000        2423.847
  -1808684.463 7  23371890.478          45.000       -2570.030
 110601097.115 6  38629962.202          40.000        -540.593
  15175786.37014  25111904.598          28.000       -4544.788
 -13868406.997 7  20440140.838          47.000        1059.873
 16  9 14  3  8  0.0000000  0 10G24G19G10G15G25G32G17S20G12G18
 -17605079.191 7  20267472.678          46.000       -1181.061
  -4303195.670 7  21879987.672          42.000       -1313.911
   4030217.348 7  23876940.002          43.000       -2183.165
    656501.198 7  23107306.804          44.000       -4032.628
  -2698947.943 7  23255120.356          44.000        2705.451
  -1345124.558 7  23464983.655          42.000        2403.425
  -1653596.821 7  23401403.665          44.000       -2599.563
 110633531.290 6  38636133.000          40.000        -540.574
 -13931095.241 7  20428211.136          47.000        1029.746
   7669541.78515  24296737.482          30.000       -2962.790
 16  9 14  3  9  0.0000000  0 10G24G19G10G15G25G32G17S20G12G18
 -17533477.413 7  20281095.417          44.000       -1205.548
  -4223083.224 6  21895226.459          41.000       -1356.252
   4162046.867 7  23902026.801          43.000       -2211.185
    898805.184 7  23153417.346          45.000       -4044.097
  -2860891.788 7  23224304.406          45.000        2692.777
  -1488730.128 7  23437656.666          42.000        2383.581
  -1496781.838 7  23431241.443          42.000       -2627.873
 110665877.338 6  38642287.779          39.000        -538.503
 -13992012.971 7  20416619.148          47.000        1000.956
   7847545.23315  24330620.570          33.000       -2972.406
 16  9 14  3 10  0.0000000  0 11G24G19G10G15G25G32G17S20G13G12G18
 -17460362.821 7  20295010.256          46.000       -1231.493
  -4140383.952 7  21910967.061          42.000       -1400.208
   4295631.996 6  23927444.125          40.000       -2242.038
   1141843.785 7  23199664.262          44.000       -4057.000
  -3022039.243 7  23193640.395          45.000        2678.019
  -1631121.965 7  23410560.422          43.000        2362.647
  -1338258.735 7  23461406.134          42.000       -2657.159
 110698126.826 6  38648422.578          39.000        -537.212
  15993537.67914  25267639.101          26.000       -4547.117
 -14051160.704 8  20405364.386          48.000         970.367
   8026241.00815  24364618.463          32.000       -2984.512
 16  9 14  3 11  0.0000000  0 11G24G19G10G15G25G32G17S20G13G12G18
 -17385642.864 7  20309225.866          43.000       -1258.737
  -4055013.026 7  21927217.472          45.000       -1444.894
   4431046.425 6  23953213.682          37.000       -2272.613
   1385691.630 6  23246060.483          40.000       -4070.695
  -3182287.884 7  23163145.354          45.000        2663.555
  -1772186.873 7  23383713.995          42.000        2339.601
  -1177951.336 7  23491911.226          42.000       -2686.226
 110730378.093 6  38654562.070          39.000        -537.505
  16266448.65314  25319570.722          27.000       -4549.473
 -14108442.052 8  20394464.736          49.000         939.129
   8205700.03015  24398768.312          32.000       -2997.181
 16  9 14  3 12  0.0000000  0 11G24G19G10G15G25G32G17S20G13G12G18
 -17309376.929 7  20323737.572          43.000       -1283.812
  -3967038.659 7  21943954.883          44.000       -1487.570
   4568211.351 7  23979314.776          42.000       -2300.754
   1630268.735 7  23292605.553          42.000       -4082.562
  -3341687.881 7  23132812.217          45.000        2649.496
  -1911964.285 7  23357115.134          43.000        2319.305
  -1015935.579 7  23522743.911          43.000       -2713.823
 110762566.736 6  38660687.219          39.000        -535.913
  16539377.12213  25371517.263          22.000       -4552.752
 -14163913.519 8  20383907.284          48.000         910.035
   8385839.78415  24433042.127          32.000       -3009.728
 16  9 14  3 13  0.0000000  0 11G24G19G10G15G25G32G17S20G13G12G18
 -17231558.527 7  20338545.530          42.000       -1310.240
  -3876463.610 7  21961187.444          43.000       -1531.464
   4707113.433 7  24005749.709          45.000       -2330.253
   1875562.802 7  23339287.486          43.000       -4094.426
  -3500223.317 7  23102646.078          45.000        2634.781
  -2050427.380 6  23330763.735          41.000        2296.334
   -852222.658 7  23553897.470          43.000       -2742.961
 110794707.848 6  38666801.985          39.000        -535.225
  16812320.32614  25423444.469          28.000       -4548.806
 -14217565.506 8  20373698.453          48.000         878.573
   8566644.42215  24467450.467          31.000       -3018.182
 16  9 14  3 14  0.0000000  0 11G24G19G10G15G25G32G17S20G13G12G18
 -17152118.488 7  20353664.504          44.000       -1337.306
  -3783226.567 7  21978931.087          43.000       -1575.852
   4847802.776 7  24032518.919          44.000       -2359.310
   2121623.736 7  23386111.986          44.000       -4106.634
  -3657814.986 7  23072656.692          46.000        2619.127
  -2187486.041 7  23304683.564          42.000        2272.813
   -686759.115 7  23585383.317          43.000       -2771.804
 110826875.946 6  38672924.620          39.000        -535.986
  17085336.22814  25475395.233          27.000       -4550.192
 -14269326.955 8  20363848.206          48.000         847.257
   8748164.02114  24501983.732          25.000       -3030.457
 16  9 14  3 15  0.0000000  0 11G24G19G10G15G25G32G17S20G13G12G18
 -17071111.289 7  20369081.021          44.000       -1363.081
  -3687392.227 7  21997169.601          45.000       -1618.518
   4990204.830 6  24059616.699          40.000       -2387.071
   2368377.917 7  23433068.027          44.000       -4118.336
  -3814508.281 7  23042838.370          46.000        2604.338
  -2323174.774 7  23278864.815          43.000        2250.286
   -519617.049 7  23617190.893          44.000       -2799.152
 110859006.455 6  38679038.147          39.000        -534.312
  17358348.44714  25527348.754          25.000       -4550.709
 -14319249.938 7  20354347.994          47.000         817.261
   8930315.63914  24536651.260          29.000       -3041.226
 16  9 14  3 16  0.0000000  0 11G24G19G10G15G25G32G17S20G13G12G18
 -16988551.775 7  20384792.254          45.000       -1390.000
  -3588984.858 7  22015896.407          46.000       -1662.387
   5134285.397 6  24087030.345          39.000       -2416.056
   2615791.320 7  23480144.195          42.000       -4129.562
  -3970307.826 7  23013187.885          44.000        2588.583
  -2457487.386 7  23253307.558          44.000        2226.394
   -350828.230 7  23649309.363          45.000       -2827.908
 110891078.999 6  38685139.790          39.000        -534.910
  17631328.80914  25579290.217          25.000       -4549.110
 -14367345.153 7  20345194.517          47.000         785.537
   9113066.52115  24571433.103          31.000       -3052.314
 16  9 14  3 17  0.0000000  0 10G24G19G10G15G25G32G17S20G12G18
 -16904360.452 7  20400815.236          45.000       -1416.381
  -3487934.449 7  22035125.727          46.000       -1706.018
   5280104.031 7  24114785.039          44.000       -2444.284
   2863925.358 6  23527360.087          41.000       -4139.890
  -4125124.311 7  22983729.265          45.000        2572.514
  -2590323.442 7  23228028.300          43.000        2201.943
   -180329.526 7  23681755.477          45.000       -2855.493
 110923180.015 6  38691249.007          39.000        -535.374
 -14413531.509 8  20336406.640          48.000         754.336
   9296472.42815  24606330.852          31.000       -3061.835
 16  9 14  3 18  0.0000000  0 10G24G19G10G15G25G32G17S20G12G18
 -16818604.210 7  20417135.675          45.000       -1441.858
  -3384318.341 7  22054843.234          46.000       -1747.961
   5427574.068 7  24142845.617          44.000       -2471.169
   3112694.013 6  23574701.690          40.000       -4151.038
  -4279014.714 7  22954446.596          46.000        2557.530
  -2721728.957 7  23203021.021          43.000        2178.454
     -8204.404 7  23714509.152          45.000       -2882.113
 110955237.134 6  38697348.730          38.000        -534.522
 -14457873.231 8  20327968.884          48.000         723.916
   9480447.45814  24641345.603          27.000       -3070.384
 16  9 14  3 19  0.0000000  0 10G24G19G10G15G25G32G17S20G12G18
 -16731296.783 7  20433745.629          43.000       -1468.538
  -3278160.800 7  22075045.613          46.000       -1790.924
   5576661.742 7  24171215.727          43.000       -2499.276
   3362065.442 7  23622160.017          44.000       -4161.493
  -4431982.906 7  22925338.603          45.000        2541.579
  -2851696.693 7  23178290.660          44.000        2153.572
    165515.608 7  23747566.705          46.000       -2908.916
 110987246.907 6  38703439.607          39.000        -534.160
 -14500382.206 8  20319879.835          48.000         693.087
   9664954.24914  24676452.126          26.000       -3079.221
 16  9 14  3 20  0.0000000  0 10G24G19G10G15G25G32G17S20G12G18
 -16642361.463 7  20450671.206          45.000       -1494.956
  -3169396.945 7  22095741.152          45.000       -1833.672
   5727422.927 6  24199906.189          40.000       -2526.071
   3612096.419 7  23669740.636          46.000       -4172.112
  -4583942.977 7  22896418.427          44.000        2524.880
  -2980129.827 7  23153852.712          45.000        2128.154
    340890.306 7  23780938.030          46.000       -2935.990
 111019291.022 6  38709539.365          39.000        -534.633
 -14540979.977 7  20312154.205          47.000         661.026
   9850052.99514  24711666.578          24.000       -3088.873
 16  9 14  3 21  0.0000000  0 10G24G19G10G15G25G32G17S20G12G18
 -16551853.380 7  20467892.983          43.000       -1521.802
  -3058092.620 7  22116921.476          46.000       -1876.433
   5879782.811 6  24228900.842          40.000       -2552.592
   3862714.231 7  23717430.615          44.000       -4182.385
  -4734939.692 7  22867685.317          44.000        2507.754
  -3107062.077 7  23129701.488          45.000        2102.476
    517847.432 7  23814611.698          46.000       -2962.618
 111051306.594 6  38715630.817          39.000        -533.519
 -14579717.527 8  20304782.168          48.000         629.631
  10035655.48714  24746987.791          27.000       -3097.664
 16  9 14  3 22  0.0000000  0 10G24G19G10G15G25G32G17S20G12G18
 -16459720.165 7  20485425.514          44.000       -1548.547
  -2944207.589 7  22138594.175          46.000       -1919.169
   6033772.552 7  24258202.376          44.000       -2579.290
   4113952.119 7  23765234.178          42.000       -4192.548
  -4884911.499 7  22839146.830          44.000        2491.519
  -3232420.839 7  23105845.139          45.000        2075.898
    696421.589 7  23848595.334          47.000       -2989.162
 111083339.031 6  38721725.707          39.000        -534.126
 -14616543.120 8  20297774.929          48.000         598.194
  10221799.42014  24782412.658          28.000       -3109.148
 16  9 14  3 23  0.0000000  0 10G24G19G10G15G25G32G17S20G12G18
 -16366042.663 7  20503251.225          42.000       -1573.677
  -2827833.947 7  22160736.966          45.000       -1959.848
   6189291.036 7  24287797.788          47.000       -2604.419
   4365711.115 6  23813137.067          38.000       -4200.555
  -5033929.092 7  22810790.558          43.000        2475.787
  -3356265.603 7  23082275.130          43.000        2051.775
    876515.564 8  23882867.108          48.000       -3013.579
 111115315.183 6  38727809.970          39.000        -531.765
 -14651534.676 8  20291115.996          48.000         568.003
  10408382.32314  24817923.048          29.000       -3112.221
 16  9 14  3 24  0.0000000  0 10G24G19G10G15G25G32G17S20G12G18
 -16270842.303 7  20521367.588          43.000       -1599.514
  -2709004.582 7  22183350.912          46.000       -2001.287
   6346297.337 7  24317672.229          47.000       -2629.198
   4617952.321 6  23861143.611          41.000       -4208.130
  -5182002.947 7  22782610.759          42.000        2460.300
  -3478595.883 6  23058991.671          41.000        2026.012
   1058091.201 7  23917418.679          47.000       -3038.559
 111147210.396 6  38733880.447          39.000        -531.198
 -14684711.286 8  20284803.798          49.000         537.488
  10595361.48515  24853505.194          32.000       -3119.531
 16  9 14  3 25  0.0000000  0 10G24G19G10G15G25G32G17S20G12G18
 -16174044.906 7  20539789.137          43.000       -1626.062
  -2587658.917 7  22206442.402          46.000       -2042.773
   6504843.896 8  24347844.109          48.000       -2654.543
   4870730.727 7  23909251.453          44.000       -4216.488
  -5329050.067 6  22754626.840          41.000        2442.601
  -3599317.644 7  23036020.396          42.000        1998.643
   1241204.409 7  23952265.088          46.000       -3063.946
 111179103.773 6  38739948.097          39.000        -530.883
 -14715997.669 8  20278848.109          48.000         506.256
  10782790.48315  24889166.092          30.000       -3126.644
 16  9 14  3 26  0.0000000  0 10G24G19G10G15G25G32G17S20G12G18
 -16075698.331 7  20558502.768          43.000       -1652.001
  -2463856.796 7  22230000.859          46.000       -2083.284
   6664862.996 7  24378293.203          45.000       -2679.148
   5123982.017 7  23957442.201          43.000       -4224.430
  -5475107.411 7  22726833.494          42.000        2426.875
  -3718456.858 7  23013350.155          43.000        1972.581
   1425791.335 7  23987391.853          46.000       -3088.790
 111210944.336 6  38746006.883          39.000        -530.244
 -14745439.593 8  20273245.646          48.000         475.582
  10970598.93614  24924904.505          27.000       -3132.522
 16  9 14  3 27  0.0000000  0  9G24G19G10G15G25G32G17S20G12
 -15975803.867 6  20577509.318          41.000       -1679.228
  -2337612.456 7  22254025.306          47.000       -2125.059
   6826332.249 7  24409020.908          43.000       -2703.949
   5377686.198 7  24005721.335          45.000       -4232.651
  -5620166.776 6  22699229.693          41.000        2408.020
  -3835994.202 7  22990986.340          44.000        1945.222
   1611832.943 7  24022793.895          47.000       -3113.328
 111242741.115 6  38752058.391          39.000        -530.551
 -14773037.076 8  20267996.185          49.000         444.247
 16  9 14  3 28  0.0000000  0  9G24G19G10G15G25G32G17S20G12
 -15874302.019 6  20596822.765          40.000       -1704.002
  -2208879.121 7  22278522.254          47.000       -2165.642
   6989290.933 7  24440030.381          43.000       -2727.473
   5631885.468 7  24054093.705          42.000       -4239.600
  -5764157.871 6  22671830.216          41.000        2391.558
  -3951848.441 7  22968939.298          45.000        1917.078
   1799372.454 7  24058480.393          47.000       -3137.456
 111274561.360 6  38758114.262          39.000        -530.672
 -14798729.377 8  20263106.023          49.000         412.974
 16  9 14  3 29  0.0000000  0  9G24G19G10G15G25G32G17S20G12
 -15771235.247 6  20616435.868          40.000       -1729.892
  -2077713.162 7  22303483.307          47.000       -2206.672
   7153674.964 7  24471309.513          45.000       -2751.866
   5886519.105 6  24102544.409          39.000       -4248.092
  -5907113.762 7  22644629.445          42.000        2374.306
  -4066041.669 7  22947208.211          46.000        1888.851
   1988349.513 7  24094442.744          47.000       -3161.814
 111306353.257 6  38764163.817          39.000        -530.677
 -14822557.076 8  20258573.817          50.000         381.217
 16  9 14  3 30  0.0000000  0  9G24G19G10G15G25G32G17S20G12
 -15666566.937 6  20636355.867          41.000       -1758.170
  -1944091.159 7  22328907.332          44.000       -2247.371
   7319500.919 8  24502867.551          48.000       -2775.372
   6141606.754 6  24151077.740          37.000       -4254.533
  -6048986.992 7  22617627.240          42.000        2357.171
  -4178515.443 7  22925806.566          47.000        1860.217
   2178784.165 7  24130680.512          47.000       -3185.958
 111338149.259 6  38770213.877          39.000        -529.786
 -14844482.315 8  20254399.725          49.000         349.586
 16  9 14  3 31  0.0000000  0  9G24G19G10G15G25G32G17S20G12
 -15560366.700 6  20656564.144          40.000       -1781.269
  -1808097.225 7  22354787.436          43.000       -2285.621
   7486677.712 8  24534679.106          49.000       -2797.209
   6397061.495 6  24199700.049          40.000       -4260.200
  -6189837.474 7  22590828.137          44.000        2338.928
  -4289318.807 7  22904721.206          47.000        1833.318
   2370589.996 7  24167180.818          46.000       -3207.614
 111369888.356 6  38776251.966          39.000        -527.914
 -14864573.497 8  20250575.737          48.000         320.037
 16  9 14  3 32  0.0000000  0  9G24G19G10G15G25G32G17S20G12
 -15452635.211 6  20677066.527          41.000       -1808.278
  -1669746.085 7  22381114.998          44.000       -2326.154
   7655183.587 8  24566746.149          50.000       -2820.355
   6652864.734 7  24248381.480          44.000       -4267.460
  -6329655.898 7  22564221.721          45.000        2321.064
  -4398431.550 8  22883958.815          48.000        1803.520
   2563747.946 7  24203936.997          46.000       -3231.364
 111401565.612 6  38782280.511          39.000        -527.993
 -14882830.881 8  20247100.770          48.000         288.163
 16  9 14  3 33  0.0000000  0  9G24G19G10G15G25G32G17S20G12
 -15343293.535 6  20697872.806          41.000       -1835.921
  -1528972.593 7  22407902.984          43.000       -2365.982
   7825076.922 8  24599074.702          49.000       -2842.221
   6909078.841 7  24297137.109          44.000       -4273.426
  -6468352.644 7  22537826.050          43.000        2302.891
  -4505753.335 8  22863535.289          48.000        1774.454
   2758321.107 7  24240962.782          45.000       -3253.944
 111433271.449 6  38788314.133          39.000        -527.891
 -14899173.835 8  20243992.293          48.000         256.885
 16  9 14  3 34  0.0000000  0 10G24G19G10G15G25G32G17S20G12G18
 -15232406.580 6  20718974.272          40.000       -1861.266
  -1385856.513 7  22435136.178          43.000       -2404.657
   7996272.116 8  24631652.793          49.000       -2864.282
   7165622.266 6  24345953.465          40.000       -4277.918
  -6605982.155 7  22511635.786          42.000        2285.030
  -4611327.778 8  22843445.761          48.000        1744.381
   2954227.924 7  24278244.282          46.000       -3275.846
 111464949.429 6  38794342.921          39.000        -528.500
 -14913667.096 8  20241235.072          48.000         225.470
  12481122.94713  25213102.825          23.000       -3175.871
 16  9 14  3 35  0.0010000  0 10G24G19G10G15G25G32G17S20G12G18
 -15119917.429 6  20740379.669          41.000       -1888.256
  -1240354.848 7  22462825.485          43.000       -2444.730
   8168805.902 8  24664484.697          48.000       -2885.989
   7422537.106 6  24394841.053          40.000       -4284.163
  -6742481.591 7  22485661.975          43.000        2265.679
  -4715080.789 7  22823700.595          47.000        1714.214
   3151509.504 7  24315784.430          45.000       -3299.117
 111496650.493 6  38800375.130          39.000        -528.640
 -14926253.610 8  20238839.104          48.000         193.961
  12671638.44213  25249364.064          22.000       -3169.323
 16  9 14  3 36  0.0010000  0 10G24G19G10G15G25G32G17S20G12G18
 -15005882.421 6  20762078.893          40.000       -1914.569
  -1092539.434 7  22490954.730          43.000       -2482.733
   8342599.509 7  24697557.676          47.000       -2906.844
   7679746.064 6  24443785.843          40.000       -4289.743
  -6877887.948 7  22459894.320          44.000        2247.344
  -4817039.909 7  22804296.023          45.000        1684.591
   3350089.819 7  24353571.323          45.000       -3320.714
 111528328.072 6  38806402.802          39.000        -527.878
 -14936985.157 8  20236796.713          48.000         163.188
  12862326.57113  25285669.259          20.000       -3177.454
 16  9 14  3 37  0.0010000  0 10G24G19G10G15G25G32G17S20G12G18
 -14890269.116 6  20784081.506          41.000       -1940.168
   -942393.162 7  22519524.349          42.000       -2521.219
   8517664.641 7  24730870.229          45.000       -2928.240
   7937266.998 6  24492785.530          36.000       -4294.335
  -7012163.463 7  22434343.310          44.000        2228.246
  -4917156.179 7  22785245.254          46.000        1653.472
   3549985.523 7  24391610.424          45.000       -3342.622
 111560006.377 6  38812430.822          39.000        -527.478
 -14945830.983 7  20235112.384          47.000         131.931
  13053179.45012  25321963.618          15.000       -3175.792
 16  9 14  3 38  0.0010000  0  9G24G19G10G15G25G32G17S20G12
 -14773133.499 6  20806371.663          41.000       -1964.480
   -789987.368 7  22548525.267          42.000       -2558.713
   8693924.665 7  24764412.200          43.000       -2947.203
   8195027.542 5  24541837.237          34.000       -4296.200
  -7145353.334 7  22409000.585          45.000        2211.038
  -5015464.285 7  22766539.650          46.000        1623.485
   3751124.815 7  24429885.941          44.000       -3363.057
 111591627.812 6  38818447.745          39.000        -526.338
 -14952846.528 7  20233778.628          47.000         101.746
 16  9 14  3 39  0.0010000  0 10G24G19G10G15G25G32G17S20G12G18
 -14654484.429 7  20828950.430          42.000       -1990.591
   -635346.124 7  22577956.752          43.000       -2595.848
   8871349.651 6  24798173.310          41.000       -2966.757
   8453002.319 6  24590926.026          37.000       -4300.603
  -7277456.157 7  22383859.708          45.000        2192.005
  -5111952.528 7  22748180.311          47.000        1592.209
   3953481.500 7  24468393.285          44.000       -3383.373
 111623195.672 6  38824456.256          39.000        -526.118
 -14958039.963 7  20232788.172          46.000          70.776
  13435139.30112  25394679.129          17.000       -3180.315
 16  9 14  3 40  0.0010000  0 10G24G19G10G15G25G32G17S20G12G18
 -14534265.001 6  20851826.444          41.000       -2016.802
   -478427.877 7  22607816.727          43.000       -2634.088
   9049976.176 6  24832167.922          41.000       -2987.438
   8711232.892 6  24640065.368          37.000       -4306.039
  -7408403.890 7  22358942.577          46.000        2172.987
  -5206542.474 7  22730177.375          46.000        1560.487
   4157096.738 7  24507140.062          44.000       -3404.028
 111654775.134 6  38830463.877          39.000        -527.001
 -14961352.690 8  20232160.592          48.000          39.329
  13626428.32612  25431094.121          14.000       -3187.907
 16  9 14  3 41  0.0010000  0 10G24G19G10G15G25G32G17G02S20G12
 -14412513.562 7  20874995.186          42.000       -2041.972
   -319286.599 6  22638099.277          41.000       -2670.910
   9229745.010 6  24866375.637          41.000       -3005.751
   8969665.100 5  24689239.820          34.000       -4309.421
  -7538224.411 7  22334238.181          45.000        2154.175
  -5299251.765 7  22712532.657          44.000        1528.993
   4361915.336 7  24546117.566          44.000       -3423.709
   -124092.98515  25398677.829          33.000        2070.704
 111686326.117 6  38836469.038          39.000        -525.518
 -14962823.426 7  20231879.155          47.000           8.756
 16  9 14  3 42  0.0010000  0 11G24G19G10G15G25G32G17G02S20G12G18
 -14289168.389 7  20898468.521          42.000       -2069.616
   -157876.851 6  22668814.783          40.000       -2709.834
   9410696.496 6  24900807.394          40.000       -3026.057
   9228344.244 5  24738467.757          34.000       -4313.062
  -7666845.816 7  22309761.075          45.000        2132.878
  -5389998.380 7  22695262.822          43.000        1495.557
   4567982.721 7  24585332.847          44.000       -3445.634
   -248202.592 5  25375060.809          34.000        2065.828
 111717917.419 6  38842480.708          39.000        -526.821
 -14962390.885 8  20231962.864          48.000         -23.395
  14009244.16812  25503889.764          14.000       -3186.984
 16  9 14  3 43  0.0010000  0 10G24G19G10G15G25G32G17G02S20G12
 -14164164.289 7  20922255.436          42.000       -2096.252
      5849.960 6  22699968.360          40.000       -2747.450
   9592874.995 6  24935476.736          40.000       -3045.784
   9487319.58815  24787741.221          31.000       -4317.910
  -7794192.414 7  22285529.633          46.000        2112.056
  -5478696.574 7  22678387.397          46.000        1461.317
   4775347.054 7  24624792.449          45.000       -3466.102
   -371986.13615  25351502.788          35.000        2061.280
 111749608.443 6  38848509.933          39.000        -528.693
 -14959988.435 7  20232416.360          46.000         -55.972
 16  9 14  3 44  0.0010000  0 10G24G19G10G15G25G32G17G02S20G12
 -14037606.265 6  20946335.410          40.000       -2121.898
    171773.897 6  22731540.935          38.000       -2783.833
   9776155.368 6  24970353.160          38.000       -3064.076
   9746471.08014  24837059.201          26.000       -4321.972
  -7920357.903 7  22261518.639          44.000        2092.066
  -5565430.084 8  22661885.407          48.000        1428.947
   4983888.259 7  24664472.656          44.000       -3485.760
   -495524.103 6  25327995.652          38.000        2056.354
 111781291.154 6  38854540.170          39.000        -528.656
 -14955720.360 8  20233232.559          48.000         -87.085
 16  9 14  3 45  0.0010000  0 11G24G19G10G15G25G32G17G02S20G12G06
 -13909393.684 6  20970734.427          40.000       -2150.788
    339979.203 5  22763546.903          35.000       -2821.577
   9960617.290 6  25005461.358          37.000       -3082.208
  10005883.51115  24886458.481          31.000       -4325.568
  -8045231.150 7  22237757.969          46.000        2070.816
  -5650078.062 8  22645776.587          48.000        1393.609
   5193690.408 7  24704398.877          44.000       -3506.012
   -618690.860 6  25304556.240          37.000        2050.423
 111813080.481 6  38860589.654          39.000        -530.317
 -14949486.076 8  20234417.219          48.000        -119.734
    -90656.36914  24628274.535          26.000        1503.835
 16  9 14  3 46  0.0000000  0 11G24G19G10G15G25G32G17G02S20G12G06
 -13779725.794 6  20695619.110          41.000       -2172.727
    510249.625 6  22496158.822          36.000       -2854.633
  10146040.805 6  24740948.497          39.000       -3098.033
  10265344.24816  24636033.809          37.000       -4324.043
  -8169000.855 7  21914413.619          45.000        2054.159
  -5732819.456 8  22330237.579          48.000        1363.272
   5404538.756 7  24444731.383          43.000       -3522.212
   -741661.655 6  24981362.433          37.000        2048.752
 111844786.068 6  38566830.769          39.000        -526.155
 -14941485.174 8  19936148.919          49.000        -148.067
   -180152.67916  24311450.685          37.000        1479.321
 16  9 14  3 47  0.0000000  0 11G24G19G10G15G25G32G17G02S20G12G06
 -13648602.437 7  20720571.648          42.000       -2198.022
    682569.511 6  22528953.644          38.000       -2889.520
  10332405.871 6  24776413.133          37.000       -3113.999
  10524837.876 6  24685408.991          41.000       -4325.897
  -8291655.573 7  21891071.108          45.000        2034.009
  -5813633.326 8  22314859.994          49.000        1330.189
   5616417.504 6  24485047.127          40.000       -3540.514
   -864410.580 6  24958003.868          37.000        2043.488
 111876405.913 6  38572848.861          39.000        -527.584
 -14931715.691 8  19938007.297          48.000        -178.170
   -268247.698 5  24294680.590          35.000        1457.014
 16  9 14  3 48  0.0000000  0 10G24G19G10G15G25G32G17G02S20G12
 -13515923.232 6  20745815.691          40.000       -2223.383
    857020.973 6  22562150.851          40.000       -2925.359
  10519791.332 6  24812071.955          37.000       -3130.337
  10784448.771 6  24734809.929          41.000       -4327.855
  -8413085.019 7  21867964.297          46.000        2013.545
  -5892399.856 8  22299873.188          49.000        1295.727
   5829409.840 6  24525578.660          39.000       -3558.958
   -986812.389 6  24934716.779          37.000        2037.368
 111908049.136 6  38578869.517          39.000        -526.405
 -14920079.633 8  19940220.997          48.000        -209.360
 16  9 14  3 49  0.0000000  0 11G24G19G10G15G25G32G17G02S20G12G06
 -13381660.389 6  20771367.434          41.000       -2250.888
   1033616.459 6  22595754.735          40.000       -2960.723
  10708205.714 5  24847927.040          34.000       -3148.278
  11044190.855 6  24784238.125          41.000       -4329.386
  -8533249.777 7  21845096.729          45.000        1992.746
  -5969070.359 8  22285282.049          49.000        1260.689
   6043529.298 6  24566323.994          40.000       -3577.651
  -1108813.815 6  24911499.579          36.000        2030.086
 111939738.561 6  38584899.056          39.000        -528.275
 -14906547.380 8  19942796.073          48.000        -240.970
   -440304.81115  24262035.037          32.000        1404.892
 16  9 14  3 50  0.0000000  0 11G24G19G10G15G25G32G17G02S20G12G06
 -13245882.854 7  20797206.216          42.000       -2275.692
   1212269.638 6  22629751.389          41.000       -2995.377
  10897561.66315  24883961.408          35.000       -3163.533
  11303979.930 7  24833674.539          43.000       -4330.132
  -8652208.197 7  21822461.424          45.000        1972.285
  -6043694.061 8  22271082.109          49.000        1226.250
   6258690.713 6  24607267.684          40.000       -3594.742
  -1230458.04214  24888348.689          29.000        2027.364
 111971404.739 6  38590925.471          39.000        -528.113
 -14891187.806 8  19945721.009          49.000        -271.719
   -523724.74315  24246161.865          32.000        1376.245
 16  9 14  3 51  0.0000000  0 11G24G19G10G15G25G32G17G02S20G12G06
 -13108626.446 7  20823327.010          42.000       -2300.095
   1392928.413 7  22664131.773          43.000       -3028.020
  11087798.307 5  24920166.683          34.000       -3178.655
  11563767.396 7  24883109.680          44.000       -4329.752
  -8769984.872 7  21800048.608          46.000        1953.200
  -6116286.522 8  22257267.679          48.000        1192.970
   6474843.655 6  24648401.232          39.000       -3611.276
  -1351747.16313  24865256.938          22.000        2018.697
 112003019.724 6  38596941.608          39.000        -526.202
 -14874037.417 7  19948981.530          47.000        -300.998
   -605608.76515  24230582.886          31.000        1353.774
 16  9 14  3 52  0.0000000  0 10G24G19G10G15G25G32G17G02S20G12
 -12969927.153 6  20849718.318          41.000       -2323.590
   1575539.086 7  22698882.015          44.000       -3059.659
  11278802.31115  24956522.571          35.000       -3192.352
  11823501.904 7  24932534.089          44.000       -4328.188
  -8886605.327 7  21777857.184          46.000        1934.086
  -6186864.394 7  22243836.054          47.000        1159.464
   6691935.862 6  24689713.192          39.000       -3626.309
  -1472743.40015  24842253.712          31.000        2011.840
 112034547.369 6  38602940.958          39.000        -524.395
 -14855131.219 7  19952578.403          46.000        -329.373
 16  9 14  3 53  0.0000000  0 12G24G19G10G15G25G32G17G02S20G14G12G06
 -12829664.406 6  20876406.786          41.000       -2351.087
   1760205.539 7  22734020.087          44.000       -3094.894
  11470791.995 6  24993057.010          37.000       -3208.084
  12083290.264 7  24981972.126          43.000       -4330.751
  -9001937.691 7  21755911.424          45.000        1910.480
  -6255287.105 7  22230816.464          47.000        1121.381
   6910073.406 6  24731226.091          39.000       -3644.827
  -1593222.28515  24819324.998          34.000        2003.033
 112066121.588 6  38608948.562          39.000        -526.640
   -153102.16315  24478619.513          34.000        2552.686
 -14834349.753 8  19956535.362          48.000        -363.027
   -764991.58714  24200306.671          29.000        1296.782
 16  9 14  3 54  0.0000000  0 12G24G19G10G15G25G32G17G02S20G14G12G06
 -12687759.690 7  20903414.732          43.000       -2377.577
   1946989.100 7  22769562.638          43.000       -3129.994
  11663755.44315  25029788.462          31.000       -3223.854
  12343197.170 6  25031430.929          41.000       -4331.268
  -9115892.497 7  21734224.729          45.000        1888.282
  -6321456.665 7  22218224.510          47.000        1084.675
   7129319.092 5  24772940.836          35.000       -3662.598
  -1713115.00115  24796505.227          31.000        1994.897
 112097831.137 6  38614982.778          38.000        -528.086
   -305714.732 6  24449583.555          36.000        2535.318
 -14811614.411 8  19960861.516          48.000        -394.668
   -841904.00814  24185668.783          28.000        1265.439
 16  9 14  3 55  0.0000000  0 12G24G19G10G15G25G32G17G02S20G14G12G06
 -12544467.158 6  20930677.400          40.000       -2398.917
   2135618.377 7  22805458.364          44.000       -3158.890
  11857442.210 6  25066637.913          36.000       -3233.528
  12602955.052 6  25080862.527          41.000       -4328.025
  -9228712.731 7  21712756.232          45.000        1871.173
  -6385607.732 8  22206017.419          48.000        1052.587
   7349404.450 6  24814827.501          36.000       -3674.114
  -1832648.13416  24773758.222          39.000        1988.738
 112129419.869 6  38620993.750          39.000        -525.633
   -457436.222 6  24420710.163          37.000        2521.869
 -14787179.021 7  19965510.009          46.000        -421.326
   -917271.20816  24171336.727          36.000        1242.744
 16  9 14  3 56  0.0000000  0 12G24G19G10G15G25G32G17G02S20G14G12G06
 -12399800.343 7  20958211.697          42.000       -2422.235
   2326062.785 7  22841699.727          45.000       -3189.142
  12051807.388 5  25103623.562          33.000       -3246.375
  12862536.522 6  25130260.150          41.000       -4325.253
  -9340401.027 7  21691500.890          45.000        1852.068
  -6447734.812 8  22194194.094          48.000        1018.432
   7570300.836 5  24856858.270          35.000       -3688.350
  -1951809.047 6  24751085.782          39.000        1982.272
 112160885.903 6  38626982.560          39.000        -523.077
   -608255.526 6  24392011.186          38.000        2506.437
 -14761057.667 7  19970479.901          46.000        -449.454
   -991081.326 5  24157292.844          34.000        1216.184
 16  9 14  3 57  0.0000000  0 11G24G19G10G15G25G32G17G02S20G14G06
 -12253715.544 6  20986006.194          41.000       -2447.066
   2518348.907 7  22878290.600          45.000       -3220.228
  12246859.71416  25140745.777          38.000       -3256.817
  13121971.838 6  25179630.725          41.000       -4323.532
  -9450902.502 7  21670474.774          45.000        1831.241
  -6507774.870 8  22182771.705          49.000         982.842
   7792037.058 6  24899058.900          37.000       -3702.352
  -2070528.300 6  24728494.015          40.000        1974.481
 112192267.581 6  38632953.431          39.000        -522.297
   -758103.993 6  24363493.028          36.000        2489.328
  -1063274.16115  24143543.835          31.000        1189.097
 16  9 14  3 58  0.0000000  0 10G24G19G10G25G32G17G02S20G14G12
 -12106135.875 7  21014092.930          42.000       -2471.769
   2712536.509 7  22915244.874          45.000       -3251.376
  12442686.54115  25178009.321          31.000       -3270.321
  -9560128.526 7  21649690.203          46.000        1810.175
  -6565631.429 8  22171761.001          49.000         946.703
   8014676.642 5  24941424.155          34.000       -3718.130
  -2188701.491 7  24706000.649          42.000        1964.778
 112223640.848 6  38638922.819          38.000        -522.896
   -906879.180 6  24335185.791          36.000        2470.888
     29714.00717  19981424.399          46.000        -509.055
 16  9 14  3 59  0.0000000  0 12G24G19G10G15G25G32G17G02S20G14G12G06
 -11957116.012 7  21042453.426          43.000       -2494.852
   2908553.211 7  22952544.400          43.000       -3281.231
  12639087.73415  25215402.328          35.000       -3281.114
    258742.38916  25278311.881          40.000       -4319.317
  -9668122.921 7  21629136.953          44.000        1790.022
  -6621340.779 8  22161161.059          50.000         910.878
   8238149.96516  24983950.771          36.000       -3730.066
  -2306357.498 7  24683610.676          43.000        1956.889
 112254966.126 6  38644883.743          38.000        -520.839
  -1054611.268 5  24307074.939          35.000        2454.453
     61124.006 7  19987398.708          44.000        -537.499
    -68639.68414  24117044.074          25.000        1131.824
 16  9 14  4  1  0.0000000  0 12G24G19G10G15G25G32G17G02S20G14G12G06
 -11654763.178 6  21099983.269          39.000       -2546.008
   3305998.197 6  23028175.371          41.000       -3345.014
  13034082.10914  25290566.872          27.000       -3305.225
    776644.405 6  25376864.725          38.000       -4316.039
  -9880379.395 7  21588745.231          43.000        1744.491
  -6726250.819 8  22141195.566          48.000         834.843
   8687533.97115  25069461.724          31.000       -3760.872
  -2540018.079 7  24639152.826          43.000        1934.712
 112317499.224 6  38656783.361          37.000        -523.262
  -1346851.46015  24251463.607          33.000        2412.750
    129189.888 7  20000353.889          45.000        -599.267
   -200978.14415  24091907.576          31.000        1071.615
 16  9 14  4  2  0.0000000  0 11G24G19G10G15G25G32G17G02S20G12G06
 -11501098.211 7  21129227.809          43.000       -2574.084
   3507723.496 7  23066563.739          43.000       -3377.499
  13232595.06715  25328393.029          32.000       -3317.236
   1035649.201 6  25426151.696          37.000       -4316.362
  -9984286.941 7  21568976.071          46.000        1720.615
  -6775082.728 8  22131902.052          49.000         795.011
   8913747.70115  25112511.952          32.000       -3777.545
  -2655637.486 7  24617153.703          44.000        1921.278
 112349048.452 6  38662789.167          38.000        -525.199
    166177.983 7  20007393.097          47.000        -631.329
   -264176.23915  24079843.770          31.000        1037.324
 16  9 14  4  3  0.0000000  0 11G24G19G15G25G32G17G02S20G14G12G06
 -11345926.163 6  21158753.979          41.000       -2597.433
   3711275.825 7  23105300.291          43.000       -3406.898
   1294521.596 6  25475412.422          37.000       -4311.609
 -10086850.820 7  21549457.915          46.000        1698.364
  -6821626.905 8  22123045.455          49.000         757.229
   9140805.85914  25155709.670          27.000       -3790.137
  -2770564.974 7  24595284.358          43.000        1910.081
 112380634.584 6  38668798.987          38.000        -525.947
  -1633793.92215  24196832.385          31.000        2372.293
    204983.059 7  20014775.586          45.000        -661.093
   -325513.012 5  24068180.498          35.000        1006.650
 16  9 14  4  4  0.0000000  0 11G24G19G15G25G32G17G02S20G14G12G06
 -11189418.483 7  21188541.187          43.000       -2620.209
   3916466.373 7  23144344.682          42.000       -3433.122
   1553077.941 6  25524613.520          37.000       -4306.285
 -10188231.068 7  21530165.984          46.000        1679.845
  -6866036.738 8  22114594.036          48.000         722.556
   9368524.49214  25199055.522          29.000       -3800.271
  -2884944.892 6  24573517.863          41.000        1901.794
 112412084.667 6  38674782.877          38.000        -521.561
  -1775641.21215  24169842.029          32.000        2356.036
    245434.364 8  20022476.141          48.000        -687.742
   -385134.53915  24056825.763          33.000         979.771
 16  9 14  4  5  0.0000000  0 10G24G19G15G25G32G17G02S20G14G12
 -11031436.771 6  21218599.047          40.000       -2645.623
   4123415.817 7  23183725.024          42.000       -3464.258
   1811445.178 6  25573779.072          36.000       -4305.216
 -10288277.597 7  21511126.714          47.000        1656.023
  -6908155.827 8  22106580.582          48.000         682.325
   9597027.37714  25242534.240          29.000       -3812.633
  -2998612.079 6  24551884.706          38.000        1887.215
 112443555.090 6  38680771.931          39.000        -524.403
  -1916257.76215  24143082.800          31.000        2332.095
    287669.775 8  20030515.683          49.000        -719.165
 16  9 14  4  6  0.0000000  0 11G24G19G15G25G32G17G02S20G14G12G06
 -10872117.379 7  21248918.608          43.000       -2664.904
   4331970.673 7  23223410.292          42.000       -3488.665
   2069475.015 5  25622878.296          35.000       -4296.066
 -10387115.920 8  21492319.672          48.000        1638.488
  -6948103.413 8  22098979.005          48.000         648.580
   9826164.71214  25286141.863          28.000       -3822.179
  -3111675.824 5  24530366.337          35.000        1879.434
 112474919.173 6  38686741.214          38.000        -520.254
  -2055754.66215  24116535.208          30.000        2316.216
    331552.577 7  20038860.342          45.000        -744.228
    -55882.51616  24035185.556          37.000         919.426
 16  9 14  4  7  0.0000000  0 11G24G19G15G25G32G17G02S20G14G12G06
 -10711491.601 7  21279485.265          44.000       -2688.893
   4542082.721 7  23263394.744          43.000       -3515.634
   2327124.832 5  25671904.229          35.000       -4291.770
 -10484765.395 7  21473735.923          47.000        1616.539
  -6985893.134 8  22091788.137          48.000         610.322
  10055893.08415  25329863.314          31.000       -3837.316
  -3224139.093 5  24508961.725          32.000        1868.702
 112506146.547 6  38692683.624          38.000        -519.890
  -2194136.61815  24090205.831          33.000        2296.277
    377050.901 7  20047522.299          47.000        -772.848
   -110109.127 6  24024866.405          38.000         888.832
 16  9 14  4  8  0.0000000  0 12G24G19G10G15G25G32G02S20G14G12G29G06
 -10549433.678 7  21310322.417          42.000       -2712.625
   4753860.330 7  23303694.957          43.000       -3543.061
  14435464.08914  25557560.351          27.000       -3368.561
   2584509.276 5  25720877.009          33.000       -4288.588
 -10581088.738 7  21455406.529          47.000        1594.571
  -7021381.878 8  22085035.251          48.000         572.005
  -3335849.45615  24487699.630          32.000        1855.128
 112537374.346 6  38698627.186          38.000        -520.345
  -2331251.669 5  24064118.227          35.000        2274.551
    424290.538 7  20056510.068          46.000        -801.731
   -199277.29615  24200688.168          35.000        3324.667
   -162430.450 6  24014907.060          37.000         855.803
 16  9 14  4  9  0.0000000  0 12G24G19G15G25G32G17G02S20G14G12G29G06
 -10385998.596 7  21341424.865          43.000       -2734.748
   4967230.752 7  23344298.246          44.000       -3568.989
   2841562.416 5  25769789.655          33.000       -4279.442
 -10676129.829 8  21437320.652          48.000        1574.282
  -7054608.138 8  22078711.188          48.000         535.537
  10517019.95914  25417689.108          28.000       -3855.971
  -3446834.11215  24466581.865          33.000        1844.484
 112568544.380 6  38704558.043          38.000        -518.088
  -2467129.479 5  24038260.285          35.000        2256.574
    473216.010 7  20065821.679          46.000        -828.687
   -398669.074 5  24162744.362          35.000        3321.417
   -212878.749 7  24005314.570          42.000         825.418
 16  9 14  4 10  0.0000000  0 12G24G19G15G25G32G17G02S20G14G12G29G06
 -10221231.043 7  21372776.014          42.000       -2757.470
   5182133.299 7  23385192.936          45.000       -3594.892
   3098229.82915  25818634.664          33.000       -4273.545
 -10769920.738 7  21419471.487          47.000        1552.067
  -7085598.879 8  22072812.648          48.000         497.103
  10748666.58914  25461767.364          28.000       -3865.201
  -3557109.623 5  24445591.085          31.000        1831.209
 112599613.640 6  38710470.299          38.000        -517.361
  -2601787.271 5  24012634.361          33.000        2233.251
    523782.539 7  20075442.368          45.000        -857.107
   -597789.005 6  24124857.880          37.000        3314.871
   -261474.568 6  23996054.752          36.000         793.432
 16  9 14  4 11  0.0000000  0 12G24G19G10G15G25G32G02S20G14G12G29G06
 -10055104.270 7  21404389.700          42.000       -2780.088
   5398577.193 7  23426382.063          46.000       -3620.558
  15042889.46112  25673284.664          16.000       -3396.469
   3354526.585 5  25867408.163          35.000       -4268.003
 -10862423.986 8  21401871.355          48.000        1530.545
  -7114311.555 8  22067348.409          48.000         459.219
  -3666622.26815  24424763.744          34.000        1817.680
 112630624.435 6  38716371.422          38.000        -516.999
  -2735172.62014  23987243.439          29.000        2211.183
    576017.359 7  20085382.535          45.000        -884.407
   -796584.167 6  24087031.497          39.000        3310.213
   -308168.864 7  23987178.542          42.000         762.281
 16  9 14  4 12  0.0000000  0 12G24G19G10G15G25G32G02S20G14G12G29G06
  -9887552.174 7  21436275.838          44.000       -2803.544
   5616611.186 7  23467872.643          47.000       -3646.264
  15246420.48912  25712012.874          16.000       -3402.370
   3610509.82315  25916122.539          33.000       -4261.754
 -10953561.305 7  21384526.816          47.000        1508.581
  -7140663.343 8  22062335.729          49.000         420.099
  -3775277.538 6  24404088.325          40.000        1804.531
 112661656.043 6  38722278.495          38.000        -516.949
  -2867193.45415  23962125.281          34.000        2188.639
    629985.357 7  20095654.274          46.000        -912.930
   -994962.174 6  24049283.448          40.000        3303.712
   -352872.467 6  23978670.339          41.000         729.563
 16  9 14  4 13  0.0000000  0 13G24G19G10G15G25G32G17G02S20G14G12G29
                                G06
  -9718549.142 7  21468432.680          43.000       -2828.997
   5836243.834 7  23509666.909          46.000       -3673.543
  15450353.94314  25750813.241          24.000       -3400.598
   3866193.142 5  25964777.655          34.000       -4259.864
 -11043296.133 8  21367451.760          48.000        1483.875
  -7164613.270 8  22057778.378          49.000         379.293
  11446046.51014  25594723.068          24.000       -3898.515
  -3883023.041 6  24383585.296          41.000        1788.200
 112692732.918 6  38728191.205          38.000        -518.819
  -2997797.158 5  23937271.233          33.000        2165.951
    685711.519 7  20106253.868          44.000        -943.843
  -1192871.443 6  24011620.433          39.000        3294.724
   -395537.729 7  23970551.939          42.000         694.204
 16  9 14  4 14  0.0000000  0 12G24G19G10G15G25G32G02S20G14G12G29G06
  -9548159.875 7  21500859.739          44.000       -2851.224
   6057394.224 7  23551750.012          46.000       -3698.855
  15654683.56913  25789674.370          21.000       -3408.312
   4121505.01415  26013361.260          30.000       -4252.078
 -11131680.401 8  21350633.624          48.000        1461.218
  -7186209.102 8  22053668.171          49.000         339.619
  -3989894.549 6  24363247.172          41.000        1773.042
 112723805.229 6  38734104.700          38.000        -518.495
  -3127021.35415  23912681.259          33.000        2142.977
    743131.903 7  20117180.863          44.000        -971.925
  -1390349.627 6  23974040.482          37.000        3287.670
   -436205.997 6  23962813.082          41.000         660.778
 16  9 14  4 15  0.0000000  0 11G24G19G15G25G32G02S20G14G12G29G06
  -9376409.421 7  21533542.392          44.000       -2873.862
   6280020.309 7  23594113.975          46.000       -3722.380
   4376409.22114  26061866.374          29.000       -4244.029
 -11218727.825 8  21334068.447          48.000        1440.124
  -7205460.670 8  22050004.358          48.000         301.702
  -4095889.513 6  24343079.240          40.000        1759.909
 112754844.052 6  38740010.517          38.000        -516.713
  -3254864.40515  23888353.125          35.000        2118.893
    802221.111 7  20128428.279          46.000        -998.537
  -1587394.886 6  23936542.337          36.000        3283.048
   -474880.371 6  23955453.679          40.000         628.656
 16  9 14  4 16  0.0000000  0 12G24G19G15G25G32G17G02S20G14G12G29G06
  -9203352.732 7  21566475.193          44.000       -2894.426
   6504049.964 7  23636744.438          46.000       -3745.066
   4630842.41814  26110281.916          27.000       -4235.763
 -11304481.785 8  21317749.282          48.000        1419.012
  -7222407.785 8  22046780.518          50.000         263.803
  12148881.14813  25728662.441          23.000       -3920.693
  -4201035.213 6  24323072.077          40.000        1745.955
 112785796.344 6  38745900.052          38.000        -514.780
  -3381355.913 5  23864280.776          33.000        2097.479
    862923.822 7  20139978.421          45.000       -1024.240
  -1784034.98715  23899121.009          35.000        3275.810
   -511593.976 6  23948466.699          41.000         596.413
 16  9 14  4 17  0.0000000  0 11G24G19G15G25G32G02S20G14G12G29G06
  -9028995.385 7  21599652.123          43.000       -2917.161
   6729461.392 7  23679641.052          46.000       -3768.516
   4884776.33813  26158606.978          21.000       -4225.777
 -11388935.765 7  21301676.794          47.000        1396.607
  -7237040.576 8  22043995.620          49.000         224.623
  -4305308.489 6  24303231.877          37.000        1730.308
 112816672.852 6  38751776.657          38.000        -514.625
  -3506473.678 6  23840476.882          36.000        2072.695
    925234.514 7  20151836.716          45.000       -1052.158
  -1980250.096 6  23861785.430          36.000        3266.434
   -546330.213 7  23941857.639          42.000         562.519
 16  9 14  4 18  0.0000000  0 11G24G19G15G25G32G02S20G14G12G29G06
  -8853224.529 7  21633101.119          44.000       -2941.484
   6956351.090 7  23722815.089          45.000       -3794.181
   5138300.83612  26206854.859          16.000       -4220.085
 -11471965.090 8  21285878.501          48.000        1371.977
  -7249231.396 8  22041676.416          49.000         182.627
  -4408568.927 6  24283580.890          38.000        1712.561
 112847600.562 6  38757662.947          38.000        -516.153
  -3630078.180 6  23816953.849          37.000        2046.482
    989265.369 7  20164021.435          46.000       -1081.515
  -2175899.015 6  23824555.757          37.000        3255.364
   -578954.630 6  23935646.496          40.000         525.474
 16  9 14  4 19  0.0000000  0  9G24G19G25G32G02S20G14G29G06
  -8676079.312 7  21666812.322          46.000       -2963.064
   7184662.881 7  23766261.420          45.000       -3815.834
 -11553597.136 8  21270345.399          48.000        1350.250
  -7259004.793 8  22039817.863          49.000         144.031
  -4510827.264 7  24264116.725          42.000        1696.728
 112878541.147 6  38763551.698          39.000        -515.734
  -3752182.186 5  23793716.266          35.000        2023.192
  -2370993.624 6  23787426.213          37.000        3246.854
   -609484.935 6  23929838.976          40.000         492.400
 16  9 14  4 20  0.0010000  0 10G24G19G25G32G02S20G14G12G29G06
  -8497637.787 7  21700766.066          45.000       -2984.469
   7414303.645 7  23809960.028          44.000       -3838.149
 -11633902.022 8  21255063.929          49.000        1327.266
  -7266427.190 8  22038402.755          48.000         104.112
  -4612137.784 7  24244837.219          43.000        1680.885
 112909428.040 6  38769429.507          39.000        -514.703
  -3872841.419 6  23770758.394          38.000        1998.013
     67196.79817  20189333.936          45.000       -1135.063
  -2565591.137 6  23750392.855          36.000        3238.496
   -637981.119 6  23924416.356          41.000         457.739
 16  9 14  4 21  0.0010000  0 10G24G19G25G32G02S20G14G12G29G06
  -8317906.582 7  21734970.796          47.000       -3007.034
   7645248.211 7  23853907.948          44.000       -3860.537
 -11712866.222 8  21240037.704          49.000        1304.274
  -7271485.418 8  22037439.922          48.000          63.832
  -4712470.325 7  24225743.749          43.000        1663.510
 112940256.626 6  38775295.485          39.000        -514.493
  -3992026.360 6  23748078.625          38.000        1973.586
    136108.143 7  20202447.687          45.000       -1162.175
  -2759658.701 6  23713462.558          36.000        3228.387
   -664422.158 6  23919384.533          41.000         422.809
 16  9 14  4 22  0.0010000  0 10G24G19G25G32G02S20G14G12G29G06
  -8136820.600 7  21769428.013          45.000       -3029.103
   7877547.108 7  23898112.386          44.000       -3882.232
 -11790416.609 8  21225278.798          49.000        1281.394
  -7274103.159 8  22036942.190          48.000          23.690
  -4811736.086 6  24206856.925          40.000        1646.100
 112971091.911 6  38781162.527          39.000        -513.701
  -4109649.583 6  23725695.981          39.000        1948.489
    206681.341 7  20215878.614          46.000       -1189.017
  -2953109.044 6  23676655.948          38.000        3220.830
   -688725.310 6  23914759.806          40.000         387.903
 16  9 14  4 23  0.0010000  0 10G24G19G25G32G02S20G14G12G29G06
  -7954435.638 7  21804135.223          45.000       -3050.497
   8111127.942 7  23942561.458          44.000       -3903.355
 -11866597.339 8  21210782.641          49.000        1258.209
  -7274323.065 8  22036900.641          48.000         -16.555
  -4909962.324 5  24188181.824          32.000        1628.551
 113001891.150 6  38787025.155          39.000        -513.195
  -4225739.931 6  23703605.820          41.000        1922.503
    278859.721 7  20229610.173          44.000       -1216.253
  -3145971.649 6  23639954.999          38.000        3208.990
   -710926.075 6  23910534.219          41.000         352.805
 16  9 14  4 24  0.0010000  0 10G24G19G25G32G02S20G14G12G29G06
  -7770717.158 7  21839099.316          47.000       -3072.872
   8346009.615 7  23987258.254          44.000       -3925.160
 -11941361.500 7  21196553.210          47.000        1234.631
  -7272096.948 7  22037323.599          47.000         -57.374
  -5007086.32316  24169680.091          40.000        1609.289
 113032692.785 6  38792883.821          39.000        -512.980
  -4340236.099 6  23681817.321          41.000        1894.683
    352678.879 7  20243658.418          44.000       -1244.231
  -3338182.794 6  23603374.840          37.000        3198.845
   -730969.173 6  23906720.893          40.000         316.737
 16  9 14  4 25  0.0010000  0 10G24G19G25G32G02S20G14G12G29G06
  -7585733.273 7  21874299.564          47.000       -3092.354
   8582108.172 7  24032187.539          43.000       -3944.366
 -12014764.973 8  21182588.045          49.000        1212.617
  -7267479.739 7  22038202.113          47.000         -96.581
  -5103147.396 7  24151395.648          42.000        1592.615
 113063447.245 6  38798739.085          39.000        -512.197
  -4453178.798 7  23660326.401          42.000        1870.354
    428070.213 7  20258007.191          45.000       -1269.295
  -3529783.621 6  23566919.817          40.000        3188.993
   -748902.464 6  23903308.066          39.000         281.416
 16  9 14  4 26  0.0010000  0 10G24G19G25G32G02S20G14G12G29G06
  -7399403.310 7  21909754.306          46.000       -3117.404
   8819488.791 7  24077359.470          43.000       -3966.940
 -12086715.266 8  21168894.964          49.000        1186.461
  -7260378.307 7  22039551.189          46.000        -139.854
  -5198037.046 6  24133334.585          39.000        1571.606
 113094247.748 6  38804599.932          39.000        -514.267
  -4564461.410 7  23639150.649          42.000        1839.989
    505114.435 7  20272670.225          46.000       -1298.373
  -3720665.222 6  23530595.566          41.000        3174.788
   -764625.601 6  23900312.684          38.000         243.304
 16  9 14  4 27  0.0010000  0 10G24G19G25G32G02S20G14G12G29G06
  -7211766.634 7  21945460.906          46.000       -3138.114
   9058096.431 7  24122765.477          42.000       -3986.237
 -12157239.563 8  21155474.193          48.000        1163.975
  -7250819.497 7  22041372.381          47.000        -179.813
  -5291766.34214  24115539.290          24.000        1553.412
 113125053.801 6  38810460.850          39.000        -513.168
  -4674095.588 6  23618284.830          41.000        1813.314
    583772.321 7  20287634.119          44.000       -1323.947
  -3910839.436 6  23494407.776          41.000        3163.446
   -778158.229 6  23897740.103          40.000         207.363
 16  9 14  4 28  0.0010000  0 10G24G19G25G32G02S20G14G12G29G06
  -7022888.906 7  21981402.736          45.000       -3158.225
   9297849.425 6  24168386.873          41.000       -4005.302
 -12226391.584 8  21142316.013          49.000        1140.843
  -7238857.006 7  22043650.437          47.000        -219.372
  -5384374.09417  24097882.461          42.000        1533.830
 113155800.953 6  38816310.582          39.000        -512.446
  -4782121.031 6  23597730.219          41.000        1786.569
    663978.615 7  20302899.028          45.000       -1349.542
  -4100343.824 7  23458348.088          42.000        3153.291
   -789546.857 6  23895572.629          39.000         171.165
 16  9 14  4 29  0.0010000  0 10G24G19G25G32G02S20G14G12G29G06
  -6832775.680 7  22017579.463          45.000       -3179.107
   9538727.697 6  24214224.459          41.000       -4024.221
 -12294164.669 8  21129418.907          49.000        1117.567
  -7224484.383 7  22046383.630          46.000        -259.833
  -5475835.557 7  24080475.433          46.000        1514.224
 113186499.618 6  38822153.752          39.000        -511.960
  -4888516.134 6  23577482.713          41.000        1759.065
    745727.460 7  20318455.095          45.000       -1376.092
  -4289155.283 6  23422416.344          41.000        3141.053
   -798777.625 6  23893818.952          40.000         136.129
 16  9 14  4 30  0.0010000  0 10G24G19G25G32G02S20G14G12G29G06
  -6641363.081 7  22054004.402          46.000       -3201.033
   9780780.142 6  24260283.820          40.000       -4043.155
 -12360482.179 8  21116797.426          48.000        1092.982
  -7207625.714 7  22049592.725          46.000        -301.854
  -5566058.907 7  24063305.518          43.000        1493.260
 113217216.767 6  38827998.266          39.000        -511.870
  -4993189.319 6  23557562.173          41.000        1730.276
    829083.970 7  20334316.924          44.000       -1402.571
  -4477182.027 6  23386634.969          40.000        3127.623
   -805767.448 6  23892488.512          41.000          98.341
 16  9 14  4 31  0.0000000  0 10G24G19G25G32G02S20G14G12G29G06
  -6448691.950 7  21790877.245          46.000       -3221.882
  10023950.379 6  24006768.959          41.000       -4062.801
 -12425373.341 8  20804658.314          49.000        1068.733
  -7188311.128 8  21753478.375          49.000        -343.000
  -5655056.66314  23746542.587          29.000        1475.247
 113247929.085 6  38534048.999          39.000        -512.806
  -5096155.254 7  23238176.945          43.000        1701.541
    914006.733 7  20050685.744          45.000       -1428.916
  -4664436.334 6  23051205.889          39.000        3114.072
   -810538.925 6  23591785.645          41.000          60.260
 16  9 14  4 32  0.0000000  0 10G24G19G25G32G02S20G14G12G29G06
  -6254749.973 7  21827783.932          46.000       -3242.171
  10268236.408 7  24053258.206          42.000       -4080.507
 -12488813.116 8  20792587.108          49.000        1045.516
  -7166516.845 8  21757622.871          48.000        -383.447
  -5742789.54917  23729879.513          42.000        1452.038
 113278665.551 6  38539899.324          39.000        -511.743
  -5197375.176 7  23218913.423          42.000        1673.360
   1000509.218 7  20067144.562          44.000       -1454.701
  -4850877.537 5  23015720.400          35.000        3100.239
   -813060.913 6  23591304.333          38.000          23.353
 16  9 14  4 33  0.0000000  0 10G24G19G25G32G02S20G14G12G29G06
  -6059497.190 7  21864936.720          45.000       -3265.306
  10513663.353 6  24099958.182          41.000       -4100.101
 -12550749.466 8  20780799.189          48.000        1019.297
  -7142192.434 7  21762252.292          47.000        -426.691
  -5829188.389 7  23713439.419          44.000        1428.600
 113309462.543 6  38545759.265          39.000        -514.010
  -5296782.186 7  23200000.074          42.000        1642.022
   1088631.140 7  20083912.826          43.000       -1482.288
  -5036437.568 6  22980417.493          39.000        3084.812
   -813275.507 6  23591262.662          39.000         -16.865
 16  9 14  4 34  0.0000000  0 10G24G19G25G32G02S20G14G12G29G06
  -5863066.377 7  21902319.030          46.000       -3284.107
  10760084.270 6  24146852.048          40.000       -4115.397
 -12611302.416 8  20769276.270          49.000         997.382
  -7115459.806 8  21767340.531          48.000        -466.226
  -5914357.619 7  23697231.133          43.000        1408.986
 113340192.403 6  38551606.868          39.000        -512.095
  -5394482.054 7  23181407.792          42.000        1614.041
   1178241.310 7  20100966.190          44.000       -1506.315
  -5221219.797 6  22945257.817          41.000        3072.525
   -811297.226 6  23591644.473          41.000         -52.278
 16  9 14  4 35  0.0000000  0 10G24G19G25G32G02S20G14G12G29G06
  -5665400.817 7  21939934.632          46.000       -3304.893
  11007540.841 6  24193944.619          40.000       -4132.495
 -12670403.663 8  20758030.372          48.000         973.174
  -7086252.914 8  21772897.431          48.000        -507.088
  -5998213.120 5  23681261.217          35.000        1385.180
 113370925.273 6  38557455.657          39.000        -511.534
  -5490392.125 6  23163157.849          41.000        1582.999
   1269395.470 7  20118312.684          44.000       -1531.770
  -5405140.257 7  22910260.044          42.000        3058.023
   -807052.523 6  23592450.149          41.000         -89.087
 16  9 14  4 36  0.0000000  0 10G24G19G25G32G02S20G14G12G29G06
  -5466534.311 7  21977775.691          44.000       -3324.383
  11255985.439 6  24241221.865          40.000       -4148.852
 -12728074.371 8  20747056.558          48.000         949.337
  -7054595.483 8  21778922.537          48.000        -547.990
  -6080759.81116  23665558.377          38.000        1365.167
 113401633.885 6  38563298.775          39.000        -511.538
  -5584519.728 6  23145244.397          40.000        1553.610
   1362061.183 7  20135943.232          42.000       -1556.915
  -5588203.200 6  22875422.447          41.000        3043.649
   -800557.495 5  23593676.568          35.000        -126.593
 16  9 14  4 37  0.0000000  0 10G24G19G25G32G02S20G14G12G29G06
  -5266493.090 7  22015840.531          44.000       -3344.323
  11505377.536 6  24288676.755          40.000       -4165.634
 -12784328.305 8  20736351.147          48.000         924.954
  -7020504.174 8  21785408.312          48.000        -589.538
  -6161997.056 7  23650103.801          44.000        1342.224
 113432308.462 6  38569136.065          40.000        -511.022
  -5676864.113 7  23127674.244          42.000        1524.026
   1456212.992 7  20153863.716          45.000       -1582.250
  -5770406.292 6  22840746.701          41.000        3029.255
   -791821.243 6  23595348.595          40.000        -165.414
 16  9 14  4 38  0.0000000  0 10G24G19G25G32G02S20G14G12G29G06
  -5065123.164 7  22054164.019          46.000       -3366.852
  11755858.027 6  24336341.362          40.000       -4182.216
 -12838998.439 8  20725947.588          49.000         898.131
  -6983815.342 8  21792390.301          48.000        -632.772
  -6241741.175 7  23634926.213          42.000        1317.021
 113463119.651 6  38574999.076          39.000        -513.933
  -5767244.510 6  23110474.402          41.000        1489.688
   1552005.984 7  20172089.910          42.000       -1610.273
  -5951565.883 7  22806279.886          42.000        3011.157
   -780672.535 6  23597471.327          40.000        -205.540
 16  9 14  4 39  0.0000000  0 10G24G19G25G32G02S20G14G12G29G06
  -4862595.911 7  22092700.242          45.000       -3385.779
  12007240.884 6  24384177.679          39.000       -4197.527
 -12892244.946 8  20715814.579          48.000         875.334
  -6944692.617 8  21799835.855          49.000        -672.663
  -6320137.372 6  23619992.648          37.000        1295.198
 113493899.103 6  38580854.951          39.000        -512.178
  -5855806.847 7  23093622.552          42.000        1460.092
   1649268.682 7  20190602.706          45.000       -1633.382
  -6131826.682 7  22771976.632          43.000        2996.536
   -767267.356 6  23600020.978          39.000        -241.843
 16  9 14  4 40  0.0000000  0 10G24G19G25G32G02S20G14G12G29G06
  -4658901.793 7  22131460.701          43.000       -3404.238
  12259522.994 6  24432188.026          40.000       -4212.764
 -12944044.863 8  20705957.369          48.000         851.615
  -6903117.021 8  21807746.964          48.000        -712.979
  -6397146.774 7  23605351.706          42.000        1271.985
 113524672.075 6  38586712.744          40.000        -512.598
  -5942514.927 7  23077123.180          43.000        1429.818
   1748011.892 7  20209390.134          44.000       -1658.188
  -6311148.686 7  22737852.766          43.000        2981.187
   -751579.104 6  23603008.473          39.000        -280.817
 16  9 14  4 41  0.0000000  0 10G24G19G25G32G02S20G14G12G29G06
  -4453989.013 7  22170456.144          43.000       -3424.933
  12512741.982 6  24480372.667          38.000       -4227.163
 -12994334.408 8  20696386.867          48.000         825.617
  -6859028.900 8  21816137.779          50.000        -755.846
  -6472690.415 7  23590981.207          45.000        1246.800
 113555489.884 6  38592575.354          39.000        -513.442
  -6027291.160 7  23060990.959          44.000        1397.192
   1848288.291 7  20228471.232          43.000       -1683.720
  -6489451.714 7  22703922.754          43.000        2962.983
   -733540.410 6  23606437.807          39.000        -320.317
 16  9 14  4 42  0.0000000  0 10G24G19G25G32G02S20G14G12G29G06
  -4247958.152 7  22209662.351          43.000       -3443.125
  12766784.868 6  24528714.744          37.000       -4241.590
 -13043201.572 8  20687090.456          49.000         802.287
  -6812520.998 8  21824986.994          50.000        -795.511
  -6546841.599 6  23576866.913          41.000        1223.735
 113586256.523 6  38598432.066          39.000        -512.535
  -6110210.507 7  23045209.401          43.000        1365.817
   1949998.056 7  20247826.874          44.000       -1707.581
  -6666807.672 6  22670162.202          37.000        2947.318
   -713236.293 6  23610305.334          40.000        -358.135
 16  9 14  4 43  0.0000000  0 10G24G19G25G32G02S20G14G12G29G06
  -4040770.857 7  22249089.722          43.000       -3462.936
  13021677.184 5  24577217.414          35.000       -4255.136
 -13090595.149 8  20678069.793          48.000         777.263
  -6763546.928 8  21834304.660          48.000        -837.108
  -6619533.791 5  23563017.373          35.000        1197.097
 113617030.884 6  38604287.138          39.000        -513.995
  -6191207.506 7  23029795.554          44.000        1333.696
   2053180.918 7  20267461.929          44.000       -1732.313
  -6843148.024 6  22636609.133          40.000        2930.434
   -690612.682 6  23614608.069          39.000        -396.971
 16  9 14  4 44  0.0000000  0 10G24G19G25G32G02S20G14G12G29G06
  -3832461.100 7  22288731.364          44.000       -3481.351
  13277371.701 6  24625875.061          36.000       -4268.662
 -13136536.765 7  20669326.274          47.000         753.627
  -6712133.607 8  21844089.799          49.000        -877.201
  -6690772.605 7  23549479.930          43.000        1174.995
 113647793.741 6  38610141.773          39.000        -511.955
  -6270290.675 7  23014746.748          44.000        1302.399
   2157803.906 7  20287371.894          44.000       -1756.002
  -7018478.928 7  22603249.621          43.000        2913.664
   -665688.780 6  23619352.120          40.000        -434.531
 16  9 14  4 45  0.0000000  0 10G24G19G25G32G02S20G14G12G29G06
  -3623037.603 7  22328581.222          43.000       -3500.484
  13533846.73915  24674681.697          32.000       -4283.280
 -13181023.000 8  20660861.958          48.000         728.882
  -6658283.237 8  21854337.719          50.000        -918.216
  -6760540.775 7  23536205.427          45.000        1149.764
 113678541.384 6  38615993.215          39.000        -513.092
  -6347443.983 7  23000065.147          45.000        1269.039
   2263859.113 7  20307551.989          42.000       -1780.083
  -7192780.291 7  22570082.586          44.000        2895.671
   -638458.941 7  23624536.161          42.000        -473.779
 16  9 14  4 46  0.0000000  0 10G24G19G25G32G02S20G14G12G29G06
  -3412441.499 7  22368657.427          42.000       -3519.123
  13791149.19215  24723647.898          31.000       -4294.899
 -13223982.122 8  20652686.636          48.000         704.025
  -6601930.054 8  21865061.052          49.000        -959.598
  -6828751.585 7  23523220.511          44.000        1124.491
 113709348.436 6  38621855.424          39.000        -513.219
  -6422582.704 7  22985765.741          45.000        1236.645
   2371406.827 7  20328018.477          43.000       -1803.521
  -7365963.738 6  22537121.602          41.000        2877.759
   -608849.590 6  23630165.113          40.000        -512.990
 16  9 14  4 47  0.0000000  0 10G24G19G25G32G02S20G14G12G29G06
  -3200734.386 7  22408943.035          42.000       -3538.533
  14049206.26615  24772750.193          30.000       -4307.854
 -13265462.785 8  20644793.693          48.000         678.117
  -6543128.935 8  21876250.638          50.000       -1001.175
  -6895438.460 6  23510522.581          41.000        1097.397
 113740153.881 6  38627718.365          39.000        -513.589
  -6495742.081 7  22971842.421          44.000        1202.616
   2480387.060 7  20348757.642          43.000       -1829.072
  -7538061.853 6  22504370.999          41.000        2858.430
   -576907.969 7  23636248.137          43.000        -552.402
 16  9 14  4 48  0.0000000  0  9G24G25G32G02S20G14G12G29G06
  -2987875.986 7  22449450.016          42.000       -3556.891
 -13305411.973 8  20637192.919          48.000         653.506
  -6481833.525 8  21887915.411          49.000       -1041.941
  -6960534.102 7  23498144.164          44.000        1071.838
 113771003.110 6  38633586.612          38.000        -515.128
  -6566856.896 7  22958311.069          44.000        1168.787
   2590841.685 7  20369775.801          42.000       -1853.419
  -7709004.360 6  22471842.641          41.000        2839.438
   -542579.841 6  23642776.368          40.000        -591.302
 16  9 14  4 49  0.0000000  0 10G24G19G25G32G02S20G14G12G29G06
  -2773952.306 7  22490160.274          43.000       -3574.319
  14566417.80914  24871393.185          29.000       -4330.750
 -13343903.317 8  20629867.841          48.000         628.840
  -6418124.414 8  21900039.804          50.000       -1082.005
  -7024097.648 7  23486045.614          44.000        1046.672
 113801830.560 6  38639452.887          39.000        -513.648
  -6635988.210 7  22945156.466          45.000        1135.389
   2702685.370 7  20391059.099          42.000       -1875.936
  -7878849.107 7  22439524.960          42.000        2821.214
   -505937.962 6  23649748.759          40.000        -630.586
 16  9 14  4 50  0.0000000  0 10G24G19G25G32G02S20G14G12G29G06
  -2558974.749 7  22531068.192          44.000       -3591.582
  14826601.76515  24920917.130          32.000       -4341.922
 -13380935.954 8  20622820.135          49.000         604.595
  -6352008.000 8  21912620.207          50.000       -1122.222
  -7086114.155 6  23474233.893          39.000        1020.195
 113832640.311 6  38645315.531          39.000        -514.586
  -6703123.032 7  22932379.975          46.000        1102.162
   2815908.840 7  20412604.726          42.000       -1899.553
  -8047578.963 7  22407419.107          44.000        2802.335
   -466980.985 6  23657161.106          40.000        -669.268
 16  9 14  4 51  0.0000000  0 10G24G19G25G32G02S20G14G12G29G06
  -2342886.413 7  22572186.855          43.000       -3610.146
  15087492.70115  24970565.844          30.000       -4353.749
 -13416439.907 8  20616063.707          48.000         579.790
  -6283421.937 8  21925672.307          50.000       -1162.899
  -7146498.990 7  23462754.233          44.000         993.337
 113863494.535 6  38651188.158          39.000        -513.663
  -6768178.858 7  22920001.541          46.000        1067.367
   2930570.629 6  20434423.134          41.000       -1922.453
  -8215107.228 7  22375537.821          44.000        2782.479
   -425638.573 6  23665030.055          41.000        -708.286
 16  9 14  4 52  0.0000000  0 10G24G19G25G32G02S20G14G12G29G06
  -2125750.291 7  22613506.248          43.000       -3628.206
  15349016.69814  25020314.983          24.000       -4363.306
 -13450465.170 8  20609589.100          48.000         554.587
  -6212424.200 8  21939182.842          50.000       -1203.928
  -7205287.967 7  23451568.207          46.000         966.254
 113894346.792 6  38657058.900          39.000        -514.921
  -6831194.119 7  22908008.094          45.000        1032.755
   3046609.328 7  20456505.373          42.000       -1945.600
  -8381467.823 7  22343878.903          43.000        2762.891
   -381961.032 6  23673342.309          41.000        -747.791
 16  9 14  4 53  0.0000000  0 10G24G19G25G32G02S20G14G12G29G06
  -1907541.246 7  22655030.979          44.000       -3645.362
  15611192.53514  25070196.588          25.000       -4373.630
 -13482974.748 8  20603401.742          48.000         529.799
  -6138986.064 8  21953155.824          48.000       -1243.916
  -7262430.384 7  23440689.968          44.000         938.948
 113925223.247 6  38662935.453          39.000        -515.205
  -6892119.333 7  22896415.269          45.000         998.304
   3164051.134 6  20478853.186          41.000       -1969.254
  -8546606.630 7  22312454.080          43.000        2742.497
   -335911.665 6  23682103.644          40.000        -787.438
 16  9 14  4 54  0.0000000  0 10G24G19G25G32G02S20G14G12G29G06
  -1688329.449 7  22696744.223          42.000       -3662.135
  15873928.44514  25120211.041          29.000       -4383.062
 -13514025.329 8  20597495.070          48.000         504.981
  -6063172.852 8  21967584.397          49.000       -1283.700
  -7317969.311 7  23430121.121          43.000         911.850
 113956059.538 6  38668801.745          39.000        -514.564
  -6951000.318 7  22885212.194          46.000         964.214
   3282828.727 7  20501459.943          42.000       -1991.262
  -8710564.927 7  22281257.209          46.000        2722.909
   -287548.073 6  23691307.535          40.000        -825.557
 16  9 14  4 55  0.0000000  0 10G24G19G25G32G02S20G14G12G29G06
  -1468125.138 7  22738647.326          42.000       -3678.921
  16137209.07114  25170310.529          27.000       -4393.634
 -13543614.862 7  20591861.738          47.000         480.298
  -5984991.450 8  21982461.563          50.000       -1323.697
  -7371888.838 7  23419865.506          45.000         884.291
 113986862.702 6  38674664.669          39.000        -513.460
  -7007823.097 7  22874398.660          47.000         928.744
   3402933.734 6  20524313.725          41.000       -2013.305
  -8873323.814 7  22250284.922          46.000        2702.078
   -236869.167 6  23700947.873          39.000        -864.723
 16  9 14  4 56  0.0000000  0  9G24G25G32G02S20G14G12G29G06
  -1246864.324 7  22780752.276          43.000       -3696.188
 -13571665.909 8  20586525.566          48.000         455.182
  -5904373.801 8  21997801.962          49.000       -1363.373
  -7424098.172 7  23409929.126          44.000         856.124
 114017702.021 6  38680532.619          39.000        -513.892
  -7062499.430 7  22863993.776          46.000         893.818
   3524432.085 6  20547433.240          41.000       -2036.138
  -9034789.745 7  22219556.223          44.000        2680.184
   -183799.099 7  23711051.898          42.000        -904.701
 16  9 14  4 57  0.0000000  0  9G24G25G32G02S20G14G12G29G06
  -1024620.459 6  22823044.607          41.000       -3712.006
 -13598240.066 7  20581468.057          47.000         430.239
  -5821390.952 8  22013593.153          49.000       -1403.151
  -7474645.173 7  23400306.744          42.000         828.373
 114048523.931 6  38686396.939          39.000        -514.503
  -7115079.916 7  22853987.525          45.000         858.495
   3647251.453 6  20570804.595          41.000       -2058.344
  -9195008.203 7  22189067.168          44.000        2659.549
   -128401.097 6  23721590.294          40.000        -942.726
 16  9 14  4 58  0.0000000  0  9G24G25G32G02S20G14G12G29G06
   -801404.198 7  22865522.921          44.000       -3728.936
 -13623334.007 7  20576692.683          47.000         405.397
  -5736049.673 8  22029833.931          49.000       -1442.950
  -7523513.491 7  23391009.931          44.000         800.102
 114079337.053 6  38692261.556          39.000        -513.380
  -7165550.121 7  22844383.187          45.000         822.536
   3771384.905 6  20594425.664          39.000       -2080.344
  -9353959.209 7  22158821.927          44.000        2638.185
    -70674.075 6  23732576.253          41.000        -982.224
 16  9 14  4 59  0.0000000  0 10G24G19G25G32G02S20G14G12G29G06
   -577161.432 7  22908192.560          42.000       -3745.741
  17193654.09614  25371753.120          27.000       -4428.558
 -13646882.394 8  20572212.043          48.000         380.335
  -5648294.753 8  22046532.480          48.000       -1482.142
  -7570624.939 7  23382047.482          44.000         771.210
 114110194.201 6  38698133.571          39.000        -513.794
  -7213833.990 7  22835196.711          46.000         786.807
   3896887.242 6  20618309.358          40.000       -2102.599
  -9511561.952 7  22128833.326          46.000        2615.815
    -10555.032 6  23744019.966          41.000       -1021.282
 16  9 14  5  1  0.0000000  0  9G24G25G32G02S20G14G12G29G06
   -125744.399 7  22994096.789          43.000       -3780.787
 -13689436.242 7  20564114.915          47.000         326.595
  -5465680.626 7  22081281.867          46.000       -1563.823
  -7659619.144 6  23365106.269          41.000         709.420
 114171931.677 6  38709880.482          38.000        -516.818
  -7303897.434 7  22818057.753          45.000         712.377
   4151863.009 6  20666829.846          40.000       -2148.804
  -9822751.130 7  22069610.428          42.000        2568.533
    116753.909 6  23768241.322          38.000       -1103.103
 16  9 14  5  2  0.0000000  0  9G24G25G32G02S20G14G12G29G06
    101668.967 7  23037370.798          43.000       -3799.589
 -13708177.684 8  20560547.113          48.000         298.560
  -5370579.475 7  22099377.551          46.000       -1605.909
  -7701212.821 7  23357195.632          45.000         677.168
 114203073.401 6  38715807.797          39.000        -520.690
  -7345391.960 7  22810160.203          46.000         671.801
   4281579.138 6  20691514.854          40.000       -2173.856
  -9976041.671 7  22040442.232          45.000        2541.547
    184201.309 6  23781079.150          41.000       -1144.874
 16  9 14  5  3  0.0000000  0  9G24G25G32G02S20G14G12G29G06
    330061.891 7  23080833.707          43.000       -3813.118
 -13725368.106 8  20557276.558          48.000         274.358
  -5273103.485 7  22117929.662          47.000       -1643.309
  -7740993.671 7  23349628.991          46.000         648.850
 114234264.788 6  38721743.559          39.000        -519.853
  -7384655.413 7  22802690.097          46.000         636.661
   4412628.685 6  20716448.248          38.000       -2194.440
 -10127913.738 7  22011542.263          45.000        2520.255
    254033.114 6  23794368.311          41.000       -1182.882
 16  9 14  5  4  0.0000000  0  9G24G25G32G02S20G14G12G29G06
    559323.797 7  23124460.944          43.000       -3827.765
 -13741105.606 8  20554282.188          48.000         250.221
  -5173362.551 8  22136910.945          48.000       -1681.010
  -7779047.707 6  23342383.974          41.000         619.046
 114265412.993 6  38727669.147          40.000        -519.342
  -7421775.947 7  22795627.313          46.000         600.552
   4544902.178 6  20741621.147          39.000       -2214.735
 -10278449.924 7  21982892.967          44.000        2497.784
    326147.262 6  23808089.173          40.000       -1220.744
 16  9 14  5  5  0.0010000  0  9G24G25G32G02S20G14G12G29G06
    789480.199 7  23168255.546          42.000       -3842.439
 -13755355.504 8  20551569.500          48.000         225.430
  -5071332.373 7  22156325.167          47.000       -1718.664
  -7815328.298 6  23335474.508          40.000         590.939
 114296540.343 6  38733593.740          40.000        -517.282
  -7456710.332 7  22788980.543          47.000         564.439
   4678427.867 6  20767025.610          37.000       -2235.361
 -10427602.221 7  21954512.753          45.000        2474.720
    400575.474 6  23822251.211          39.000       -1259.510
 16  9 14  5  6  0.0010000  0  9G24G25G32G02S20G14G12G29G06
   1020464.384 6  23212211.545          41.000       -3857.302
 -13768163.724 8  20549132.263          48.000         200.650
  -4967075.037 7  22176164.791          47.000       -1756.713
  -7849869.478 6  23328906.875          41.000         560.224
 114327593.826 6  38739503.396          40.000        -518.131
  -7489494.246 7  22782739.874          46.000         527.627
   4813144.180 6  20792668.548          40.000       -2255.952
 -10575396.462 7  21926388.394          45.000        2451.276
    477264.059 6  23836846.486          40.000       -1297.886
 16  9 14  5  7  0.0010000  0  9G24G25G32G02S20G14G12G29G06
   1252306.566 7  23256331.402          42.000       -3870.420
 -13779491.615 7  20546975.730          47.000         177.120
  -4860562.740 7  22196433.219          46.000       -1792.969
  -7882620.758 6  23322663.291          36.000         531.522
 114358618.213 6  38745407.363          40.000        -516.167
  -7520081.471 7  22776920.156          46.000         492.123
   4949082.143 6  20818536.385          39.000       -2274.450
 -10721780.042 7  21898532.228          45.000        2428.639
    556248.195 6  23851873.951          41.000       -1334.998
 16  9 14  5  8  0.0010000  0  9G24G25G32G02S20G14G12G29G06
   1484952.713 7  23300603.110          43.000       -3884.866
 -13789379.728 7  20545095.033          47.000         151.865
  -4751849.069 7  22217120.539          46.000       -1830.432
  -7913611.707 6  23316774.454          39.000         501.622
 114389566.799 6  38751294.770          40.000        -515.661
  -7548503.931 7  22771509.838          45.000         455.265
   5086191.272 6  20844624.356          37.000       -2296.632
 -10866778.106 7  21870942.439          46.000        2404.312
    637481.962 7  23867334.547          42.000       -1372.525
 16  9 14  5  9  0.0010000  0  9G24G25G32G02S20G14G12G29G06
   1718453.302 7  23345035.605          43.000       -3898.232
 -13797765.151 7  20543499.315          47.000         127.658
  -4640884.545 7  22238234.953          45.000       -1867.590
  -7942768.450 6  23311226.541          40.000         470.445
 114420509.915 6  38757184.358          40.000        -515.072
  -7574691.196 7  22766528.115          45.000         417.988
   5224525.218 6  20870945.252          36.000       -2316.387
 -11010312.446 7  21843626.932          46.000        2380.628
    721022.493 7  23883232.865          42.000       -1411.725
 16  9 14  5 10  0.0010000  0  9G24G25G32G02S20G14G12G29G06
   1952739.117 7  23389618.625          42.000       -3911.184
 -13804704.284 7  20542178.421          47.000         104.070
  -4527739.174 7  22259766.184          46.000       -1904.750
  -7970135.815 7  23306020.164          42.000         441.046
 114451397.671 6  38763062.586          40.000        -514.741
  -7598690.887 7  22761960.940          44.000         381.666
   5364017.399 6  20897493.804          37.000       -2333.778
 -11152423.925 7  21816583.580          45.000        2356.849
    806807.523 7  23899558.014          43.000       -1447.876
 16  9 14  5 11  0.0010000  0  9G24G25G32G02S20G14G12G29G06
   2187796.256 7  23434350.234          44.000       -3925.262
 -13810197.425 8  20541134.636          48.000          79.322
  -4412427.138 7  22281707.704          46.000       -1940.196
  -7995703.822 7  23301157.015          44.000         410.538
 114482218.516 6  38768927.796          41.000        -513.111
  -7620496.179 7  22757811.348          45.000         344.781
   5504658.283 6  20924257.272          39.000       -2353.870
 -11293097.626 7  21789812.904          45.000        2331.867
    894830.336 7  23916307.745          43.000       -1486.285
 16  9 14  5 12  0.0010000  0  9G24G25G32G02S20G14G12G29G06
   2423703.365 7  23479243.170          42.000       -3938.486
 -13814153.459 7  20540380.804          47.000          53.474
  -4294871.634 7  22304078.237          46.000       -1977.877
  -8019370.598 6  23296642.993          38.000         377.733
 114513057.880 6  38774794.611          41.000        -514.111
  -7640008.656 7  22754098.430          46.000         306.431
   5646528.969 6  20951248.519          37.000       -2374.134
 -11432227.103 7  21763338.062          44.000        2305.937
    985175.443 7  23933499.229          42.000       -1524.443
 16  9 14  5 13  0.0010000  0  9G24G25G32G02S20G14G12G29G06
   2660407.653 6  23524284.625          40.000       -3952.698
 -13816612.412 7  20539913.260          47.000          28.163
  -4175127.052 8  22326867.506          48.000       -2014.335
  -8041166.150 7  23292508.111          43.000         347.247
 114543880.353 6  38780660.799          40.000        -514.233
  -7657261.198 7  22750816.620          46.000         268.039
   5789580.414 6  20978471.818          38.000       -2394.682
 -11569837.561 7  21737151.986          44.000        2280.215
   1077795.816 7  23951127.299          44.000       -1562.662
 16  9 14  5 14  0.0010000  0  9G24G25G32G02S20G14G12G29G06
   2897950.018 6  23569487.320          41.000       -3965.766
 -13817520.366 7  20539740.555          47.000           2.599
  -4053154.347 7  22350077.552          47.000       -2051.175
  -8061026.454 6  23288724.764          40.000         314.263
 114574733.762 6  38786531.977          40.000        -514.503
  -7672193.113 7  22747975.794          47.000         229.685
   5933856.923 6  21005931.115          39.000       -2415.352
 -11705859.613 7  21711269.090          44.000        2254.240
   1172738.171 7  23969193.056          44.000       -1601.219
 16  9 14  5 15  0.0010000  0  9G24G25G32G02S20G14G12G29G06
   3136231.204 7  23614831.938          44.000       -3977.036
 -13816963.648 7  20539844.471          46.000         -21.558
  -3929054.811 7  22373690.558          47.000       -2085.511
  -8079027.374 7  23285297.803          42.000         283.968
 114605541.805 6  38792394.936          41.000        -513.400
  -7684884.413 7  22745560.666          47.000         193.039
   6079262.764 6  21033599.604          36.000       -2432.783
 -11840365.036 7  21685670.947          44.000        2228.848
   1269908.614 7  23987682.975          43.000       -1637.688
 16  9 14  5 16  0.0000000  0  9G24G25G32G02S20G14G12G29G06
   3375257.307 7  23360523.214          43.000       -3990.813
 -13814923.220 7  20240441.052          47.000         -47.488
  -3802824.810 7  22097919.009          47.000       -2122.517
  -8095140.883 7  22982444.004          45.000         251.895
 114636329.378 6  38498461.043          40.000        -513.704
  -7695309.995 8  22443784.122          48.000         154.176
   6225808.02115  20761682.389          31.000       -2454.112
 -11973320.163 7  21360579.969          46.000        2201.953
   1369318.342 7  23706808.860          43.000       -1676.306
 16  9 14  5 17  0.0000000  0  9G24G25G32G02S20G14G12G29G06
   3615080.485 7  23406159.407          42.000       -4003.380
 -13811334.316 7  20241125.711          47.000         -72.697
  -3674415.079 8  22122358.405          48.000       -2157.992
  -8109292.264 7  22979744.351          42.000         220.034
 114667149.943 6  38504325.590          41.000        -513.958
  -7703399.056 7  22442243.564          47.000         115.467
   6373548.22315  20789798.267          34.000       -2473.514
 -12104644.889 7  21335587.139          44.000        2175.637
   1471023.879 7  23726161.029          42.000       -1715.023
 16  9 14  5 18  0.0000000  0  9G24G25G32G02S20G14G12G29G06
   3855659.559 7  23451940.664          43.000       -4016.135
 -13806224.959 7  20242097.549          47.000         -97.858
  -3543869.492 8  22147201.495          48.000       -2193.506
  -8121500.770 7  22977426.561          44.000         187.589
 114697970.098 6  38510189.840          40.000        -513.663
  -7709174.193 7  22441145.265          47.000          76.691
   6522445.966 6  20818139.497          38.000       -2491.516
 -12234352.896 7  21310904.434          44.000        2147.856
   1574988.866 7  23745945.929          43.000       -1751.897
 16  9 14  5 19  0.0000000  0  9G24G25G32G02S20G14G12G29G06
   4097001.787 7  23497865.781          44.000       -4028.427
 -13799574.399 7  20243361.590          46.000        -123.428
  -3411183.412 7  22172448.488          47.000       -2228.660
  -8131736.788 6  22975474.911          41.000         154.045
 114728815.302 6  38516058.802          41.000        -514.207
  -7712609.182 7  22440490.882          47.000          37.964
   6672513.434 6  20846699.256          39.000       -2510.630
 -12362408.971 7  21286538.154          45.000        2120.834
   1681225.157 6  23766161.552          41.000       -1789.444
 16  9 14  5 20  0.0000000  0  9G24G25G32G02S20G14G12G29G06
   4339052.345 7  23543926.678          42.000       -4039.602
 -13791425.231 7  20244914.816          47.000        -148.414
  -3276415.810 7  22198090.954          46.000       -2263.318
  -8140033.738 6  22973891.408          37.000         121.097
 114759637.440 6  38521924.815          41.000        -513.796
  -7713742.114 7  22440274.203          47.000          -0.665
   6823699.471 6  20875463.392          38.000       -2529.095
 -12488841.938 7  21262477.777          45.000        2093.696
   1789681.163 7  23786801.408          42.000       -1826.377
 16  9 14  5 21  0.0000000  0 10G24G31G25G32G02S20G14G12G29G06
   4581854.583 6  23590127.577          40.000       -4053.271
   -149551.77017  23205578.543          43.000        2490.972
 -13781721.313 7  20246759.200          46.000        -174.417
  -3139527.067 8  22224142.908          48.000       -2298.364
  -8146327.584 7  22972701.618          44.000          88.542
 114790499.404 6  38527797.721          41.000        -514.214
  -7712511.972 7  22440509.589          47.000         -39.931
   6976051.084 6  20904457.994          40.000       -2547.680
 -12613580.917 7  21238744.346          47.000        2065.450
   1900403.710 7  23807870.155          42.000       -1863.631
 16  9 14  5 22  0.0000000  0 10G24G31G25G32G02S20G14G12G29G06
   4825334.680 6  23636461.884          41.000       -4063.701
   -298664.552 6  23177198.084          41.000        2479.121
 -13770523.569 7  20248889.627          45.000        -198.782
  -3000594.966 8  22250581.523          48.000       -2332.334
  -8150670.564 7  22971873.727          43.000          56.225
 114821334.199 6  38533665.828          41.000        -513.918
  -7708975.221 7  22441182.260          47.000         -78.147
   7129498.440 6  20933657.687          40.000       -2566.802
 -12736672.962 7  21215317.673          46.000        2037.484
   2013322.191 6  23829358.022          41.000       -1899.984
 16  9 14  5 23  0.0000000  0 10G24G31G25G32G02S20G14G12G29G06
   5069453.634 7  23682917.836          42.000       -4073.968
   -447079.416 7  23148957.315          42.000        2467.508
 -13757857.437 7  20251299.258          45.000        -223.760
  -2859662.031 7  22277401.130          47.000       -2365.819
  -8153080.357 7  22971416.130          44.000          23.654
 114852126.225 6  38539524.564          41.000        -513.578
  -7703153.687 7  22442290.750          47.000        -116.403
   7284007.913 6  20963058.233          39.000       -2584.267
 -12858129.312 7  21192204.424          44.000        2009.910
   2128401.261 7  23851258.063          42.000       -1935.751
 16  9 14  5 24  0.0000000  0 10G24G31G25G32G02S20G14G12G29G06
   5314270.366 7  23729504.630          42.000       -4085.977
   -594709.343 7  23120863.529          42.000        2454.171
 -13743651.749 7  20254003.466          45.000        -249.553
  -2716674.418 7  22304607.293          45.000       -2399.927
  -8153477.822 6  22971338.250          41.000          -9.581
 114882952.150 6  38545392.234          41.000        -514.325
  -7694972.437 7  22443847.135          47.000        -155.975
   7439641.354 6  20992676.697          41.000       -2603.081
 -12977864.801 7  21169422.484          46.000        1981.387
   2245701.881 6  23873578.252          41.000       -1972.567
 16  9 14  5 25  0.0000000  0 10G24G31G25G32G02S20G14G12G29G06
   5559732.168 7  23776216.734          42.000       -4096.570
   -741577.250 7  23092916.691          44.000        2441.520
 -13727945.942 7  20256991.606          45.000        -274.552
  -2571688.990 7  22332197.082          46.000       -2433.034
  -8151895.057 6  22971632.722          38.000         -42.478
 114913762.811 6  38551253.396          41.000        -513.431
  -7684467.507 7  22445846.109          47.000        -194.548
   7596351.766 7  21022500.882          43.000       -2620.754
 -13095906.002 7  21146958.522          46.000        1952.983
   2365174.189 7  23896314.193          43.000       -2010.057
 16  9 14  5 26  0.0000000  0 10G24G31G25G32G02S20G14G12G29G06
   5805877.522 6  23823055.352          40.000       -4108.215
   -887615.778 7  23065123.729          43.000        2426.690
 -13710688.744 7  20260277.534          46.000        -300.696
  -2424672.371 7  22360174.998          47.000       -2467.163
  -8148273.665 7  22972330.085          43.000         -77.231
 114944603.852 6  38557121.520          41.000        -514.509
  -7671584.319 8  22448298.127          48.000        -234.479
   7754181.675 6  21052527.454          39.000       -2639.838
 -13212187.349 7  21124832.379          46.000        1923.404
   2486858.626 6  23919467.212          40.000       -2046.141
 16  9 14  5 27  0.0000000  0 10G24G31G25G32G02S20G14G12G29G06
   6052622.026 7  23870007.816          42.000       -4117.409
  -1032879.994 7  23037485.342          44.000        2414.824
 -13691951.612 7  20263842.213          45.000        -324.085
  -2275713.998 7  22388519.788          47.000       -2498.493
  -8142677.927 7  22973391.809          42.000        -108.951
 114975410.030 6  38562983.013          41.000        -512.437
  -7656392.036 7  22451187.080          46.000        -272.085
   7913051.516 6  21082763.673          41.000       -2656.571
 -13326767.452 7  21103027.668          46.000        1895.410
   2610672.784 6  23943028.199          41.000       -2081.172
 16  9 14  5 28  0.0000000  0 10G24G31G25G32G02S20G14G12G29G06
   6299939.845 7  23917074.683          44.000       -4127.321
  -1177366.440 7  23009984.706          42.000        2400.375
 -13671747.870 7  20267687.577          45.000        -349.960
  -2124845.289 7  22417230.457          46.000       -2531.089
  -8135114.380 7  22974838.536          44.000        -143.049
 115006162.679 6  38568835.886          40.000        -512.261
  -7638901.697 7  22454517.890          47.000        -311.451
   8072939.857 7  21113192.996          43.000       -2674.099
 -13439646.380 7  21081548.126          46.000        1866.800
   2736592.198 6  23966990.961          40.000       -2116.469
 16  9 14  5 29  0.0000000  0 10G24G31G25G32G02S20G14G12G29G06
   6547973.731 7  23964273.176          43.000       -4139.890
  -1320902.729 7  22982677.244          44.000        2384.697
 -13649921.674 7  20271839.438          44.000        -376.946
  -1971928.848 7  22446327.055          45.000       -2564.888
  -8125421.139 7  22976680.529          42.000        -179.505
 115037028.041 6  38574709.682          40.000        -515.309
  -7618954.884 7  22458311.498          46.000        -352.543
   8233994.172 7  21143840.098          43.000       -2693.835
 -13550654.994 7  21060421.217          45.000        1834.616
   2864760.964 7  23991383.102          42.000       -2154.663
 16  9 14  5 30  0.0000000  0 10G24G31G25G32G02S20G14G12G29G06
   6796556.448 7  24011576.075          42.000       -4146.842
  -1463625.972 7  22955512.874          42.000        2372.366
 -13626627.260 7  20276275.877          46.000        -400.091
  -1817137.572 7  22475784.925          45.000       -2595.234
  -8113745.547 6  22978895.782          39.000        -210.682
 115067857.649 6  38580576.410          40.000        -513.160
  -7596704.281 7  22462547.556          47.000        -389.599
   8396052.734 7  21174679.152          44.000       -2709.289
 -13659934.645 7  21039628.445          46.000        1806.655
   2995013.196 6  24016167.437          40.000       -2187.783
 16  9 14  5 31  0.0000000  0 10G24G31G25G32G02S20G14G12G29G06
   7045659.488 7  24058980.010          42.000       -4156.753
  -1605534.844 7  22928515.223          44.000        2357.814
 -13601880.246 7  20280980.822          44.000        -425.563
  -1660505.678 7  22505592.898          47.000       -2626.692
  -8100097.866 7  22981497.697          43.000        -244.833
 115098632.110 6  38586432.930          40.000        -512.629
  -7572164.422 7  22467216.676          47.000        -428.714
   8559091.609 7  21205700.457          42.000       -2726.162
 -13767488.257 7  21019161.922          46.000        1777.049
   3127321.110 6  24041345.745          41.000       -2223.003
 16  9 14  5 32  0.0000000  0 10G24G31G25G32G02S20G14G12G29G06
   7295363.363 7  24106497.773          42.000       -4166.272
  -1746519.042 7  22901682.425          44.000        2342.283
 -13575587.221 7  20285982.787          42.000        -450.334
  -1501958.966 7  22535761.445          47.000       -2657.808
  -8084379.155 6  22984484.842          41.000        -279.273
 115129449.127 6  38592297.285          40.000        -513.137
  -7545240.682 7  22472339.798          47.000        -468.249
   8723196.330 7  21236933.729          44.000       -2743.351
 -13873210.008 7  20999043.706          47.000        1747.177
   3261765.864 6  24066929.544          40.000       -2258.467
 16  9 14  5 33  0.0000000  0 10G24G31G25G32G02S20G14G12G29G06
   7545622.233 7  24154123.309          42.000       -4176.097
  -1886594.608 7  22875030.986          45.000        2326.396
 -13547781.506 7  20291278.160          45.000        -476.582
  -1341549.774 7  22566287.949          47.000       -2689.408
  -8066616.800 6  22987868.544          41.000        -313.303
 115160267.267 6  38598161.728          40.000        -514.678
  -7515965.510 7  22477911.373          46.000        -508.098
   8888325.955 6  21268350.630          41.000       -2761.190
 -13977120.356 7  20979269.834          47.000        1716.121
   3398301.722 6  24092910.947          40.000       -2293.801
 16  9 14  5 34  0.0000000  0 10G24G31G25G32G02S20G14G12G29G06
   7796462.601 7  24201855.832          42.000       -4185.365
  -2025704.136 7  22848556.336          45.000        2310.555
 -13518423.053 7  20296862.300          43.000        -502.157
  -1179257.518 7  22597170.314          46.000       -2720.951
  -8046765.793 6  22991643.759          40.000        -348.140
 115191120.070 6  38604033.324          40.000        -513.979
  -7484299.189 7  22483937.178          47.000        -547.755
   9054513.007 7  21299978.434          44.000       -2778.541
 -14079167.227 7  20959850.307          47.000        1685.170
   3536955.753 7  24119298.119          43.000       -2327.959
 16  9 14  5 35  0.0000000  0 10G24G31G25G32G02S20G14G12G29G06
   8047812.987 6  24249681.434          40.000       -4193.853
  -2163889.512 7  22822263.762          47.000        2295.707
 -13487571.492 7  20302734.159          45.000        -526.256
  -1015161.361 7  22628391.912          43.000       -2749.010
  -8024880.722 6  22995802.704          39.000        -380.882
 115221960.548 6  38609900.803          40.000        -513.744
  -7450300.413 7  22490405.223          47.000        -585.624
   9221690.344 7  21331790.443          43.000       -2793.563
 -14179398.355 7  20940777.114          46.000        1655.939
   3677655.453 7  24146070.522          42.000       -2360.948
 16  9 14  5 36  0.0000000  0 10G24G31G25G32G02S20G14G12G29G06
   8299636.662 6  24297598.301          40.000       -4201.841
  -2301157.411 7  22796138.919          47.000        2279.777
 -13455250.406 7  20308886.303          46.000        -551.090
   -849304.583 7  22659958.501          45.000       -2779.427
  -8000980.967 7  23000358.031          42.000        -414.881
 115252770.518 6  38615764.565          40.000        -513.015
  -7413993.555 8  22497316.452          48.000        -624.552
   9389827.169 7  21363789.361          46.000       -2810.409
 -14277825.469 7  20922045.946          45.000        1624.945
   3820363.913 6  24173227.563          40.000       -2395.524
 16  9 14  5 37  0.0000000  0 10G24G31G25G32G02S20G14G12G29G06
   8552064.167 6  24345635.261          41.000       -4211.925
  -2437346.557 8  22770225.537          49.000        2260.944
 -13421316.562 7  20315343.354          45.000        -578.990
   -681563.777 7  22691875.351          44.000       -2811.218
  -7974918.729 6  23005313.789          38.000        -452.376
 115283688.298 6  38621647.260          40.000        -516.276
  -7375235.979 7  22504689.867          46.000        -666.085
   9559058.836 7  21395991.364          45.000       -2829.266
 -14374293.131 7  20903690.010          46.000        1591.560
   3965211.040 6  24200789.170          39.000       -2431.267
 16  9 14  5 38  0.0000000  0 10G24G31G25G32G02S20G14G12G29G06
   8804932.434 6  24393757.674          41.000       -4218.135
  -2572589.629 7  22744485.227          47.000        2246.229
 -13385919.921 7  20322078.859          46.000        -601.951
   -512109.100 7  22724121.992          44.000       -2838.292
  -7946840.128 6  23010655.318          38.000        -485.072
 115314570.641 6  38627524.336          40.000        -514.657
  -7334178.308 7  22512503.795          47.000        -703.227
   9729228.166 7  21428374.117          44.000       -2843.868
 -14468940.057 7  20885678.645          46.000        1562.515
   4112033.056 6  24228729.673          40.000       -2463.359
 16  9 14  5 39  0.0000000  0 10G24G31G25G32G02S20G14G12G29G06
   9058221.286 7  24441959.206          42.000       -4225.619
  -2706875.897 8  22718934.653          48.000        2229.291
 -13349068.027 7  20329089.484          44.000        -626.846
   -340968.184 7  22756688.618          44.000       -2866.598
  -7916748.617 6  23016381.293          39.000        -519.147
 115345400.528 6  38633391.815          40.000        -513.755
  -7290830.142 7  22520751.885          47.000        -742.407
   9900320.935 7  21460927.446          42.000       -2859.819
 -14561762.289 7  20868015.290          46.000        1531.335
   4260808.453 6  24257042.268          40.000       -2496.336
 16  9 14  5 40  0.0000000  0 10G24G31G25G32G02S20G14G12G29G06
   9312006.242 7  24490253.801          42.000       -4232.968
  -2840099.522 7  22693579.783          47.000        2212.110
 -13310672.961 7  20336397.949          45.000        -652.263
   -168073.564 7  22789589.904          44.000       -2895.539
  -7884552.649 6  23022504.836          38.000        -554.238
 115376261.695 6  38639264.791          40.000        -514.065
  -7245104.624 7  22529454.186          47.000        -781.893
  10072417.456 7  21493681.086          44.000       -2876.358
 -14652660.932 7  20850719.682          47.000        1499.592
   4411611.095 6  24285740.512          39.000       -2530.354
 16  9 14  5 41  0.0000000  0 10G24G31G25G32G02S20G14G12G29G06
   9566244.602 6  24538632.348          41.000       -4241.452
  -2972272.032 7  22668432.013          47.000        2193.624
 -13270764.157 7  20343991.813          45.000        -678.199
      6524.919 7  22822816.707          46.000       -2924.246
  -7850278.412 7  23029035.440          42.000        -589.198
 115407136.234 6  38645138.429          40.000        -514.984
  -7197033.342 7  22538601.712          47.000        -820.607
  10245481.553 7  21526609.612          42.000       -2892.624
 -14741654.495 7  20833782.308          46.000        1466.875
   4564397.265 6  24314814.163          41.000       -2563.381
 16  9 14  5 42  0.0000000  0 10G24G31G25G32G02S20G14G12G29G06
   9820946.482 7  24587100.729          42.000       -4248.185
  -3103352.841 7  22643485.356          46.000        2175.720
 -13229319.424 7  20351878.945          45.000        -703.171
    182828.876 7  22856365.989          46.000       -2952.428
  -7813901.392 6  23035954.835          39.000        -623.615
 115438051.906 6  38651024.998          40.000        -515.556
  -7146596.468 7  22548199.297          47.000        -860.018
  10419528.591 7  21559730.998          42.000       -2908.333
 -14828709.649 7  20817217.462          46.000        1435.412
   4719174.578 7  24344269.694          42.000       -2595.458
 16  9 14  5 43  0.0000000  0 10G24G31G25G32G02S20G14G12G29G06
  10076052.795 7  24635647.479          42.000       -4254.637
  -3233370.338 7  22618745.467          45.000        2158.059
 -13186384.932 7  20360046.886          44.000        -728.351
    360771.161 7  22890227.125          47.000       -2978.877
  -7775464.115 6  23043270.036          40.000        -658.090
 115468958.368 6  38656905.914          40.000        -514.194
  -7093843.280 7  22558236.959          46.000        -898.204
  10594505.530 7  21593034.372          45.000       -2924.089
 -14913862.576 7  20801014.342          47.000        1403.451
   4875881.966 6  24374089.237          41.000       -2628.490
 16  9 14  5 44  0.0000000  0 10G24G31G25G32G02S20G14G12G29G06
  10331539.634 7  24684268.724          42.000       -4261.864
  -3362317.066 7  22594205.383          44.000        2139.415
 -13141971.912 7  20368499.353          44.000        -752.954
    540319.764 7  22924393.133          46.000       -3006.511
  -7734975.852 6  23050976.297          40.000        -692.216
 115499852.272 6  38662784.875          40.000        -515.729
  -7038787.586 7  22568713.511          46.000        -937.642
  10770394.612 7  21626499.719          44.000       -2939.187
 -14997113.575 7  20785170.748          46.000        1370.670
   5034493.625 6  24404270.261          39.000       -2659.638
 16  9 14  5 45  0.0000000  0 10G24G31G25G32G02S20G14G12G29G06
  10587465.670 7  24732970.205          42.000       -4268.490
  -3490103.333 7  22569889.499          45.000        2120.677
 -13096008.683 7  20377249.119          46.000        -778.572
    721525.399 7  22958876.054          46.000       -3033.227
  -7692362.789 6  23059075.781          36.000        -726.592
 115530796.738 6  38668673.311          40.000        -515.387
  -6981361.012 7  22579641.204          46.000        -976.382
  10947260.372 7  21660157.158          44.000       -2954.547
 -15078380.555 7  20769707.325          47.000        1338.669
   5195065.885 6  24434825.575          38.000       -2691.922
 16  9 14  5 46  0.0000000  0 10G24G31G25G32G02S20G14G12G29G06
  10843762.693 6  24781738.119          40.000       -4274.110
  -3616766.767 7  22545785.758          46.000        2101.992
 -13048551.619 7  20386276.360          44.000        -802.677
    904310.442 7  22993659.364          47.000       -3058.874
  -7647679.166 6  23067586.182          40.000        -761.526
 115561739.293 6  38674561.730          40.000        -515.145
  -6921624.104 8  22591011.400          48.000       -1014.259
  11125040.178 7  21693983.271          43.000       -2970.199
 -15157710.604 7  20754610.182          47.000        1306.423
   5357527.222 6  24465739.194          37.000       -2722.869
 16  9 14  5 47  0.0000000  0 10G24G31G25G32G02S20G14G12G29G06
  11100405.129 6  24830574.421          39.000       -4281.216
  -3742300.696 7  22521898.259          46.000        2082.444
 -12999612.431 7  20395590.310          45.000        -828.791
   1088641.901 7  23028736.657          47.000       -3085.332
  -7600935.528 6  23076484.537          40.000        -796.886
 115592670.289 6  38680448.107          40.000        -514.965
  -6859592.526 7  22602815.442          46.000       -1053.291
  11303715.436 7  21727992.489          47.000       -2985.696
 -15235105.380 7  20739883.350          47.000        1273.323
   5521850.302 5  24497007.506          35.000       -2756.196
 16  9 14  5 48  0.0000000  0  9G24G31G25G32G02S20G14G12G29
  11357433.332 6  24879487.591          39.000       -4286.425
  -3866635.119 7  22498237.108          47.000        2062.204
 -12949139.508 7  20405194.717          45.000        -853.582
   1274550.034 8  23064115.037          48.000       -3110.898
  -7552078.329 6  23085776.917          39.000        -831.503
 115623647.419 6  38686343.471          40.000        -516.547
  -6795218.817 7  22615065.251          46.000       -1092.110
  11483332.741 7  21762169.648          46.000       -3001.149
 -15310503.525 7  20725535.048          47.000        1239.936
 16  9 14  5 49  0.0010000  0 10G24G31G25G32G02S20G14G12G29G06
  11614828.191 6  24928470.404          40.000       -4293.173
  -3989763.709 7  22474807.590          47.000        2041.848
 -12897142.767 7  20415090.963          46.000        -879.168
   1462005.755 8  23099786.580          48.000       -3137.138
  -7501117.030 6  23095476.673          41.000        -867.836
 115654657.157 6  38692245.414          40.000        -516.546
  -6728517.350 7  22627759.813          47.000       -1130.875
  11663876.531 7  21796527.102          46.000       -3016.953
 -15383907.751 8  20711567.806          48.000        1206.777
    179598.63515  24560625.311          30.000       -2817.251
 16  9 14  5 50  0.0010000  0 10G24G31G25G32G02S20G14G12G29G06
  11872598.614 6  24977522.582          40.000       -4298.544
  -4111633.527 7  22451616.164          47.000        2021.023
 -12843593.283 7  20425279.866          45.000        -905.341
   1651011.831 7  23135752.997          47.000       -3162.920
  -7448021.318 6  23105583.316          41.000        -902.437
 115685736.356 6  38698158.944          40.000        -518.831
  -6659464.623 7  22640900.403          47.000       -1169.907
  11845365.754 7  21831060.769          44.000       -3032.046
 -15455275.716 7  20697985.237          47.000        1172.727
    349576.76515  24592972.623          33.000       -2848.923
 16  9 14  5 51  0.0010000  0 10G24G31G25G32G02S20G14G12G29G06
  12130669.408 6  25026630.008          38.000       -4302.945
  -4232294.139 7  22428654.644          46.000        2001.289
 -12788556.995 7  20435752.160          44.000        -929.432
   1841482.911 7  23171998.617          47.000       -3186.496
  -7392856.968 6  23116078.697          40.000        -937.251
 115716813.588 6  38704073.207          40.000        -518.198
  -6588132.189 7  22654473.043          46.000       -1207.778
  12027730.660 7  21865767.647          46.000       -3046.773
 -15524666.560 8  20684782.525          48.000        1139.725
    521357.21215  24625664.018          35.000       -2878.441
 16  9 14  5 52  0.0010000  0  9G24G31G25G32G02S20G14G12G29
  12389027.598 5  25075790.779          34.000       -4308.529
  -4351728.514 7  22405925.560          45.000        1979.785
 -12732035.399 7  20446508.038          44.000        -955.365
   2033395.795 7  23208518.346          46.000       -3211.215
  -7335625.268 6  23126965.626          40.000        -972.904
 115747894.922 6  38709988.307          40.000        -518.506
  -6514527.477 7  22668480.873          47.000       -1246.569
  12210963.707 7  21900631.821          44.000       -3062.239
 -15592073.311 7  20671954.189          47.000        1106.019
 16  9 14  5 53  0.0010000  0 10G24G31G25G32G02S20G14G12G29G06
  12647746.35714  25125010.444          28.000       -4313.424
  -4469831.908 7  22383452.437          46.000        1957.282
 -12673942.586 7  20457564.007          44.000        -981.249
   2226814.520 7  23245324.921          47.000       -3236.208
  -7276239.964 7  23138271.761          43.000       -1008.110
 115779058.009 6  38715918.432          40.000        -520.210
  -6438569.857 7  22682935.081          47.000       -1285.483
  12395144.639 7  21935681.944          45.000       -3077.149
 -15657401.055 7  20659521.694          47.000        1071.807
    175141.16116  24692074.939          36.000       -2938.441
 16  9 14  5 54  0.0010000  0  9G31G25G32G02S20G14G12G29G06
  -4586659.783 7  22361222.430          47.000        1937.182
 -12614353.113 7  20468903.159          45.000       -1004.946
   2421642.611 7  23282401.695          47.000       -3258.394
  -7214776.500 7  23149966.444          42.000       -1041.701
 115810223.389 6  38721847.074          40.000        -519.946
  -6360340.921 7  22697821.059          45.000       -1321.900
  12580193.333 7  21970893.081          43.000       -3091.059
 -15720716.033 7  20647473.610          47.000        1038.568
    352325.43715  24725789.196          35.000       -2966.558
 16  9 14  5 55  0.0010000  0 10G24G31G25G32G02S20G14G12G29G06
  13165779.81114  25223630.699          26.000       -4323.807
  -4702210.069 7  22339232.451          47.000        1914.309
 -12553283.834 7  20480522.892          44.000       -1030.094
   2617841.256 7  23319735.825          47.000       -3282.017
  -7151251.647 7  23162054.471          42.000       -1076.782
 115841387.287 6  38727779.799          40.000        -520.054
  -6279864.188 7  22713134.271          45.000       -1360.330
  12766087.100 7  22006269.122          43.000       -3106.280
 -15782027.280 8  20635806.639          48.000        1004.739
    531239.61916  24759834.362          37.000       -2996.127
 16  9 14  5 56  0.0010000  0  9G31G25G32G02S20G14G12G29G06
  -4816390.596 8  22317506.633          48.000        1891.476
 -12490661.333 7  20492442.438          46.000       -1056.576
   2815461.764 7  23357342.615          47.000       -3305.103
  -7085593.013 7  23174548.688          42.000       -1112.494
 115872630.146 6  38733724.023          40.000        -521.618
  -6197072.889 7  22728889.357          46.000       -1399.235
  12952893.715 7  22041815.896          42.000       -3121.519
 -15841253.423 7  20624534.985          47.000         970.122
    711940.301 6  24794223.663          37.000       -3027.436
 16  9 14  5 57  0.0010000  0 10G24G31G25G32G02S20G14G12G29G06
  13685108.17015  25322466.429          31.000       -4330.791
  -4929229.791 7  22296032.378          47.000        1869.731
 -12426533.508 7  20504645.149          45.000       -1082.104
   3014434.164 7  23395204.562          46.000       -3327.344
  -7017849.660 7  23187442.025          44.000       -1146.638
 115903896.267 6  38739674.862          41.000        -521.454
  -6112022.828 7  22745073.648          47.000       -1436.459
  13140559.446 7  22077529.477          44.000       -3134.537
 -15898434.547 7  20613653.989          47.000         936.009
    894362.667 5  24828936.613          35.000       -3054.929
 16  9 14  5 58  0.0010000  0 10G24G31G25G32G02S20G14G12G29G06
  13945173.34315  25371964.844          34.000       -4337.954
  -5040662.580 7  22274830.084          47.000        1845.893
 -12360854.344 7  20517141.337          45.000       -1106.195
   3214782.239 7  23433328.402          45.000       -3350.291
  -6947977.005 7  23200736.718          43.000       -1182.479
 115935226.749 6  38745634.181          40.000        -523.009
  -6024675.511 7  22761695.434          46.000       -1474.551
  13329125.586 7  22113412.394          43.000       -3149.754
 -15953517.465 7  20603171.975          47.000         900.353
   1078535.93315  24863983.316          33.000       -3085.495
 16  9 14  5 59  0.0010000  0 10G24G31G25G32G02S20G14G12G29G06
  14205431.758 5  25421492.924          34.000       -4340.120
  -5150743.648 7  22253878.358          45.000        1823.300
 -12293697.449 7  20529919.992          45.000       -1131.274
   3416410.183 7  23471694.974          44.000       -3370.739
  -6876050.230 7  23214423.151          42.000       -1215.113
 115966556.294 6  38751596.170          41.000        -521.995
  -5935112.110 7  22778738.765          46.000       -1511.024
  13518511.948 7  22149448.856          42.000       -3162.673
 -16006568.357 7  20593076.361          46.000         868.060
   1264368.44715  24899348.556          33.000       -3109.257
 16  9 14  6  1  0.0000000  0 10G24G31G25G32G02S20G14G12G29G06
  14726569.18814  25220867.073          27.000       -4349.357
  -5366684.203 7  21912993.659          44.000        1773.691
 -12154861.308 7  20256549.924          44.000       -1184.390
   3823505.829 7  23249371.225          43.000       -3416.233
  -6725952.601 7  22943194.643          42.000       -1287.780
 116029300.959 6  38463743.102          40.000        -525.674
  -5749282.955 7  22514308.060          44.000       -1587.859
  13899815.505 6  21922219.467          40.000       -3193.541
 -16106457.123 7  20274278.804          47.000         795.530
   1641032.83815  24671229.171          32.000       -3169.387
 16  9 14  6  2  0.0000000  0 10G24G31G25G32G02S20G14G12G29G06
  14987705.57414  25270554.125          27.000       -4354.434
  -5472223.986 7  21892914.427          47.000        1745.512
 -12082900.360 7  20270242.743          45.000       -1213.196
   4029210.509 7  23288515.885          45.000       -3439.720
  -6647504.637 7  22958121.926          42.000       -1326.189
 116061018.617 6  38469779.900          41.000        -530.116
  -5652752.928 7  22532676.561          45.000       -1628.465
  14092003.507 6  21958789.138          41.000       -3211.309
 -16153000.186 8  20265421.527          48.000         756.898
   1832111.31215  24707590.312          33.000       -3197.816
 16  9 14  6  3  0.0000000  0 10G24G31G25G32G02S20G14G12G29G06
  15249079.96514  25320298.064          28.000       -4358.021
  -5576241.564 7  21873116.684          46.000        1721.726
 -12009368.308 7  20284235.881          44.000       -1238.049
   4236199.055 7  23327905.895          46.000       -3459.669
  -6566917.824 7  22973460.301          44.000       -1359.896
 116092839.848 6  38475836.242          40.000        -530.819
  -5553949.042 7  22551480.776          46.000       -1665.010
  14285084.896 6  21995533.120          41.000       -3224.056
 -16197391.464 8  20256974.418          48.000         722.965
   2024872.75515  24744272.711          34.000       -3225.272
 16  9 14  6  4  0.0000000  0 10G24G31G25G32G02S20G14G12G29G06
  15510614.71714  25370059.489          28.000       -4361.057
  -5678783.381 7  21853608.108          47.000        1696.322
 -11934330.610 7  20298514.539          44.000       -1263.081
   4444383.671 7  23367522.514          46.000       -3479.499
  -6484261.185 7  22989187.257          43.000       -1394.496
 116124708.422 6  38481899.547          41.000        -531.196
  -5452946.230 7  22570698.875          45.000       -1701.612
  14478989.337 6  22032429.965          39.000       -3238.901
 -16239690.149 8  20248924.911          48.000         687.476
   2219234.610 5  24781259.495          33.000       -3251.584
 16  9 14  6  5  0.0000000  0  9G31G25G32G02S20G14G12G29G06
  -5779755.740 7  21834390.323          45.000        1670.129
 -11857712.431 7  20313092.346          43.000       -1288.992
   4653816.765 8  23407377.467          48.000       -3499.864
  -6399462.740 7  23005323.212          43.000       -1430.546
 116156690.139 6  38487985.101          40.000        -532.967
  -5349679.266 7  22590348.431          44.000       -1739.327
  14673786.448 6  22069498.084          39.000       -3252.913
 -16279815.527 8  20241289.761          49.000         651.539
   2415253.695 5  24818561.045          32.000       -3278.976
 16  9 14  6  6  0.0000000  0  9G31G25G32G02S20G14G12G29G06
  -5879327.439 7  21815442.056          45.000        1648.000
 -11779702.241 7  20327939.916          45.000       -1311.444
   4864287.415 7  23447426.502          47.000       -3516.344
  -6312714.180 7  23021831.833          44.000       -1461.916
 116188593.819 6  38494056.241          40.000        -530.879
  -5244347.294 7  22610394.072          45.000       -1772.853
  14869283.939 6  22106702.611          40.000       -3264.280
 -16317950.630 8  20234031.796          48.000         619.070
   2612724.20215  24856142.846          32.000       -3303.612
 16  9 14  6  7  0.0000000  0  9G31G25G32G02S20G14G12G29G06
  -5977470.433 7  21796766.170          45.000        1622.933
 -11700290.758 7  20343052.747          46.000       -1336.172
   5075782.447 7  23487673.213          47.000       -3533.968
  -6224010.128 7  23038711.865          45.000       -1495.254
 116220441.078 6  38500116.597          40.000        -531.077
  -5136951.044 7  22630832.273          47.000       -1808.163
  15065484.482 6  22144033.164          37.000       -3277.378
 -16354080.192 7  20227154.316          46.000         584.751
   2811636.48615  24893991.845          33.000       -3329.188
 16  9 14  6  8  0.0000000  0  9G31G25G32G02S20G14G12G29G06
  -6074057.580 7  21778387.740          46.000        1596.846
 -11619370.507 7  20358451.343          46.000       -1361.287
   5288386.826 8  23528131.683          48.000       -3552.538
  -6133246.848 7  23055982.939          45.000       -1529.100
 116252346.615 6  38506187.580          40.000        -531.680
  -5027393.974 7  22651678.495          45.000       -1843.486
  15262492.179 6  22181528.639          40.000       -3289.160
 -16388091.987 7  20220682.624          47.000         549.402
   3012080.33115  24932132.786          31.000       -3351.140
 16  9 14  6  9  0.0000000  0  9G31G25G32G02S20G14G12G29G06
  -6169109.812 7  21760302.090          47.000        1571.355
 -11536981.099 7  20374126.228          44.000       -1385.577
   5502038.466 8  23568787.793          48.000       -3569.438
  -6040467.973 7  23073637.499          44.000       -1562.806
 116284265.795 6  38512261.931          40.000        -532.380
  -4915726.599 7  22672927.206          44.000       -1878.444
  15460262.410 6  22219159.894          39.000       -3302.231
 -16420020.856 7  20214608.535          47.000         514.540
   3213998.33515  24970554.274          30.000       -3379.406
 16  9 14  6 10  0.0000000  0  9G31G25G32G02S20G14G12G29G06
  -6262569.589 7  21742515.432          45.000        1544.319
 -11453084.752 7  20390088.640          42.000       -1410.763
   5716752.749 7  23609646.414          47.000       -3587.270
  -5945640.097 7  23091683.554          44.000       -1596.847
 116316239.682 6  38518345.706          40.000        -532.170
  -4801922.135 7  22694585.143          45.000       -1914.495
  15658828.575 6  22256945.478          37.000       -3316.642
 -16449824.486 8  20208937.458          48.000         478.963
   3417409.93614  25009261.126          29.000       -3400.926
 16  9 14  6 11  0.0000000  0  9G31G25G32G02S20G14G12G29G06
  -6354483.279 7  21725023.718          45.000        1518.706
 -11367746.507 7  20406331.861          44.000       -1434.812
   5932442.076 7  23650689.989          46.000       -3603.225
  -5848833.144 7  23110103.393          44.000       -1630.817
 116348203.054 6  38524428.153          40.000        -532.794
  -4686057.887 7  22716633.126          46.000       -1948.534
  15858122.201 6  22294875.062          41.000       -3328.303
 -16477562.465 8  20203659.326          48.000         444.890
   3622231.96614  25048241.003          29.000       -3428.132
 16  9 14  6 12  0.0000000  0  9G31G25G32G02S20G14G12G29G06
  -6444766.314 7  21707843.124          44.000        1491.764
 -11280901.109 7  20422856.065          43.000       -1459.164
   6149149.214 7  23691928.396          47.000       -3620.265
  -5749986.814 7  23128914.431          44.000       -1664.149
 116380216.175 6  38530519.641          40.000        -533.873
  -4568080.342 7  22739082.465          46.000       -1983.434
  16058202.078 6  22332942.642          39.000       -3340.735
 -16503166.146 8  20198786.178          48.000         409.144
   3828511.10615  25087496.542          34.000       -3450.434
 16  9 14  6 13  0.0000000  0  9G31G25G32G02S20G14G12G29G06
  -6533458.846 7  21690967.786          46.000        1464.969
 -11192607.833 7  20439660.398          44.000       -1482.835
   6366792.627 7  23733344.690          46.000       -3634.753
  -5649164.805 7  23148101.033          44.000       -1696.858
 116412234.112 6  38536614.216          40.000        -533.731
  -4448060.577 7  22761921.083          43.000       -2017.366
  16259005.937 6  22371160.033          38.000       -3352.947
 -16526690.204 7  20194309.098          47.000         374.715
   4036171.24015  25127011.757          32.000       -3472.385
 16  9 14  6 14  0.0000000  0  9G31G25G32G02S20G14G12G29G06
  -6620554.250 7  21674392.923          46.000        1437.695
 -11102879.524 7  20456735.733          45.000       -1507.846
   6585336.962 8  23774935.086          48.000       -3650.543
  -5546385.379 7  23167658.417          43.000       -1729.476
 116444252.129 6  38542705.162          39.000        -533.546
  -4326023.669 7  22785145.316          44.000       -2050.662
  16460516.500 5  22409505.734          35.000       -3365.085
 -16548144.163 7  20190225.712          46.000         340.098
   4245179.93615  25166784.677          30.000       -3493.366
 16  9 14  6 15  0.0000000  0  9G31G25G32G02S20G14G12G29G06
  -6705969.002 7  21658138.674          46.000        1409.960
 -11011650.591 7  20474095.087          45.000       -1532.241
   6804825.426 8  23816702.409          48.000       -3665.076
  -5441589.086 7  23187600.822          42.000       -1762.347
 116476327.916 6  38548810.051          39.000        -534.733
  -4201917.143 7  22808762.319          45.000       -2084.822
  16662796.182 6  22448000.199          39.000       -3376.461
 -16567458.558 7  20186550.085          46.000         304.825
   4455584.42514  25206825.232          27.000       -3516.596
 16  9 14  6 16  0.0000000  0  8G31G25G32G02S20G14G12G29
  -6789728.311 7  21642199.697          45.000        1381.663
 -10918965.973 7  20491732.563          44.000       -1556.964
   7025190.659 8  23858635.404          48.000       -3680.300
  -5334826.328 7  23207916.802          43.000       -1796.494
 116508412.117 6  38554913.806          40.000        -535.947
  -4075798.415 7  22832763.819          47.000       -2119.144
  16865794.472 5  22486621.440          35.000       -3389.413
 -16584675.183 7  20183274.697          47.000         268.553
 16  9 14  6 17  0.0000000  0  8G31G25G32G02S20G14G12G29
  -6871733.202 7  21626595.015          45.000        1352.431
 -10824745.862 7  20509663.273          45.000       -1582.779
   7246490.203 7  23900747.334          47.000       -3695.589
  -5226022.774 7  23228621.957          44.000       -1830.148
 116540594.734 6  38561038.693          39.000        -536.659
  -3947600.688 7  22857158.212          45.000       -2153.322
  17069587.974 6  22525414.024          39.000       -3403.349
 -16599710.931 7  20180412.634          47.000         232.823
 16  9 14  6 18  0.0000000  0  9G31G25G32G02S20G14G12G29G06
  -6952039.535 7  21611314.766          45.000        1323.920
 -10729064.518 7  20527866.084          42.000       -1606.931
   7468627.387 7  23943019.178          47.000       -3709.547
  -5115259.584 6  23249696.846          41.000       -1862.229
 116572798.461 6  38567165.360          39.000        -537.072
  -3817411.729 7  22881932.827          44.000       -2186.860
  17274098.643 6  22564333.507          37.000       -3414.344
 -16612637.157 7  20177954.387          47.000         197.353
   5093700.23514  25328475.271          28.000       -3585.208
 16  9 14  6 19  0.0000000  0  9G31G25G32G02S20G14G12G29G06
  -7030575.808 7  21596369.876          47.000        1294.113
 -10631869.139 7  20546366.037          45.000       -1632.233
   7691632.800 7  23985455.577          47.000       -3723.359
  -5002490.128 6  23271156.827          41.000       -1895.118
 116605088.235 6  38573310.646          39.000        -538.993
  -3685193.086 7  22907092.184          46.000       -2220.403
  17479375.08915  22603377.845          35.000       -3426.826
 -16623397.956 7  20175904.964          47.000         161.543
   5309470.19614  25369531.132          28.000       -3606.528
 16  9 14  6 20  0.0000000  0  9G31G25G32G02S20G14G12G29G06
  -7107397.855 7  21581749.019          46.000        1266.724
 -10533234.760 7  20565133.344          44.000       -1655.335
   7915409.234 7  24028038.052          46.000       -3735.309
  -4887795.846 7  23292982.356          42.000       -1927.755
 116637397.838 6  38579458.549          39.000        -538.190
  -3551032.987 7  22932623.947          47.000       -2251.354
  17685339.352 6  22642585.989          40.000       -3437.888
 -16632066.711 7  20174255.622          47.000         127.417
   5526483.09215  25410836.303          30.000       -3628.121
 16  9 14  6 21  0.0000000  0  9G31G25G32G02S20G14G12G29G06
  -7182523.036 7  21567454.639          47.000        1237.236
 -10433196.969 7  20584173.277          46.000       -1680.068
   8139898.871 7  24070756.412          46.000       -3747.876
  -4771219.586 7  23315168.597          43.000       -1958.765
 116669686.939 6  38585604.830          39.000        -538.454
  -3414981.015 7  22958511.729          47.000       -2284.245
  17891951.139 5  22681893.634          33.000       -3449.184
 -16638676.279 8  20173001.824          49.000          92.177
   5744684.57115  25452355.013          31.000       -3648.490
 16  9 14  6 22  0.0000000  0 10G21G31G25G32G02S20G14G12G29G06
   -160938.29516  24870957.680          40.000        2685.315
  -7255816.822 7  21553505.231          45.000        1206.009
 -10331640.419 7  20603497.404          44.000       -1704.535
   8365194.946 7  24113629.049          46.000       -3761.593
  -4652652.369 6  23337729.042          41.000       -1992.540
 116702077.463 6  38591767.060          38.000        -539.897
  -3276936.602 7  22984780.484          46.000       -2317.141
  18099322.464 6  22721365.329          40.000       -3461.161
 -16643109.396 7  20172154.755          47.000          56.321
   5964172.27215  25494125.861          30.000       -3668.750
 16  9 14  6 23  0.0000000  0 10G21G31G25G32G02S20G14G12G29G06
   -322004.389 7  24840303.633          43.000        2683.726
  -7327325.955 7  21539900.658          47.000        1176.912
 -10228630.155 7  20623098.797          43.000       -1729.922
   8591210.445 7  24156637.641          45.000       -3773.154
  -4532166.927 6  23360656.167          40.000       -2024.564
 116734500.851 6  38597936.777          39.000        -540.461
  -3136979.325 7  23011414.071          45.000       -2348.650
  18307385.354 6  22760954.167          39.000       -3473.800
 -16645429.443 7  20171714.120          47.000          20.667
   6184862.59314  25536115.936          25.000       -3687.935
 16  9 14  6 24  0.0000000  0  9G21G31G25G32G02S20G14G12G29
   -482874.446 7  24809692.059          44.000        2679.568
  -7397004.486 7  21526638.335          46.000        1146.152
 -10124138.415 7  20642981.558          43.000       -1753.926
   8817951.003 7  24199784.718          45.000       -3784.887
  -4409742.456 7  23383954.930          42.000       -2056.240
 116766982.172 6  38604119.162          39.000        -541.035
  -2995095.558 7  23038412.873          44.000       -2380.397
  18516163.509 7  22800685.939          43.000       -3484.864
 -16645607.071 8  20171680.004          48.000         -14.462
 16  9 14  6 25  0.0000000  0  9G21G31G25G32G02S20G14G12G29
   -643534.690 7  24779120.866          44.000        2675.607
  -7464842.521 7  21513730.618          47.000        1115.098
 -10018173.610 7  20663149.036          44.000       -1778.501
   9045386.413 7  24243066.022          47.000       -3796.353
  -4285395.286 7  23407618.437          43.000       -2088.484
 116799521.671 6  38610308.423          39.000        -542.328
  -2851309.232 7  23065774.431          45.000       -2412.169
  18725645.626 6  22840546.093          41.000       -3497.305
 -16643649.121 7  20172050.315          46.000         -50.487
 16  9 14  6 26  0.0000000  0 10G21G31G25G32G02S20G14G12G29G06
   -803985.126 7  24748592.094          42.000        2673.090
  -7530843.633 7  21501171.400          47.000        1085.351
  -9910757.878 7  20683586.941          42.000       -1802.015
   9273472.614 7  24286469.791          47.000       -3806.106
  -4159155.470 7  23431639.186          42.000       -2118.778
 116832095.398 6  38616509.358          39.000        -541.652
  -2705657.573 7  23093491.623          46.000       -2442.725
  18935805.637 6  22880534.401          40.000       -3508.044
 -16639576.925 7  20172826.379          46.000         -84.764
   6851668.53213  25663471.743          20.000       -3749.228
 16  9 14  6 27  0.0000000  0 10G21G31G25G32G02S20G14G12G29G06
   -964243.844 6  24718103.248          39.000        2669.177
  -7595030.171 7  21488956.649          47.000        1054.733
  -9801931.872 7  20704298.238          43.000       -1825.724
   9502147.133 7  24329982.852          46.000       -3815.552
  -4031071.580 6  23456011.538          41.000       -2149.960
 116864676.830 6  38622709.106          39.000        -544.001
  -2558196.663 7  23121555.866          47.000       -2472.486
  19146600.400 7  22920655.401          43.000       -3518.800
 -16633429.352 7  20173996.817          47.000        -119.466
   7076907.78212  25706357.311          17.000       -3772.478
 16  9 14  6 28  0.0000000  0  9G21G31G25G32G02S20G14G12G29
  -1124289.805 6  24687643.544          39.000        2665.153
  -7657385.019 7  21477091.007          47.000        1023.215
  -9691696.620 7  20725274.516          43.000       -1849.975
   9731387.216 7  24373607.576          47.000       -3825.715
  -3901152.764 7  23480737.991          42.000       -2181.116
 116897270.796 6  38628912.065          39.000        -543.905
  -2408943.065 7  23149955.974          45.000       -2502.970
  19358025.141 6  22960882.323          39.000       -3530.314
 -16625207.350 7  20175561.142          45.000        -154.782
 16  9 14  6 29  0.0000000  0 10G26G21G31G25G32G02S20G14G12G29
   -458063.04415  24503723.083          32.000        2540.033
  -1284038.130 7  24657235.039          43.000        2659.899
  -7717828.770 8  21465589.813          48.000         991.591
  -9579990.258 7  20746533.907          44.000       -1873.420
   9961233.259 7  24417344.121          47.000       -3835.204
  -3769345.133 7  23505819.224          42.000       -2211.805
 116929934.089 6  38635127.867          40.000        -545.095
  -2257850.653 7  23178709.116          45.000       -2532.853
  19570139.211 7  23001249.807          45.000       -3540.515
 -16614848.649 7  20177532.964          46.000        -189.597
 16  9 14  6 30  0.0000000  0 10G26G21G31G25G32G02S20G14G12G29
   -610337.157 6  24474746.019          36.000        2535.988
  -1443523.752 7  24626885.411          45.000        2656.389
  -7776400.565 7  21454441.671          47.000         960.760
  -9466869.731 6  20768053.428          39.000       -1896.084
  10191606.555 7  24461184.024          46.000       -3843.356
  -3635714.460 7  23531249.426          42.000       -2241.806
 116962606.804 6  38641346.514          40.000        -544.081
  -2104992.291 7  23207796.832          45.000       -2561.522
  19782881.926 7  23041734.173          47.000       -3550.480
 -16602409.755 7  20179898.254          44.000        -224.138
 16  9 14  6 31  0.0000000  0 10G26G21G31G25G32G02S20G14G12G29
   -762367.442 6  24445816.001          37.000        2531.206
  -1602736.590 7  24596588.220          45.000        2650.025
  -7833095.072 7  21443654.627          47.000         928.593
  -9352347.750 7  20789850.199          42.000       -1920.759
  10422473.054 7  24505114.598          45.000       -3851.906
  -3500282.101 6  23557018.459          41.000       -2272.995
 116995286.911 6  38647563.957          40.000        -545.172
  -1950396.889 7  23237212.681          44.000       -2591.881
  19996237.829 7  23082330.325          44.000       -3561.841
 -16587903.034 7  20182658.931          45.000        -260.032
 16  9 14  6 32  0.0010000  0 10G26G21G31G25G32G02S20G14G12G29
   -914080.023 5  24416945.977          35.000        2525.486
  -1761590.351 7  24566358.755          42.000        2645.214
  -7887828.936 8  21433239.360          48.000         896.140
  -9236355.701 6  20811920.920          41.000       -1944.506
  10653881.895 7  24549152.386          46.000       -3860.809
  -3362988.059 7  23583145.030          42.000       -2303.117
 117028037.581 6  38653795.866          40.000        -546.437
  -1794011.412 7  23266973.661          45.000       -2620.410
  20210274.681 7  23123060.093          43.000       -3573.353
 -16571261.692 7  20185827.036          46.000        -294.778
 16  9 14  6 33  0.0010000  0 10G26G21G31G25G32G02S20G14G12G29
  -1065495.28214  24388123.033          24.000        2520.000
  -1920093.413 5  24536197.833          34.000        2639.528
  -7940618.633 7  21423192.607          47.000         863.119
  -9118933.549 7  20834269.344          43.000       -1969.316
  10885768.014 7  24593281.195          46.000       -3868.951
  -3223881.553 7  23609617.970          43.000       -2333.574
 117060835.466 6  38660036.657          40.000        -547.649
  -1635893.706 7  23297062.461          46.000       -2650.088
  20424946.630 7  23163910.285          42.000       -3583.605
 -16552522.962 7  20189392.167          45.000        -329.792
 16  9 14  6 34  0.0010000  0  8G31G25G32G02S20G14G12G29
  -7991407.241 8  21413529.479          48.000         829.968
  -9000038.399 6  20856891.073          40.000       -1993.248
  11118155.030 7  24637502.577          46.000       -3876.625
  -3082928.814 7  23636439.094          43.000       -2364.156
 117093730.958 6  38666296.155          40.000        -549.629
  -1476017.162 7  23327485.677          45.000       -2678.529
  20640294.878 7  23204891.405          42.000       -3594.430
 -16531645.711 7  20193365.111          46.000        -365.158
 16  9 14  6 35  0.0010000  0 10G26G21G31G25G32G02S20G14G12G29
  -1367551.25513  24330712.183          22.000        2510.690
  -2236037.96016  24476091.483          39.000        2625.669
  -8040229.562 8  21404238.390          48.000         797.756
  -8879722.485 7  20879788.726          42.000       -2017.087
  11350969.515 7  24681804.998          46.000       -3883.592
  -2940190.996 7  23663600.149          42.000       -2393.271
 117126666.062 6  38672563.558          40.000        -548.571
  -1314450.628 7  23358228.231          43.000       -2706.486
  20856264.274 7  23245990.193          44.000       -3604.916
 -16508682.870 7  20197733.337          45.000        -399.248
 16  9 14  6 36  0.0010000  0  9G21G31G25G32G02S20G14G12G29
  -2393356.837 6  24446158.775          41.000        2618.354
  -8087084.449 8  21395321.869          48.000         764.094
  -8758001.790 6  20902947.782          40.000       -2040.260
  11584174.591 7  24726183.659          46.000       -3890.282
  -2795693.911 7  23691098.202          43.000       -2423.401
 117159621.308 6  38678833.997          40.000        -550.009
  -1151226.756 7  23389292.830          44.000       -2734.286
  21072836.854 7  23287207.764          46.000       -3614.989
 -16483651.643 7  20202498.834          46.000        -434.527
 16  9 14  6 37  0.0010000  0  9G21G31G25G32G02S20G14G12G29
  -2550200.512 6  24416308.625          38.000        2610.581
  -8131891.865 8  21386795.309          48.000         729.825
  -8634813.451 7  20926396.146          44.000       -2064.497
  11817812.324 7  24770642.939          46.000       -3897.338
  -2649384.091 7  23718939.553          43.000       -2453.266
 117192669.735 6  38685124.486          40.000        -551.346
   -986299.917 7  23420674.847          43.000       -2763.215
  21290073.223 7  23328542.636          44.000       -3626.047
 -16456490.054 7  20207664.325          45.000        -470.736
 16  9 14  6 38  0.0010000  0  9G21G31G25G32G02S20G14G12G29
  -2706585.041 5  24386539.862          35.000        2601.694
  -8174674.649 7  21378654.399          47.000         696.026
  -8510196.810 6  20950103.593          40.000       -2088.649
  12051822.467 7  24815172.632          46.000       -3902.993
  -2501310.965 7  23747116.734          43.000       -2482.244
 117225770.569 6  38691422.881          40.000        -552.245
   -819726.906 7  23452374.913          44.000       -2789.455
  21507930.569 7  23369993.953          44.000       -3636.088
 -16427238.472 7  20213234.749          47.000        -504.719
 16  9 14  6 39  0.0010000  0  9G21G31G25G32G02S20G14G12G29
  -2862435.636 6  24356895.991          41.000        2593.208
  -8215363.295 7  21370910.969          47.000         660.535
  -8384099.072 7  20974105.407          43.000       -2113.724
  12286237.253 7  24859779.454          44.000       -3910.103
  -2351431.313 7  23775639.150          43.000       -2512.900
 117258990.077 6  38697743.105          40.000        -553.344
   -651472.374 7  23484393.131          44.000       -2817.728
  21726459.642 7  23411585.762          47.000       -3647.802
 -16395845.857 7  20219207.958          47.000        -540.929
 16  9 14  6 40  0.0010000  0 10G26G21G31G25G32G02S20G14G12G29
  -2118577.17816  24188239.654          36.000        2479.226
  -3017783.712 7  24327336.875          44.000        2584.858
  -8253996.379 7  21363559.315          47.000         626.313
  -8256575.395 6  20998360.669          37.000       -2137.403
  12520980.855 7  24904450.022          44.000       -3914.978
  -2199810.024 7  23804493.154          44.000       -2541.811
 117292282.581 6  38704079.681          40.000        -555.604
   -481608.739 7  23516715.890          44.000       -2844.480
  21945603.258 7  23453282.324          44.000       -3657.499
 -16362368.865 7  20225577.497          46.000        -575.319
 16  9 14  6 41  0.0010000  0 10G26G21G31G25G32G02S20G14G12G29
  -2267150.791 5  24159960.878          35.000        2472.570
  -3172579.186 6  24297877.156          39.000        2575.654
  -8290530.075 8  21356608.422          48.000         591.580
  -8127598.225 6  21022914.818          41.000       -2161.049
  12756060.481 7  24949185.959          43.000       -3920.066
  -2046430.301 7  23833678.696          45.000       -2570.570
 117325668.163 6  38710430.635          40.000        -557.162
   -310126.458 7  23549345.023          43.000       -2870.617
  22165386.279 7  23495110.025          46.000       -3667.925
 -16326781.861 7  20232349.473          46.000        -610.392
 16  9 14  6 42  0.0010000  0  9G26G31G25G32G02S20G14G12G29
  -2415388.058 6  24131755.777          36.000        2467.649
  -8325026.559 8  21350043.807          48.000         557.944
  -7997246.024 6  21047713.619          38.000       -2184.889
  12991377.478 7  24993965.539          43.000       -3924.025
  -1891380.377 7  23863183.734          45.000       -2598.114
 117359066.664 6  38716787.627          40.000        -556.928
   -137121.280 7  23582268.104          43.000       -2896.070
  22385728.614 7  23537041.555          46.000       -3677.132
 -16289164.701 7  20239506.139          45.000        -643.834
 16  9 14  6 43  0.0000000  0 10G26G21G31G25G32G02S20G14G12G29
  -2563263.644 6  23803823.415          37.000        2460.574
  -3480706.51716  23939459.037          40.000        2558.431
  -8357456.032 8  21044079.734          48.000         522.908
  -7865504.824 6  20772997.756          41.000       -2207.441
  13226925.502 6  24738994.404          41.000       -3927.822
  -1734656.535 7  23593216.598          45.000       -2626.398
 117392503.102 6  38423359.563          40.000        -558.415
     37402.487 7  23315687.863          43.000       -2921.176
  22606641.282 6  23279272.627          39.000       -3686.252
 -16249506.471 7  19947260.013          45.000        -678.271
 16  9 14  6 44  0.0000000  0 10G26G21G31G25G32G02S20G14G12G29
  -2710729.898 6  23775759.102          36.000        2453.563
  -3633876.869 7  23910315.655          44.000        2547.870
  -8387766.550 7  21038311.355          47.000         487.256
  -7732339.097 6  20798332.819          38.000       -2230.869
  13462720.059 6  24783865.458          40.000       -3932.376
  -1576233.852 7  23623361.587          44.000       -2654.447
 117426011.198 6  38429734.058          40.000        -559.274
    213462.519 7  23349189.891          43.000       -2946.948
  22828158.098 7  23321440.380          44.000       -3697.311
 -16207773.360 7  19955202.637          46.000        -712.761
 16  9 14  6 45  0.0000000  0 10G26G21G31G25G32G02S20G14G12G29
  -2857820.68115  23747768.255          33.000        2451.353
  -3786476.328 7  23881277.568          44.000        2539.090
  -8415988.964 7  21032940.544          47.000         453.656
  -7597794.334 7  20823940.717          42.000       -2253.424
  13698695.797 7  24828769.876          42.000       -3932.741
  -1416168.432 7  23653822.827          46.000       -2681.117
 117459558.985 6  38436119.564          40.000        -558.626
    390995.001 7  23382972.396          42.000       -2970.190
  23050231.807 7  23363703.342          45.000       -3705.023
 -16164013.324 7  19963531.015          46.000        -745.824
 16  9 14  6 46  0.0000000  0 10G26G21G31G25G32G02S20G14G12G29
  -3004516.67615  23719849.983          35.000        2441.005
  -3938474.395 6  23852349.713          40.000        2527.351
  -8442099.669 8  21027971.717          48.000         416.786
  -7461863.243 6  20849797.263          36.000       -2278.256
  13934840.144 7  24873705.950          42.000       -3938.035
  -1254463.630 7  23684593.494          46.000       -2709.622
 117493162.828 6  38442513.149          40.000        -561.977
    569988.987 7  23417034.976          43.000       -2995.672
  23272867.183 6  23406050.274          36.000       -3715.748
 -16118222.111 7  19972244.223          46.000        -781.237
 16  9 14  6 47  0.0000000  0 10G26G21G31G25G32G02S20G14G12G29
  -3150748.909 6  23692026.344          39.000        2433.883
  -4089791.929 6  23823550.433          39.000        2515.711
  -8466027.069 8  21023419.670          48.000         380.488
  -7324489.132 7  20875949.451          42.000       -2301.348
  14171190.245 7  24918684.200          43.000       -3941.438
  -1091073.957 7  23715685.384          46.000       -2737.146
 117526878.326 6  38448929.263          40.000        -563.251
    750483.077 7  23451381.402          42.000       -3021.043
  23496119.455 7  23448552.739          43.000       -3726.084
 -16070345.564 7  19981354.545          45.000        -815.353
 16  9 14  6 48  0.0000000  0 10G26G21G31G25G32G02S20G14G12G29
  -3296502.831 6  23664289.328          39.000        2424.629
  -4240402.710 7  23794894.017          42.000        2503.305
  -8487753.443 8  21019285.120          48.000         343.563
  -7185669.767 6  20902359.239          37.000       -2325.986
  14407728.767 7  24963693.948          42.000       -3944.312
   -926007.781 7  23747098.324          46.000       -2765.045
 117560717.644 6  38455369.702          40.000        -564.108
    932461.356 6  23486011.115          41.000       -3044.797
  23719988.656 7  23491156.975          45.000       -3735.843
 -16020384.298 7  19990863.169          45.000        -850.271
 16  9 14  6 49  0.0000000  0 10G26G21G31G25G32G02S20G14G12G29
  -3441736.574 6  23636652.807          40.000        2416.913
  -4390254.513 7  23766380.483          42.000        2492.311
  -8507234.762 8  21015577.752          48.000         306.816
  -7045375.692 6  20929060.846          40.000       -2349.840
  14644465.883 7  25008747.060          43.000       -3945.972
   -759245.796 7  23778831.772          46.000       -2792.612
 117594703.848 6  38461836.369          40.000        -566.674
   1115934.447 6  23520922.038          41.000       -3069.209
  23944502.464 5  23533887.306          35.000       -3747.133
 -15968312.061 7  20000773.183          47.000        -884.508
 16  9 14  6 50  0.0000000  0 10G26G21G31G25G32G02S20G14G12G29
  -3586563.341 6  23609093.678          41.000        2410.243
  -4539449.665 7  23737989.432          43.000        2481.000
  -8524582.128 8  21012277.148          49.000         271.511
  -6903732.358 5  20956009.828          35.000       -2371.240
  14881256.793 6  25053805.075          41.000       -3946.808
   -590925.741 7  23810862.536          47.000       -2817.773
 117628710.461 6  38468306.787          40.000        -566.251
   1300758.869 7  23556096.564          43.000       -3091.496
  24169534.39616  23576711.868          41.000       -3754.431
 -15914258.209 7  20011055.636          44.000        -917.077
 16  9 14  6 51  0.0000000  0 10G26G21G31G25G32G02S20G14G12G29
  -3730928.914 6  23581614.908          40.000        2401.532
  -4687923.505 6  23709730.096          41.000        2467.829
  -8539739.647 8  21009393.081          48.000         233.492
  -6760698.816 6  20983232.604          38.000       -2395.571
  15118123.752 6  25098883.908          41.000       -3949.557
   -421016.903 7  23843194.841          47.000       -2846.009
 117662792.944 6  38474792.614          40.000        -570.239
   1486956.026 7  23591527.574          42.000       -3115.638
  24395122.638 7  23619636.210          45.000       -3765.511
 -15858183.938 7  20021728.259          46.000        -952.148
 16  9 14  6 52  0.0000000  0 10G26G21G31G25G32G02S20G14G12G29
  -3874748.648 7  23554255.636          43.000        2392.507
  -4835580.565 7  23681635.019          42.000        2454.102
  -8552620.891 8  21006940.819          48.000         196.322
  -6616202.759 5  21010719.419          35.000       -2419.571
  15355119.657 6  25143981.640          38.000       -3951.536
   -249459.105 7  23875841.825          46.000       -2872.136
 117697034.089 6  38481308.613          40.000        -571.396
   1674579.969 7  23627231.784          42.000       -3138.507
  24621338.257 6  23662686.054          41.000       -3774.305
 -15800021.198 7  20032795.746          45.000        -985.840
 16  9 14  6 53  0.0000000  0 10G26G21G31G25G32G02S20G14G12G29
  -4018152.115 7  23526965.450          43.000        2386.551
  -4982540.474 7  23653671.254          43.000        2443.475
  -8563354.273 8  21004898.620          49.000         161.145
  -6470386.969 6  21038470.553          37.000       -2440.439
  15592083.278 6  25189074.137          36.000       -3948.700
    -76405.492 7  23908772.968          46.000       -2895.913
 117731288.967 6  38487826.758          40.000        -570.640
   1863469.278 7  23663176.545          43.000       -3158.695
  24848037.30315  23705847.894          32.000       -3783.312
 -15739916.449 7  20044230.646          44.000       -1017.628
 16  9 14  6 54  0.0000000  0 10G26G21G31G25G32G02S20G14G12G29
  -4161062.867 7  23499769.198          43.000        2377.146
  -5128716.802 7  23625853.583          43.000        2429.057
  -8571862.865 8  21003279.222          48.000         122.845
  -6323188.001 6  21066486.406          37.000       -2465.903
  15829059.434 5  25234167.594          35.000       -3950.818
     98195.495 7  23941997.816          46.000       -2923.658
 117765630.572 6  38494362.772          40.000        -573.857
   2053668.443 7  23699371.769          44.000       -3181.521
  25075280.918 6  23749070.530          39.000       -3792.942
 -15677809.961 7  20056050.604          44.000       -1052.341
 16  9 14  6 55  0.0000000  0  9G26G21G31G25G02S20G14G12G29
  -4303440.623 7  23472674.856          44.000        2369.590
  -5274059.097 6  23598191.812          40.000        2416.827
  -8578106.231 8  21002092.730          49.000          85.915
  -6174579.015 6  21094764.449          37.000       -2487.200
    274359.159 7  23975521.465          46.000       -2948.476
 117800080.904 6  38500917.632          39.000        -574.213
   2245185.515 7  23735816.880          44.000       -3201.787
  25303095.101 7  23792419.262          43.000       -3800.942
 -15613679.211 7  20068256.246          46.000       -1084.679
 16  9 14  6 56  0.0000000  0  9G26G21G31G25G02S20G14G12G29
  -4445338.177 7  23445672.529          45.000        2360.591
  -5418610.068 6  23570683.707          40.000        2402.299
  -8582136.478 8  21001324.885          48.000          48.179
  -6024625.901 5  21123296.271          35.000       -2511.815
    452008.493 7  24009324.927          44.000       -2973.841
 117834573.217 6  38507480.746          39.000        -575.807
   2437935.315 7  23772495.702          45.000       -3223.294
  25531412.424 7  23835865.679          42.000       -3810.116
 -15547593.555 7  20080833.298          46.000       -1117.949
 16  9 14  6 57  0.0000000  0  9G26G21G31G25G02S20G14G12G29
  -4586713.582 7  23418771.936          46.000        2352.617
  -5562318.480 7  23543341.694          43.000        2388.455
  -8583912.213 7  21000985.374          47.000          10.929
  -5873300.583 5  21152088.554          33.000       -2533.740
    631159.885 7  24043416.650          43.000       -2997.292
 117869146.829 6  38514060.054          39.000        -576.064
   2631927.863 7  23809410.416          44.000       -3243.101
  25760259.279 5  23879434.179          31.000       -3816.943
 -15479529.711 7  20093781.604          44.000       -1149.828
 16  9 14  6 58  0.0000000  0 10G26G21G31G25G32G02S20G14G12G29
  -4727626.232 7  23391956.745          47.000        2344.881
  -5705234.049 7  23516146.036          42.000        2375.518
  -8583493.944 8  21001066.064          48.000         -25.332
  -5720675.864 6  21181136.937          36.000       -2554.101
  16775802.55614  25414492.787          25.000       -3944.369
    811729.139 7  24077777.699          43.000       -3021.465
 117903726.450 6  38520640.793          39.000        -576.321
   2827070.857 7  23846544.916          44.000       -3261.738
  25989562.09516  23923043.599          40.000       -3824.818
 -15409564.591 7  20107098.459          45.000       -1181.559
 16  9 14  6 59  0.0000000  0 10G26G21G31G25G32G02S20G14G12G29
  -4867980.585 7  23365246.307          46.000        2334.174
  -5847251.225 6  23489118.598          41.000        2359.304
  -8580787.098 8  21001582.381          49.000         -64.687
  -5566670.228 6  21210448.417          41.000       -2578.107
  17012461.53713  25459515.675          22.000       -3949.365
    993785.868 7  24112422.785          44.000       -3047.814
 117938409.648 6  38527240.727          39.000        -579.990
   3023426.238 7  23883910.003          42.000       -3283.277
  26219400.729 7  23966781.139          43.000       -3835.968
 -15337620.972 7  20120787.945          44.000       -1216.387
 16  9 14  7  1  0.0000000  0 10G26G21G31G25G32G02S20G14G12G29
  -5146993.461 7  23312150.408          46.000        2313.326
  -6128534.133 6  23435591.800          40.000        2326.532
  -8568492.512 7  21003921.129          47.000        -142.688
  -5254550.891 6  21269841.175          39.000       -2625.776
  17485407.89413  25549531.367          20.000       -3934.078
   1362280.206 7  24182546.468          43.000       -3097.352
 118008076.023 6  38540497.745          39.000        -583.574
   3419665.471 6  23959311.539          40.000       -3323.504
  26680646.69214  24054585.679          29.000       -3854.592
 -15187851.600 7  20149287.728          45.000       -1282.902
 16  9 14  7  2  0.0000000  0 10G26G21G31G25G32G02S20G14G12G29
  -5285470.628 8  23285801.294          48.000        2303.197
  -6267600.626 7  23409129.434          43.000        2309.545
  -8558727.813 7  21005778.285          47.000        -181.843
  -5096284.239 6  21299954.597          38.000       -2649.305
  17721858.82612  25594534.466          14.000       -3940.271
   1548847.159 7  24218045.900          42.000       -3121.152
 118043206.044 6  38547183.569          40.000        -587.018
   3619663.499 6  23997370.097          41.000       -3342.757
  26912204.63916  24098628.615          38.000       -3863.702
 -15109882.240 7  20164126.137          46.000       -1315.881
 16  9 14  7  3  0.0000000  0 10G26G21G31G25G32G02S20G14G12G29
  -5423401.301 8  23259554.073          48.000        2294.862
  -6405744.523 7  23382842.042          43.000        2295.548
  -8546694.240 7  21008068.138          47.000        -218.740
  -4936705.107 6  21330324.084          40.000       -2669.832
  17958125.82113  25639466.909          20.000       -3945.935
   1736786.537 6  24253808.550          41.000       -3143.266
 118078385.946 6  38553876.984          39.000        -586.055
   3820729.910 7  24035632.457          43.000       -3359.668
  27144225.545 6  24142777.596          39.000       -3869.894
 -15030021.875 7  20179322.816          45.000       -1345.472
 16  9 14  7  4  0.0000000  0 10G26G21G31G25G32G02S20G14G12G29
  -5560834.754 8  23233401.519          48.000        2285.776
  -6543006.465 7  23356720.585          43.000        2280.160
  -8532444.309 7  21010780.513          47.000        -256.452
  -4775877.180 6  21360928.991          40.000       -2691.309
  18193982.70513  25684370.874          18.000       -3928.117
   1926022.185 6  24289818.802          41.000       -3164.989
 118113550.264 6  38560567.711          39.000        -586.523
   4022781.728 7  24074081.481          42.000       -3376.286
  27376645.110 6  24187003.760          40.000       -3877.274
 -14948339.063 7  20194865.236          43.000       -1376.861
 16  9 14  7  5  0.0000000  0  9G26G21G31G25G02S20G14G12G29
  -5697682.713 7  23207357.627          47.000        2276.045
  -6679290.159 7  23330788.828          44.000        2263.774
  -8515893.210 8  21013929.265          48.000        -295.116
  -4613727.117 7  21391787.171          42.000       -2713.107
   2116616.255 6  24326089.673          41.000       -3187.898
 118148789.023 6  38567272.940          39.000        -588.969
   4225873.122 7  24112730.503          43.000       -3393.062
  27609535.308 6  24231318.256          40.000       -3885.951
 -14864765.095 7  20210766.171          42.000       -1408.716
 16  9 14  7  6  0.0000000  0 10G26G21G31G25G32G02S20G14G12G29
  -5833959.520 7  23181426.115          47.000        2266.487
  -6814601.232 7  23305039.043          42.000        2247.228
  -8497059.015 8  21017515.023          49.000        -333.192
  -4450283.923 6  21422888.031          41.000       -2734.773
  18664880.80512  25774003.813          16.000       -3910.702
   2308527.332 7  24362611.862          43.000       -3209.275
 118184082.059 6  38573990.419          39.000        -588.554
   4429955.881 7  24151566.538          43.000       -3409.383
  27842866.080 6  24275726.757          37.000       -3892.088
 -14779334.841 7  20227026.563          44.000       -1438.785
 16  9 14  7  7  0.0000000  0 10G26G21G31G25G32G02S20G14G12G29
  -5969596.785 7  23155614.870          47.000        2254.997
  -6948863.968 6  23279484.717          39.000        2228.253
  -8475877.853 8  21021545.587          48.000        -373.241
  -4285494.241 6  21454246.177          41.000       -2758.333
  18899958.76813  25818744.828          19.000       -3916.076
   2501796.952 7  24399389.574          42.000       -3232.981
 118219483.860 6  38580728.506          40.000        -591.292
   4635064.162 7  24190597.178          42.000       -3427.415
  28076690.630 5  24320230.780          32.000       -3901.271
 -14691999.725 7  20243645.051          44.000       -1471.579
 16  9 14  7  8  0.0000000  0  9G26G21G31G25G02S20G14G12G29
  -6104615.049 7  23129921.291          47.000        2245.953
  -7082090.296 6  23254132.186          39.000        2212.146
  -8452374.563 8  21026016.612          48.000        -410.823
  -4119393.584 7  21485856.269          42.000       -2778.794
   2696378.133 6  24436415.499          41.000       -3253.132
 118254968.440 6  38587482.055          40.000        -591.198
   4841143.928 7  24229812.948          43.000       -3441.740
  28310972.37615  24364806.227          31.000       -3907.736
 -14602800.437 7  20260620.169          45.000       -1501.410
 16  9 14  7  9  0.0000000  0  9G26G21G31G25G02S20G14G12G29
  -6239068.473 7  23104336.724          46.000        2235.605
  -7214326.789 6  23228969.321          40.000        2194.626
  -8426608.529 8  21030920.420          48.000        -448.832
  -3952051.537 7  21517700.822          43.000       -2800.147
   2892188.958 6  24473678.310          40.000       -3273.748
 118290463.054 6  38594236.266          40.000        -592.212
   5048106.044 7  24269194.407          42.000       -3457.252
  28545641.02515  24409450.114          33.000       -3914.610
 -14511812.159 7  20277934.398          44.000       -1532.061
 16  9 14  7 10  0.0000000  0  9G26G21G31G25G02S20G14G12G29
  -6372896.546 7  23078869.074          45.000        2225.321
  -7345505.029 6  23204011.216          41.000        2178.200
  -8398524.542 8  21036264.444          48.000        -487.027
  -3783422.901 7  21549788.160          44.000       -2820.728
   3089262.675 6  24511178.200          37.000       -3294.806
 118326011.852 6  38601000.023          40.000        -591.974
   5255976.775 7  24308750.962          43.000       -3471.010
  28780741.159 6  24454194.165          36.000       -3920.989
 -14418995.542 7  20295596.601          44.000       -1562.038
 16  9 14  7 11  0.0000000  0  9G26G21G31G25G02S20G14G12G29
  -6506128.890 7  23053516.490          45.000        2215.085
  -7475647.788 7  23179246.705          42.000        2159.612
  -8368158.455 8  21042044.707          50.000        -525.481
  -3613552.932 7  21582113.083          43.000       -2841.825
   3287542.575 6  24548909.898          39.000       -3315.041
 118361584.529 6  38607769.486          40.000        -593.430
   5464692.089 7  24348468.269          44.000       -3485.750
  29016226.29914  24499009.657          29.000       -3928.542
 -14324400.913 7  20313594.511          43.000       -1591.819
 16  9 14  7 12  0.0000000  0  9G26G21G31G25G02S20G14G12G29
  -6638707.055 7  23028288.606          45.000        2203.735
  -7604689.032 6  23154689.694          41.000        2141.469
  -8335457.899 8  21048266.564          49.000        -564.569
  -3442398.736 7  21614686.061          43.000       -2863.719
   3487059.099 6  24586877.785          41.000       -3335.546
 118397235.858 6  38614555.003          40.000        -596.224
   5674275.416 7  24388349.450          43.000       -3500.047
  29252121.60714  24543924.598          26.000       -3935.894
 -14227991.121 7  20331946.137          46.000       -1621.912
 16  9 14  7 13  0.0010000  0  9G26G21G31G25G02S20G14G12G29
  -6770621.708 7  23003184.426          45.000        2192.630
  -7732612.425 7  23130344.826          42.000        2122.530
  -8300417.213 8  21054934.990          49.000        -603.804
  -3269961.928 7  21647496.519          43.000       -2884.501
   3687799.577 6  24625078.493          40.000       -3355.562
 118432960.375 6  38621354.917          40.000        -596.461
   5884707.120 7  24428395.501          44.000       -3514.129
  29488460.89214  24588884.106          29.000       -3945.577
 -14129774.616 7  20350632.022          43.000       -1652.580
 16  9 14  7 14  0.0010000  0  8G26G21G31G25G02S20G14G29
  -6901842.806 7  22978216.811          47.000        2180.867
  -7859381.002 6  23106220.807          40.000        2103.119
  -8263019.366 8  21062051.154          49.000        -643.347
  -3096238.538 7  21680557.475          45.000       -2906.090
   3889754.881 6  24663511.673          41.000       -3376.087
 118468778.886 6  38628169.960          41.000        -597.831
   6095971.435 7  24468597.121          44.000       -3528.114
 -14029750.444 7  20369666.493          44.000       -1682.355
 16  9 14  7 15  0.0010000  0  9G26G21G31G25G02S20G14G12G29
  -7032301.842 7  22953388.258          47.000        2167.855
  -7984920.081 6  23082333.396          41.000        2082.155
  -8223200.640 8  21069627.079          48.000        -683.666
  -2921171.059 7  21713869.452          43.000       -2928.756
   4092971.388 7  24702183.432          42.000       -3396.416
 118504742.202 6  38635013.045          41.000        -599.974
   6308106.536 7  24508964.762          44.000       -3542.315
  29961997.59315  24679080.199          31.000       -3956.876
 -13927868.348 7  20389054.889          44.000       -1712.824
 16  9 14  7 16  0.0010000  0  9G26G21G31G25G02S20G14G12G29
  -7161993.592 8  22928710.334          48.000        2154.435
  -8109217.552 6  23058678.544          41.000        2060.304
  -8180963.687 8  21077664.370          48.000        -725.057
  -2744770.653 7  21747438.279          45.000       -2951.333
   4297426.172 6  24741088.413          40.000       -3418.314
 118540838.548 6  38641882.428          41.000        -603.977
   6521083.092 7  24549489.018          42.000       -3557.025
  30199726.03215  24724325.594          34.000       -3966.432
 -13824145.420 7  20408792.551          44.000       -1744.602
 16  9 14  7 17  0.0010000  0 10G26G21G31G25G05G02S20G14G12G29
  -7290942.589 8  22904172.274          48.000        2143.806
  -8232292.136 7  23035260.701          42.000        2041.696
  -8136341.161 8  21086157.601          49.000        -762.474
  -2567078.219 7  21781254.532          45.000       -2971.881
    -72025.44615  25021495.910          31.000        1192.856
   4503065.698 5  24780216.443          35.000       -3435.999
 118577043.913 6  38648771.146          40.000        -603.295
   6734841.133 7  24590169.420          42.000       -3567.709
  30437888.11216  24769647.230          36.000       -3973.381
 -13718628.367 7  20428871.714          44.000       -1772.807
 16  9 14  7 18  0.0010000  0 10G26G21G31G25G05G02S20G14G12G29
  -7419261.707 8  22879752.981          48.000        2132.972
  -8354250.433 7  23012052.417          42.000        2023.001
  -8089455.461 8  21095079.565          49.000        -800.733
  -2388223.280 7  21815286.418          45.000       -2990.982
   -142765.66615  25008035.911          32.000        1165.184
   4709749.889 5  24819546.686          34.000       -3451.604
 118613240.231 6  38655659.898          40.000        -604.670
   6949232.616 6  24630968.186          41.000       -3578.137
  30676353.344 5  24815026.067          33.000       -3978.799
 -13611452.052 7  20449267.738          45.000       -1800.761
 16  9 14  7 19  0.0010000  0 10G26G21G31G25G05G02S20G14G12G29
  -7546847.284 8  22855475.993          49.000        2119.071
  -8474983.226 7  22989078.211          43.000        2000.753
  -8040211.620 8  21104449.442          48.000        -841.724
  -2208118.832 7  21849561.158          45.000       -3013.844
   -211868.89515  24994887.678          34.000        1138.949
   4917553.313 6  24859100.501          37.000       -3475.005
 118649513.435 6  38662564.060          41.000        -607.224
   7164326.637 6  24671893.798          38.000       -3591.833
  30915209.48815  24860474.845          35.000       -3985.311
 -13502535.567 7  20469993.222          44.000       -1830.558
 16  9 14  7 20  0.0010000  0 10G26G21G31G25G05G02S20G14G12G29
  -7673588.762 7  22831357.297          47.000        2105.438
  -8594374.062 7  22966356.457          43.000        1979.244
  -7988508.939 8  21114289.585          49.000        -881.848
  -2026671.165 7  21884089.014          45.000       -3035.503
   -279215.07615  24982064.787          33.000        1108.398
   5126557.245 6  24898866.075          36.000       -3493.353
 118685968.419 6  38669499.753          41.000        -609.448
   7380197.268 6  24712978.730          41.000       -3604.202
  31154548.435 6  24906020.455          39.000       -3992.858
 -13391791.755 7  20491065.494          43.000       -1860.766
 16  9 14  7 21  0.0010000  0 10G26G21G31G25G05G02S20G14G12G29
  -7799438.092 7  22807409.369          47.000        2089.080
  -8712369.407 7  22943902.721          43.000        1954.094
  -7934309.267 8  21124602.664          49.000        -924.853
  -1843849.115 7  21918878.257          44.000       -3059.539
   -344747.41516  24969602.400          39.000        1076.159
   5336782.569 5  24938872.322          35.000       -3514.828
 118722633.739 6  38676477.589          40.000        -613.231
   7596857.437 7  24754209.616          42.000       -3617.960
  31394401.972 6  24951668.828          36.000       -4003.190
 -13279195.044 7  20512494.239          45.000       -1893.358
 16  9 14  7 22  0.0000000  0 10G26G21G31G25G05G02S20G14G12G29
  -7924360.623 7  22483846.262          47.000        2074.726
  -8828929.748 7  22621929.102          43.000        1931.065
  -7877588.882 8  20835603.431          49.000        -966.392
  -1659635.362 7  21654142.853          46.000       -3081.556
   -408421.422 6  24657694.765          39.000        1046.116
   5548234.332 6  24679315.078          36.000       -3533.082
 118759525.952 6  38383705.165          41.000        -616.328
   7814305.947 6  24495795.065          41.000       -3630.316
  31634788.041 5  24697612.016          34.000       -4010.984
 -13164734.273 7  20234483.914          44.000       -1922.844
