     2.10           OBSERVATION DATA    G (GPS)             RINEX VERSION / TYPE
teqc  2006Dec12     IGN-RGP             20160915 20:10:02UTCPGM / RUN BY / DATE
Linux 2.4.20-8|Pentium IV|gcc|Linux|486/DX+                 COMMENT
     2.11           OBSERVATION DATA    G (GPS)             COMMENT
teqc  2013Mar15     Observatoire de Pari20160915 00:52:20UTCCOMMENT
Linux 2.4.21-27.ELsmp|Opteron|gcc|Linux x86_64|=+           COMMENT
BIT 2 OF LLI FLAGS DATA COLLECTED UNDER A/S CONDITION       COMMENT
OPMT                                                        MARKER NAME
10001S006                                                   MARKER NUMBER
Automatic           BNM-SYRTE                               OBSERVER / AGENCY
02942               ASHTECH Z-XII3T     1L01-1D04           REC # / TYPE / VERS
00019               3S-02-TSADM     NONE                    ANT # / TYPE
  4202777.6220   171367.7610  4778659.9840                  APPROX POSITION XYZ
        0.0000        0.0000        0.0000                  ANTENNA: DELTA H/E/N
     1     1                                                WAVELENGTH FACT L1/2
     7    L1    L2    C1    P1    P2    S1    S2            # / TYPES OF OBSERV
 SNR is mapped to RINEX snr flag value [0-9]                COMMENT
  L1 & L2: min(max(int(snr_dBHz/6), 0), 9)                  COMMENT
pseudorange smoothing corrections not applied               COMMENT
  2016     9    14     0     0    0.0000000     GPS         TIME OF FIRST OBS
                                                            END OF HEADER
 16  9 14  0  0  0.0000000  0  9G18G13G 5G28G30G24G 8G15G20
  -1523244.99742  -1175533.34845  24641070.140    24641069.9634   24641072.3984
        37.3004         35.2004
 -19605810.87346 -15262615.49247  20117287.391    20117287.2874   20117288.5624
        49.3004         46.6004
  -1503932.73045  -1159315.29046  22594676.025    22594676.6364   22594680.4924
        44.2004         41.6004
 -12487397.50646  -9712580.34847  21402301.805    21402301.7694   21402303.7414
        47.0004         44.2004
  -6865933.86444  -5334985.49946  22927830.475    22927831.1904   22927835.4614
        42.0004         39.3004
  -1648967.61243  -1274982.59246  23597248.497    23597248.1594   23597254.2914
        39.0004         36.9004
                     28180.55454  25264197.998
                        27.7004
 -12463222.66246  -9690307.43947  21151629.613    21151629.7314   21151631.5774
        48.4004         45.6004
  -9701763.26046  -7536463.96347  21337620.693    21337620.2044   21337622.2914
        46.5004         43.5004
 16  9 14  0  0 30.0000000  0  9G18G13G 5G28G30G24G 8G15G20
  -1607289.44042  -1241022.52445  24625077.803    24625075.0434   24625077.8314
        37.3004         35.2004
 -19610228.31746 -15266057.66047  20116446.666    20116446.8074   20116447.8634
        49.3004         46.6004
  -1407027.95045  -1083805.08846  22613117.038    22613117.5454   22613120.3754
        44.4004         41.8004
 -12472250.80046  -9700777.70447  21405184.493    21405183.8134   21405186.1684
        47.0004         44.0004
  -6775927.49844  -5264850.67346  22944960.049    22944959.0564   22944963.4964
        42.2004         39.5004
  -1744522.40843  -1349440.86346  23579065.459    23579066.0644   23579071.5644
        39.6004         37.3004
                     57508.54454  25271347.504
                        29.8004
 -12520880.41246  -9735235.55047  21140657.429    21140657.7124   21140659.7594
        48.4004         45.6004
  -9691952.83945  -7528819.49047  21339487.582    21339487.3384   21339489.5694
        46.3004         43.7004
 16  9 14  0  1  0.0000000  0  9G18G13G 5G28G30G24G 8G15G20
  -1691072.56642  -1306308.09445  24609134.449    24609132.9224   24609133.6114
        37.1004         35.0004
 -19614212.83146 -15269162.48047  20115688.303    20115688.3174   20115689.5954
        49.3004         46.6004
  -1309842.59345  -1008076.25346  22631611.499    22631611.9454   22631614.0584
        44.4004         41.8004
 -12456568.23446  -9688557.51347  21408169.128    21408168.6164   21408170.4394
        46.9004         44.2004
  -6685779.84844  -5194605.76846  22962113.260    22962114.0784   22962117.7164
        42.0004         39.2004
  -1839914.33743  -1423772.22546  23560913.742    23560913.9224   23560917.8074
        39.6004         37.1004
                     87235.07854  25278597.843
                        29.6004
 -12578182.36346  -9779886.42147  21129753.384    21129753.8334   21129755.5054
        48.4004         45.6004
  -9681534.02346  -7520700.94847  21341470.936    21341470.1624   21341472.1964
        46.7004         43.9004
 16  9 14  0  1 30.0000000  0  9G18G13G 5G28G30G24G 8G15G20
  -1774591.57042  -1371387.80145  24593241.290    24593241.6364   24593241.8724
        37.1004         35.0004
 -19617763.77846 -15271929.45447  20115012.959    20115012.7364   20115014.2434
        49.3004         46.8004
  -1212379.44845   -932130.95846  22650157.660    22650157.8884   22650161.3834
        44.4004         41.6004
 -12440350.74746  -9675920.50447  21411254.612    21411254.6224   21411256.3024
        46.9004         44.0004
  -6595492.38144  -5124251.91446  22979295.493    22979294.3944   22979299.3514
        42.0004         39.3004
  -1935142.13543  -1497975.64546  23542792.498    23542792.3154   23542795.3434
        39.4004         36.9004
                     27334.95354  25285938.564
                        25.4004
 -12635126.99946  -9824258.86047  21118917.322    21118917.7294   21118919.5994
        48.6004         45.8004
  -9670506.83546  -7512108.34647  21343569.419    21343568.3144   21343570.6924
        46.7004         43.7004
 16  9 14  0  2  0.0000000  0  8G18G13G 5G28G30G24G15G20
  -1857844.67942  -1436260.34445  24577397.789    24577397.5984   24577398.1064
        36.8004         34.6004
 -19620880.46646 -15274358.04047  20114419.147    20114419.3784   20114421.0044
        49.3004         46.6004
  -1114641.55645   -855971.58246  22668757.139    22668756.9494   22668759.9094
        44.2004         41.4004
 -12423598.89046  -9662867.10547  21414442.669    21414441.8614   21414444.0574
        46.9004         44.0004
  -6505066.49144  -5053790.20446  22996502.457    22996502.1894   22996506.3524
        42.0004         39.3004
  -2030204.80243  -1572050.40646  23524700.705    23524700.8574   23524707.9804
        39.2004         36.9004
 -12691712.72446  -9868351.63047  21108149.380    21108149.8104   21108151.7064
        48.6004         45.8004
  -9658871.70346  -7503042.01547  21345782.412    21345782.0614   21345784.3644
        46.5004         43.3004
 16  9 14  0  2 30.0000000  0  8G18G13G 5G28G30G24G15G20
  -1940829.96342  -1500924.21745  24561605.875    24561605.2584   24561608.4754
        36.8004         35.0004
 -19623562.00946 -15276447.56147  20113909.216    20113909.3434   20113910.6854
        49.3004         46.6004
  -1016631.10545   -779599.81446  22687407.171    22687407.7524   22687409.7224
        44.1004         41.2004
 -12406313.77346  -9649398.17247  21417731.399    21417730.8544   21417733.3654
        46.9004         44.0004
  -6414503.66144  -4983221.77546  23013735.172    23013735.1044   23013739.6404
        41.8004         39.2004
  -2125101.06443  -1645995.54946  23506641.870    23506643.6724   23506649.6674
        39.4004         37.1004
 -12747937.82446  -9912163.40447  21097450.790    21097450.7364   21097452.4194
        48.8004         45.9004
  -9646629.18245  -7493502.41147  21348112.315    21348112.0184   21348114.5194
        46.3004         43.5004
 16  9 14  0  3  0.0000000  0  8G18G13G 5G28G30G24G15G20
  -2023544.72842  -1565377.28845  24545867.469    24545867.1194   24545868.1464
        37.1004         35.2004
 -19625807.96946 -15278197.66647  20113481.775    20113481.6624   20113483.5454
        49.3004         46.6004
   -918350.73045   -703017.72446  22706109.679    22706110.3594   22706112.3414
        43.9004         41.2004
 -12388496.26046  -9635514.38847  21421121.572    21421121.3544   21421124.2224
        47.0004         44.0004
  -6323805.32244  -4912547.76446  23030995.707    23030994.5404   23030999.1034
        41.8004         39.2004
  -2219830.21043  -1719810.42646  23488617.064    23488617.1664   23488622.9164
        39.4004         37.1004
 -12803800.78846  -9955692.98047  21086819.825    21086819.9954   21086822.2054
        48.8004         45.9004
  -9633780.03645  -7483490.10247  21350557.792    21350556.4374   21350560.0354
        46.3004         43.5004
 16  9 14  0  3 30.0000000  0  8G18G13G 5G28G30G24G15G20
  -2105986.98642  -1629618.01145  24530178.415    24530175.6724   24530178.5554
        36.8004         34.6004
 -19627617.59846 -15279607.77147  20113137.246    20113137.3954   20113138.9384
        49.3004         46.6004
   -819803.18145   -626227.43346  22724863.605    22724862.4174   22724864.6044
        43.9004         41.2004
 -12370147.62546  -9621216.73747  21424613.403    21424613.1624   21424615.8374
        47.0004         44.2004
  -6232972.84644  -4841769.22546  23048279.492    23048279.9364   23048285.1834
        41.8004         39.3004
  -2314391.56843  -1793494.54746  23470622.047    23470622.3754   23470627.5534
        39.4004         36.9004
 -12859300.14146  -9998939.23147  21076258.990    21076259.0714   21076260.9864
        48.8004         45.9004
  -9620324.63945  -7473005.38447  21353117.815    21353117.5654   21353120.3474
        46.3004         43.5004
 16  9 14  0  4  0.0000000  0  8G18G13G 5G28G30G24G15G20
  -2188154.66542  -1693644.73645  24514541.377    24514542.7804   24514543.0964
        36.4004         34.6004
 -19628990.22946 -15280677.36247  20112876.163    20112876.1534   20112878.0464
        49.5004         46.8004
   -720991.52845   -549231.35746  22743665.142    22743665.8664   22743668.0484
        43.9004         41.1004
 -12351268.41246  -9606505.65947  21428206.890    21428206.4204   21428208.4244
        47.2004         44.4004
  -6142007.69244  -4770887.30946  23065588.860    23065588.8444   23065594.4974
        41.6004         38.8004
  -2408783.54943  -1867046.71246  23452661.074    23452661.5364   23452666.5004
        39.6004         37.3004
 -12914434.13046 -10041900.77947  21065767.279    21065767.3824   21065769.4134
        48.8004         45.9004
  -9606263.51545  -7462048.67447  21355793.861    21355792.6354   21355795.4534
        46.2004         43.2004
 16  9 14  0  4 30.0000000  0  8G18G13G 5G28G30G24G15G20
  -2270045.32042  -1757455.61045  24498959.284    24498958.5924   24498961.1304
        36.4004         34.5004
 -19629925.05146 -15281405.79947  20112698.772    20112698.7794   20112700.2504
        49.5004         46.8004
   -621918.06045   -472031.26446  22762520.173    22762519.7684   22762521.9994
        43.7004         40.9004
 -12331859.82246  -9591382.06547  21431899.914    21431899.4034   21431902.0984
        47.2004         44.2004
  -6050911.30144  -4699903.13346  23082924.345    23082924.6254   23082929.2994
        41.8004         39.0004
  -2503005.99543  -1940466.76746  23434731.019    23434731.9444   23434736.1054
        40.1004         37.6004
 -12969201.06646 -10084576.31447  21055345.109    21055345.5114   21055347.1444
        48.8004         45.8004
  -9591597.23945  -7450620.41947  21358584.317    21358583.6134   21358586.9624
        46.2004         43.2004
 16  9 14  0  5  0.0000000  0  8G18G13G 5G28G30G24G15G20
  -2351656.90142  -1821049.06645  24483429.482    24483428.8584   24483429.1164
        36.3004         34.5004
 -19630421.46646 -15281792.62147  20112604.094    20112604.2974   20112605.6564
        49.5004         46.8004
   -522585.64345   -394629.40246  22781420.564    22781421.4824   22781424.0484
        43.6004         40.7004
 -12311922.50346  -9575846.48747  21435693.370    21435692.9684   21435695.3534
        47.0004         44.0004
  -5959685.05344  -4628817.76346  23100284.665    23100284.1354   23100289.7674
        41.6004         39.0004
  -2597057.35843  -2013753.52046  23416832.775    23416832.9914   23416838.6054
        40.1004         37.6004
 -13023599.42146 -10126964.64647  21044993.685    21044993.8314   21044995.4474
        48.6004         45.8004
  -9576326.81945  -7438721.40547  21361490.317    21361489.3524   21361492.2304
        46.2004         43.3004
 16  9 14  0  5 30.0000000  0  8G18G13G 5G28G30G24G15G20
  -2432986.89042  -1884423.06145  24467953.053    24467954.2784   24467955.1974
        35.9004         34.0004
 -19630478.95646 -15281837.42147  20112593.244    20112593.1754   20112594.5974
        49.5004         46.8004
   -422996.67744   -317027.62546  22800372.503    22800372.9564   22800375.0694
        43.4004         40.7004
 -12291457.58046  -9559899.77947  21439588.132    21439587.5544   21439589.7444
        47.0004         44.2004
  -5868330.33544  -4557632.30246  23117668.888    23117668.5664   23117672.3274
        41.5004         38.6004
  -2690936.89143  -2086906.38746  23398967.635    23398968.0414   23398973.5054
        39.9004         37.4004
 -13077627.62146 -10169064.53947  21034712.479    21034712.4824   21034714.7764
        48.8004         45.8004
  -9560452.39045  -7426351.73347  21364511.226    21364511.0624   21364513.0534
        46.3004         43.5004
 16  9 14  0  6  0.0000000  0  8G18G13G 5G28G30G24G15G20
  -2514033.42542  -1947576.18945  24452529.379    24452529.2894   24452531.4904
        35.4004         33.6004
 -19630096.90746 -15281539.72047  20112665.739    20112665.6944   20112667.2384
        49.5004         46.6004
   -323154.01344   -239228.17146  22819372.427    22819372.6484   22819374.8604
        43.4004         40.7004
 -12270466.01446  -9543542.70147  21443582.945    21443582.1024   21443584.2774
        47.0004         44.2004
  -5776848.57244  -4486347.84046  23135078.585    23135077.5334   23135082.2384
        41.5004         38.8004
  -2784644.06543  -2159924.93546  23381136.233    23381136.9144   23381142.0794
        40.3004         37.9004
 -13131283.92246 -10210874.63847  21024501.531    21024502.2554   21024503.7104
        48.6004         45.6004
  -9543974.75545  -7413512.02247  21367647.251    21367646.4554   21367649.1084
        46.3004         43.3004
 16  9 14  0  6 30.0000000  0  8G18G13G 5G28G30G24G15G20
  -2594793.94742  -2010506.45645  24437161.251    24437160.2644   24437162.9004
        35.7004         34.3004
 -19629274.47646 -15280898.87547  20112822.463    20112822.4324   20112823.6704
        49.3004         46.8004
   -223060.75044   -161233.42946  22838418.075    22838419.2064   22838422.3914
        43.4004         40.6004
 -12248949.06046  -9526776.23247  21447676.896    21447676.9254   21447679.0194
        47.0004         44.4004
  -5685241.13644  -4414965.44446  23152510.808    23152509.5054   23152514.5304
        41.6004         39.0004
  -2878177.44943  -2232808.07346  23363337.158    23363337.6084   23363344.3134
        40.4004         38.1004
 -13184566.76146 -10252393.73047  21014362.400    21014362.7664   21014364.9074
        48.6004         45.8004
  -9526894.68845  -7400202.88647  21370897.242    21370896.8884   21370898.8514
        46.3004         43.5004
 16  9 14  0  7  0.0000000  0  8G18G13G 5G28G30G24G15G20
  -2675266.37642  -2073212.22245  24421849.277    24421849.0384   24421850.3134
        36.4004         34.6004
 -19628011.32946 -15279914.60547  20113062.694    20113062.6504   20113063.8254
        49.5004         46.8004
   -122719.16244    -83045.20246  22857513.850    22857514.1004   22857517.1134
        43.4004         40.6004
 -12226907.46746  -9509600.96447  21451871.548    21451871.4174   21451873.2164
        47.2004         44.2004
  -5593509.37144  -4343486.18946  23169966.675    23169966.7224   23169970.3324
        41.3004         38.6004
  -2971536.37744  -2305555.29146  23345571.451    23345572.5034   23345578.1934
        40.8004         38.3004
 -13237474.46346 -10293620.50947  21004294.229    21004294.3694   21004296.8854
        48.6004         45.8004
  -9509212.90145  -7386424.88347  21374262.399    21374261.1614   21374263.8984
        46.3004         43.5004
 16  9 14  0  7 30.0000000  0  8G18G13G 5G28G30G24G15G20
  -2755448.47742  -2135691.75745  24406591.120    24406590.3054   24406592.7564
        36.1004         34.1004
 -19626306.81446 -15278586.42247  20113387.136    20113387.3154   20113388.3944
        49.5004         46.8004
    -22131.75144     -4665.40046  22876653.994    22876653.6994   22876658.2124
        43.2004         40.4004
 -12204342.57446  -9492017.93247  21456165.621    21456165.0654   21456167.3004
        47.2004         44.2004
  -5501654.73044  -4271911.13446  23187445.109    23187445.2894   23187448.5584
        41.1004         38.6004
  -3064719.66944  -2378165.59546  23327840.297    23327840.5854   23327845.4764
        40.9004         38.5004
 -13290005.66946 -10334553.91647  20994298.527    20994298.5984   20994300.3814
        48.6004         45.8004
  -9490930.07045  -7372178.53447  21377741.352    21377740.6004   21377743.2204
        46.3004         43.7004
 16  9 14  0  8  0.0000000  0  8G18G13G 5G28G30G24G15G20
  -2835338.46142  -2197943.72045  24391386.519    24391385.1834   24391387.9924
        35.9004         34.1004
 -19624160.38346 -15276913.88647  20113795.825    20113795.5934   20113796.5284
        49.5004         46.8004
     78698.68444     73903.75146  22895842.248    22895842.6074   22895844.8024
        43.0004         40.4004
 -12181255.35746  -9474027.87647  21460558.508    21460558.4744   21460560.9604
        47.2004         44.2004
  -5409678.52344  -4200241.39346  23204948.643    23204948.0724   23204951.8704
        41.1004         38.6004
  -3157726.92244  -2450638.73646  23310140.679    23310141.3274   23310147.4304
        40.9004         38.5004
 -13342158.64346 -10375192.59247  20984373.633    20984373.9104   20984375.8174
        48.8004         45.9004
  -9472046.76946  -7357464.28847  21381334.097    21381333.5604   21381337.4954
        46.5004         43.7004
 16  9 14  0  8 30.0000000  0  8G18G13G 5G28G30G24G15G20
  -2914934.11542  -2259966.33245  24376241.772    24376240.8214   24376241.5504
        36.1004         34.5004
 -19621571.20646 -15274896.34647  20114288.295    20114288.4934   20114289.9314
        49.5004         47.0004
    179769.30944    152660.05346  22915075.087    22915075.8174   22915077.8034
        43.0004         40.4004
 -12157646.86846  -9455631.64847  21465051.124    21465050.6024   21465053.4644
        47.0004         44.0004
  -5317582.14844  -4128478.01846  23222471.384    23222471.3784   23222477.7064
        40.9004         38.3004
  -3250556.71544  -2522973.62646  23292475.453    23292476.0234   23292482.0974
        40.8004         38.1004
 -13393931.93546 -10415535.41647  20974521.239    20974521.7114   20974523.9544
        48.8004         46.1004
  -9452563.97546  -7342282.89347  21385041.706    21385041.4544   21385045.0314
        46.5004         43.7004
 16  9 14  0  9  0.0000000  0  8G18G13G 5G28G30G24G15G20
  -2994233.12642  -2321757.74445  24361151.256    24361151.6854   24361149.8424
        36.6004         34.8004
 -19618538.78646 -15272533.43047  20114865.117    20114865.2714   20114866.7804
        49.5004         47.0004
    281077.53344    231601.51946  22934353.101    22934353.3444   22934356.8924
        43.0004         40.4004
 -12133518.40346  -9436830.23247  21469642.491    21469641.5524   21469644.6004
        46.9004         44.0004
  -5225366.88344  -4056622.00046  23240020.499    23240019.4904   23240024.8674
        40.8004         38.1004
  -3343208.44443  -2595169.75046  23274845.549    23274845.3644   23274850.6084
        40.4004         37.9004
 -13445323.67746 -10455580.93047  20964742.163    20964742.1064   20964744.6844
        48.8004         45.9004
  -9432482.80646  -7326635.24847  21388862.957    21388862.2314   21388865.4194
        46.5004         43.5004
 16  9 14  0  9 30.0000000  0  8G18G13G 5G28G30G24G15G20
  -3073233.10342  -2383316.13745  24346117.838    24346117.1524   24346119.2194
        36.4004         34.5004
 -19615062.56046 -15269824.69447  20115526.910    20115526.6664   20115528.2594
        49.5004         47.0004
    382620.37644    310725.79446  22953677.838    22953677.5294   22953679.5544
        43.2004         40.7004
 -12108870.87446  -9417624.35947  21474332.830    21474332.5904   21474334.8594
        46.9004         44.0004
  -5133034.21844  -3984674.51546  23257589.820    23257589.8294   23257595.5074
        40.6004         37.9004
  -3435680.85343  -2667226.14246  23257247.812    23257248.0764   23257253.2754
        40.3004         37.6004
 -13496332.41946 -10495328.00047  20955035.556    20955035.4284   20955037.6444
        48.8004         45.9004
  -9411803.73645  -7310521.70547  21392798.165    21392797.3014   21392800.9354
        46.3004         43.3004
 16  9 14  0 10  0.0000000  0  9G18G13G 5G28G30G24G15G17G20
  -3151931.89542  -2444639.88545  24331141.005    24331140.8814   24331143.0444
        36.3004         34.5004
 -19611142.03046 -15266769.74247  20116272.545    20116272.8234   20116274.2664
        49.5004         47.0004
    484395.31344    390030.92346  22973043.379    22973043.1944   22973045.6804
        43.2004         40.4004
 -12083705.67146  -9398015.10847  21479122.349    21479121.9724   21479123.5054
        47.0004         44.2004
  -5040585.43044  -3912636.52946  23275182.424    23275181.7334   23275188.4804
        40.6004         37.8004
  -3527973.25843  -2739142.27946  23239685.117    23239685.6394   23239690.8634
        40.3004         37.8004
 -13546956.72246 -10534775.51047  20945402.341    20945402.1554   20945404.4634
        48.9004         46.1004
                    -60077.97854  25265594.950
                        25.8004
  -9390527.55745  -7293942.87847  21396847.095    21396846.2664   21396849.0384
        46.3004         43.3004
 16  9 14  0 10 30.0000000  0  9G18G13G 5G28G30G24G15G17G20
  -3230327.61242  -2505727.50945  24316224.203    24316224.0374   24316224.6714
        36.4004         34.6004
 -19606776.36446 -15263367.93647  20117103.595    20117103.4224   20117105.1174
        49.5004         46.8004
    586399.77144    469514.91246  22992454.492    22992454.9374   22992457.6834
        43.4004         40.7004
 -12058023.66846  -9378003.14847  21484009.454    21484009.2204   21484010.8164
        46.9004         44.2004
  -4948021.85943  -3840509.10646  23292797.147    23292797.4874   23292802.5154
        40.4004         38.1004
  -3620084.61843  -2810917.34246  23222157.496    23222157.4724   23222162.7484
        40.4004         38.1004
 -13597195.13146 -10573922.32847  20935842.172    20935842.0404   20935844.2724
        48.9004         46.1004
                   -128712.82245  25248835.055
                        34.1004
  -9368655.39845  -7276899.64347  21401008.793    21401008.0184   21401011.2444
        46.2004         43.2004
 16  9 14  0 11  0.0000000  0  8G18G13G 5G28G30G24G15G20
  -3308417.98642  -2566577.14445  24301363.871    24301362.6694   24301365.0104
        37.1004         35.3004
 -19601965.35446 -15259619.10447  20118018.994    20118018.9374   20118020.7704
        49.5004         46.8004
    688630.91144    549175.52646  23011909.055    23011908.9884   23011910.8044
        43.2004         40.6004
 -12031826.41946  -9357589.70147  21488994.214    21488993.5614   21488996.0134
        46.9004         44.0004
  -4855344.79043  -3768293.25746  23310433.481    23310433.5554   23310439.1534
        40.4004         37.9004
  -3712014.15544  -2882550.73146  23204663.736    23204664.5624   23204669.5394
        40.9004         38.5004
 -13647045.65946 -10612766.89947  20926355.443    20926355.3784   20926358.2744
        48.9004         46.1004
  -9346187.70945  -7259392.36547  21405284.579    21405283.9644   21405286.5494
        46.2004         43.3004
 16  9 14  0 11 30.0000000  0  8G18G13G 5G28G30G24G15G20
  -3386200.63942  -2627187.00545  24286562.180    24286562.8714   24286561.2394
        36.8004         34.6004
 -19596708.57146 -15255522.92247  20119019.010    20119019.1454   20119021.0244
        49.5004         46.8004
    791086.09144    629010.72046  23031404.526    23031404.6654   23031407.9884
        43.2004         40.4004
 -12005114.63246  -9336775.31647  21494077.491    21494076.5364   21494079.1704
        46.9004         43.9004
  -4762555.62543  -3695989.99846  23328089.530    23328090.5044   23328096.0484
        40.4004         37.8004
  -3803760.94944  -2954041.71246  23187206.112    23187206.3184   23187209.6854
        41.1004         38.8004
 -13696506.98946 -10651308.18847  20916943.542    20916943.4764   20916946.1294
        48.9004         46.1004
  -9323126.13945  -7241422.32547  21409673.940    21409673.0454   21409675.2804
        46.3004         43.7004
 16  9 14  0 12  0.0000000  0  8G18G13G 5G28G30G24G15G20
  -3463673.64142  -2687555.60245  24271818.943    24271820.1434   24271821.2244
        36.6004         34.6004
 -19591005.26546 -15251078.79647  20120104.830    20120104.3404   20120106.3404
        49.5004         46.8004
    893762.42044    709018.23746  23050944.112    23050943.8714   23050947.3654
        43.0004         40.2004
 -11977889.67546  -9315561.05147  21499257.755    21499257.6034   21499259.7024
        46.9004         43.9004
  -4669655.62044  -3623600.44746  23345768.873    23345769.1604   23345775.2304
        40.6004         38.1004
  -3895324.38544  -3025389.81446  23169781.279    23169781.7444   23169785.7604
        41.1004         38.6004
 -13745577.42646 -10689544.89247  20907605.321    20907605.6754   20907607.9124
        48.9004         46.1004
  -9299471.09045  -7222989.82947  21414174.843    21414174.2614   21414177.0284
        46.3004         43.3004
 16  9 14  0 12 30.0000000  0  8G18G13G 5G28G30G24G15G20
  -3540834.58042  -2747681.01345  24257136.530    24257136.3754   24257137.5434
        36.8004         34.8004
 -19584854.93746 -15246286.33947  20121274.713    20121275.1534   20121276.5824
        49.5004         46.8004
    996657.58044    789196.25946  23070522.931    23070523.7574   23070526.7874
        43.0004         40.4004
 -11950153.18346  -9293948.19047  21504535.937    21504535.8174   21504537.8274
        46.9004         44.0004
  -4576646.22043  -3551125.60746  23363468.591    23363468.7714   23363472.7014
        40.4004         37.8004
  -3986702.98244  -3096593.90046  23152392.501    23152392.3504   23152398.1244
        41.1004         38.5004
 -13794255.42246 -10727475.80247  20898342.594    20898342.7764   20898344.9234
        48.9004         46.1004
  -9275224.04745  -7204096.04447  21418789.188    21418788.1724   21418790.7264
        46.3004         43.3004
 16  9 14  0 13  0.0000000  0  9G18G13G 5G28G30G24G15G17G20
  -3617681.49342  -2807561.71145  24242513.099    24242512.4634   24242513.0374
        36.8004         35.0004
 -19578257.02246 -15241145.10847  20122530.325    20122530.4594   20122532.2594
        49.5004         46.8004
   1099768.48944    869542.39146  23090144.083    23090145.1154   23090148.5094
        42.9004         40.2004
 -11921906.22646  -9271937.56847  21509911.353    21509910.6764   21509913.0904
        46.9004         44.0004
  -4483528.62443  -3478566.48846  23381187.395    23381187.1444   23381192.8164
        40.3004         37.4004
  -4077896.18744  -3167653.53846  23135037.466    23135038.3954   23135044.5294
        40.8004         38.3004
 -13842539.64946 -10765099.88147  20889154.340    20889154.4084   20889156.5564
        48.9004         46.1004
                   -183103.26855  25165192.205                    25165191.2594
                        34.3004
  -9250385.74045  -7184741.53147  21423515.453    21423515.3174   21423517.1404
        46.2004         43.2004
 16  9 14  0 13 30.0000000  0  9G18G13G 5G28G30G24G15G17G20
  -3694212.10842  -2867195.96645  24227948.854    24227948.3244   24227949.8164
        36.4004         34.5004
 -19571210.85046 -15235654.59247  20123871.313    20123871.4614   20123872.9854
        49.5004         46.8004
   1203092.70644    950054.74746  23109807.512    23109808.0384   23109810.2134
        42.9004         40.2004
 -11893150.00346  -9249530.12447  21515383.987    21515383.2114   21515384.8534
        46.9004         43.9004
  -4390304.13043  -3405924.05246  23398928.268    23398928.3904   23398933.7224
        40.1004         37.8004
  -4168903.05944  -3238567.97146  23117719.648    23117720.8164   23117726.3274
        40.9004         38.3004
 -13890428.37446 -10802415.78047  20880041.599    20880041.6844   20880043.8064
        48.9004         46.1004
   -337081.23342   -251458.57745  25148496.516    25148494.9904   25148498.9684
        35.4004         34.3004
  -9224957.21545  -7164927.11347  21428353.833    21428352.8814   21428356.4614
        46.2004         43.3004
 16  9 14  0 14  0.0000000  0  9G18G13G 5G28G30G24G15G17G20
  -3770424.40642  -2926582.17745  24213446.126    24213445.3904   24213448.2394
        36.3004         34.5004
 -19563716.19246 -15229814.60247  20125297.672    20125297.7384   20125299.5324
        49.5004         47.0004
   1306627.12044   1030730.90246  23129508.599    23129508.6604   23129511.8514
        42.7004         39.9004
 -11863885.68946  -9226726.75647  21520952.874    21520951.8454   21520954.0794
        46.9004         43.9004
  -4296974.08543  -3333199.41346  23416688.273    23416688.0444   23416692.7324
        40.3004         37.8004
  -4259722.72044  -3309336.50546  23100438.722    23100438.6844   23100443.9024
        40.9004         38.5004
 -13937919.88746 -10839422.14547  20871004.211    20871004.3014   20871006.5724
        49.1004         46.3004
   -424734.04842   -319759.44345  25131817.525    25131814.4664   25131817.5794
        36.1004         34.3004
  -9198939.45245  -7144653.55547  21433305.364    21433305.0554   21433307.4994
        46.2004         43.3004
 16  9 14  0 14 30.0000000  0  9G18G13G 5G28G30G24G15G17G20
  -3846316.33442  -2985718.72945  24199004.757    24199003.9134   24199005.8934
        36.1004         34.3004
 -19555772.78946 -15223624.93747  20126808.810    20126809.0794   20126810.6454
        49.5004         46.8004
   1410369.24444   1111568.89346  23149250.139    23149250.1214   23149252.7814
        42.5004         39.7004
 -11834114.81646  -9203528.67247  21526617.850    21526617.3944   21526619.5034
        46.9004         43.9004
  -4203539.75143  -3260393.45946  23434468.398    23434468.0584   23434471.9714
        40.3004         37.9004
  -4350353.93844  -3379958.20946  23083191.430    23083191.9014   23083196.7844
        40.8004         38.1004
 -13985012.83046 -10876117.94747  20862043.029    20862043.2314   20862045.0434
        49.3004         46.5004
   -512314.02952   -388003.60055  25115151.130    25115150.2674   25115152.4874
        35.9004         34.1004
  -9172333.46845  -7123921.63547  21438367.951    21438367.3904   21438370.3184
        46.0004         43.0004
 16  9 14  0 15  0.0000000  0  9G18G13G 5G28G30G24G15G17G20
  -3921885.52042  -3044603.83845  24184624.216    24184623.5554   24184626.2154
        35.9004         34.0004
 -19547379.88646 -15217085.02647  20128406.877    20128406.8644   20128407.8724
        49.5004         47.0004
   1514316.29944   1192566.57346  23169032.401    23169031.3174   23169033.6014
        42.5004         39.7004
 -11803838.54346  -9179936.76247  21532378.466    21532377.8184   21532380.6884
        46.7004         43.9004
  -4110002.41243  -3187507.25046  23452268.138    23452268.4354   23452272.7574
        40.3004         37.9004
  -4440796.15844  -3450432.65946  23065980.750    23065981.4794   23065986.5994
        40.6004         37.9004
 -14031705.60346 -10912501.92747  20853157.597    20853157.5424   20853159.2084
        49.3004         46.1004
   -599818.41842   -456188.84945  25098493.223    25098498.8684   25098502.6384
        36.1004         34.3004
  -9145140.11145  -7102732.01247  21443542.694    21443541.9854   21443545.0634
        45.8004         43.0004
 16  9 14  0 15 30.0000000  0  9G18G13G 5G28G30G24G15G17G20
  -3997130.07842  -3103235.92045  24170306.377    24170305.7074   24170306.2584
        35.7004         34.0004
 -19538536.91346 -15210194.39247  20130088.956    20130089.3634   20130090.6274
        49.5004         47.0004
   1618465.82944   1273722.03546  23188848.206    23188849.6724   23188852.3664
        42.3004         39.7004
 -11773058.21846  -9155952.08147  21538235.676    21538235.3864   21538237.7954
        46.7004         43.7004
  -4016363.35743  -3114541.75946  23470085.729    23470085.5214   23470091.8754
        40.3004         37.6004
  -4531048.38844  -3520759.07046  23048807.262    23048807.4484   23048811.8544
        40.8004         38.5004
 -14077996.74146 -10948572.94647  20844348.047    20844348.3684   20844350.5064
        49.1004         46.3004
   -687244.10842   -524312.75045  25081861.597    25081862.1334   25081866.1134
        37.0004         35.3004
  -9117361.21545  -7081086.13147  21448828.772    21448828.1004   21448830.5584
        45.8004         42.8004
 16  9 14  0 16  0.0000000  0  9G18G13G 5G28G30G24G15G17G20
  -4072047.37942  -3161613.02745  24156049.478    24156048.7994   24156050.3814
        35.4004         33.6004
 -19529243.70546 -15202952.94447  20131857.539    20131857.5554   20131859.1904
        49.5004         46.8004
   1722814.79444   1355032.89246  23208706.536    23208707.9354   23208709.0074
        42.3004         39.7004
 -11741775.34446  -9131575.80447  21544188.923    21544188.4294   21544190.9814
        46.7004         43.9004
  -3922623.87243  -3041498.07046  23487926.151    23487924.9644   23487928.0634
        40.1004         37.6004
  -4621110.08744  -3590937.01246  23031669.044    23031669.3744   23031674.7094
        41.3004         38.8004
 -14123884.86546 -10984329.93147  20835616.012    20835616.3404   20835618.5354
        49.1004         46.3004
   -774588.22442   -592373.10545  25065245.953    25065241.7644   25065244.0894
        37.3004         35.3004
  -9088997.67545  -7058984.68047  21454226.206    21454225.4174   21454228.1944
        45.6004         42.8004
 16  9 14  0 16 30.0000000  0  9G18G13G 5G28G30G24G15G17G20
  -4146635.79142  -3219733.84445  24141853.691    24141852.9854   24141856.4224
        34.7004         32.9004
 -19519499.55646 -15195360.10647  20133712.292    20133712.1844   20133713.4344
        49.5004         46.8004
   1827360.86744   1436497.35646  23228601.023    23228601.6454   23228603.5114
        42.3004         39.7004
 -11709990.93746  -9106808.73147  21550237.536    21550237.0654   21550239.1124
        46.7004         44.0004
  -3828785.22443  -2968377.07146  23505780.710    23505780.7794   23505786.9114
        39.9004         37.4004
  -4710980.13844  -3660965.60746  23014566.201    23014566.9134   23014572.4374
        41.5004         39.0004
 -14169368.18846 -11019771.47247  20826960.582    20826960.9314   20826963.4344
        49.1004         46.3004
   -861847.72342   -660367.48145  25048642.566    25048633.6434   25048637.5944
        37.3004         35.2004
  -9060050.50945  -7036428.46647  21459735.017    21459734.2014   21459736.9114
        45.8004         43.2004
 16  9 14  0 17  0.0000000  0  9G18G13G 5G28G30G24G15G17G20
  -4220893.13941  -3277596.72045  24127726.180    24127724.4504   24127723.3314
        34.2004         32.6004
 -19509304.04246 -15187415.54947  20135651.723    20135652.1534   20135653.5294
        49.5004         46.8004
   1932100.85844   1518112.91746  23248533.749    23248533.2294   23248536.4384
        42.3004         39.7004
 -11677706.49946  -9081652.01647  21556380.690    21556380.4974   21556382.4334
        46.9004         44.0004
  -3734848.66043  -2895179.76246  23523659.172    23523658.7134   23523664.0454
        40.1004         37.6004
  -4800657.61144  -3730844.11846  22997501.331    22997501.8274   22997507.3684
        41.5004         38.8004
 -14214445.37446 -11054896.56147  20818382.902    20818383.1854   20818385.5134
        49.3004         46.5004
   -949019.94142   -728293.87345  25032053.291    25032047.4904   25032051.5804
        36.8004         34.8004
  -9030521.06645  -7013418.52347  21465354.761    21465353.7244   21465355.7324
        46.0004         43.2004
 16  9 14  0 17 30.0000000  0  9G18G13G 5G28G30G24G15G17G20
  -4294816.94042  -3335199.62445  24113657.625    24113658.2024   24113659.9034
        34.7004         33.4004
 -19498656.84946 -15179119.04747  20137678.091    20137678.1274   20137679.5824
        49.5004         46.8004
   2037032.07844   1599877.48846  23268500.961    23268501.6084   23268503.9074
        42.3004         39.7004
 -11644923.75846  -9056107.02647  21562619.426    21562618.8974   21562620.7644
        46.9004         44.0004
  -3640815.40143  -2821907.14146  23541551.826    23541551.4984   23541556.0284
        40.3004         37.8004
  -4890141.57444  -3800571.85046  22980472.624    22980473.1274   22980479.5764
        41.5004         38.8004
 -14259114.83146 -11089703.92947  20809882.507    20809882.8754   20809885.3184
        49.3004         46.5004
  -1036102.05542   -796150.03145  25015480.402    25015477.1284   25015479.5284
        37.1004         35.2004
  -9000410.44745  -6989955.70547  21471084.564    21471083.9774   21471086.6944
        46.2004         43.3004
 16  9 14  0 18  0.0000000  0  9G18G13G 5G28G30G24G15G17G20
  -4368405.43142  -3392541.30645  24099652.738    24099651.6484   24099656.6014
        34.9004         33.3004
 -19487557.49646 -15170470.20447  20139790.470    20139790.6414   20139791.7234
        49.5004         46.8004
   2142151.94244   1681789.05346  23288505.368    23288504.9694   23288507.5594
        42.2004         39.5004
 -11611643.71746  -9030174.51547  21568952.299    21568951.9914   21568954.1814
        46.9004         44.0004
  -3546686.80243  -2748560.18246  23559460.499    23559461.7334   23559467.3734
        39.6004         36.9004
  -4979430.94844  -3870147.97246  22963481.328    22963482.1504   22963488.0664
        41.5004         38.8004
 -14303375.03546 -11124192.40747  20801460.200    20801460.5394   20801462.7024
        49.3004         46.3004
  -1123091.43242   -863933.96145  24998923.071    24998922.1744   24998926.3544
        37.1004         35.2004
  -8969719.81745  -6966040.94147  21476924.368    21476923.2574   21476926.5244
        46.2004         43.2004
 16  9 14  0 18 30.0000000  0  9G18G13G 5G28G30G24G15G17G20
  -4441656.41242  -3449619.97745  24085714.944    24085715.6564   24085717.3424
        35.0004         33.4004
 -19476005.68746 -15161468.80247  20141988.135    20141988.4574   20141990.0654
        49.5004         46.8004
   2247457.96544   1763845.68546  23308543.208    23308543.4644   23308545.6024
        42.0004         39.0004
 -11577868.03146  -9003855.78847  21575379.650    21575379.5774   21575381.3284
        46.9004         44.0004
  -3452463.98343  -2675139.84946  23577395.184    23577393.2544   23577399.1624
        39.4004         36.9004
  -5068525.14644  -3939572.01046  22946528.194    22946528.4264   22946533.8234
        41.3004         38.6004
 -14347224.56146 -11158360.87347  20793116.233    20793116.2244   20793118.7864
        49.3004         46.6004
  -1209984.06142   -931642.50145  24982384.243    24982386.9634   24982390.5194
        37.1004         35.0004
  -8938450.56645  -6941675.32147  21482874.618    21482874.4384   21482876.3504
        45.8004         42.6004
 16  9 14  0 19  0.0000000  0  9G18G13G 5G28G30G24G15G17G20
  -4514567.68142  -3506433.96145  24071840.025    24071841.0334   24071842.3614
        35.0004         33.8004
 -19464000.78746 -15152114.33947  20144272.735    20144272.7104   20144274.6294
        49.5004         46.8004
   2352946.88544   1846044.82946  23328617.769    23328618.2584   23328619.9224
        41.6004         39.0004
 -11543598.06446  -8977151.91847  21581900.789    21581900.4914   21581902.5474
        46.7004         43.7004
  -3358148.25743  -2601647.10846  23595340.368    23595340.2554   23595345.4224
        39.4004         37.1004
  -5157423.10544  -4008843.12146  22929611.320    22929611.5784   22929616.6634
        41.3004         38.6004
 -14390661.70246 -11192207.99947  20784850.519    20784850.7314   20784852.5314
        49.5004         46.6004
  -1296777.53042   -999273.74745  24965868.925    24965872.2084   24965874.0304
        37.1004         35.2004
  -8906604.04345  -6916859.87347  21488934.723    21488934.4694   21488936.9464
        45.6004         43.0004
 16  9 14  0 19 30.0000000  0  9G18G13G 5G28G30G24G15G17G20
  -4587137.04342  -3562981.48545  24058032.418    24058032.7654   24058032.0724
        35.6004         34.1004
 -19451542.57346 -15142406.65647  20146643.777    20146643.7214   20146645.3724
        49.5004         46.8004
   2458616.19444   1928384.53346  23348725.831    23348726.2954   23348727.8454
        41.6004         39.0004
 -11508835.41446  -8950064.13947  21588515.404    21588515.3434   21588517.6684
        46.7004         43.9004
  -3263740.86243  -2528082.94846  23613305.177    23613305.9414   23613310.5194
        39.4004         36.9004
  -5246124.15844  -4077960.78746  22912732.567    22912732.9644   22912737.6914
        41.3004         39.0004
 -14433685.15046 -11225732.77547  20776663.688    20776663.7814   20776665.5704
        49.5004         46.6004
  -1383469.02242  -1066825.54545  24949371.494    24949372.2694   24949376.3674
        37.1004         35.0004
  -8874181.61945  -6891595.66547  21495104.891    21495103.8214   21495107.2834
        46.0004         43.2004
 16  9 14  0 20  0.0000000  0  9G18G13G 5G28G30G24G15G17G20
  -4659362.64642  -3619261.15445  24044286.694    24044285.4274   24044287.3464
        35.9004         34.1004
 -19438631.13546 -15132345.79747  20149100.427    20149100.7444   20149102.2164
        49.5004         46.8004
   2564463.47544   2010862.94546  23368867.636    23368868.3754   23368870.7854
        41.6004         39.2004
 -11473581.50346  -8922593.55447  21595224.151    21595224.2814   21595226.5074
        46.7004         44.0004
  -3169242.94943  -2454448.23346  23631287.799    23631287.2784   23631293.0084
        39.0004         36.6004
  -5334627.26344  -4146924.24346  22895889.771    22895891.0784   22895896.1264
        41.5004         38.8004
 -14476293.37146 -11258933.98447  20768555.180    20768555.4484   20768557.4144
        49.5004         46.6004
  -1470055.47542  -1134295.53145  24932896.427    24932899.2794   24932901.6974
        37.0004         34.6004
  -8841184.26245  -6865883.44747  21501383.959    21501383.2024   21501386.2494
        46.0004         43.0004
 16  9 14  0 20 30.0000000  0  9G18G13G 5G28G30G24G15G17G20
  -4731242.73142  -3675271.64245  24030607.535    24030605.5334   24030609.4154
        35.6004         34.0004
 -19425265.42546 -15121930.96547  20151644.107    20151643.9334   20151645.8924
        49.5004         46.8004
   2670485.87044   2093477.77746  23389044.303    23389044.3354   23389045.3844
        41.8004         39.2004
 -11437837.60946  -8894741.15847  21602026.131    21602025.2134   21602028.2694
        46.7004         43.7004
  -3074655.85143  -2380744.06146  23649286.610    23649287.3144   23649292.7174
        39.0004         36.7004
  -5422931.39244  -4215732.65946  22879086.461    22879087.0864   22879092.2934
        41.3004         38.6004
 -14518484.82846 -11291810.44947  20760526.189    20760526.4214   20760528.8294
        49.5004         46.6004
  -1556534.66542  -1201681.87945  24916439.213    24916443.1384   24916443.6474
        37.1004         35.2004
  -8807613.52945  -6839724.43647  21507772.211    21507771.3054   21507773.8994
        45.6004         42.6004
 16  9 14  0 21  0.0000000  0  9G18G13G 5G28G30G24G15G17G20
  -4802774.94242  -3731011.06945  24016997.213    24016997.7004   24016998.1134
        35.9004         34.3004
 -19411444.95146 -15111161.77347  20154274.141    20154274.3474   20154275.6304
        49.5004         47.0004
   2776680.37144   2176226.73246  23409252.191    23409251.3304   23409253.7244
        41.8004         39.2004
 -11401605.15046  -8866508.07147  21608920.581    21608920.6884   21608922.6744
        46.5004         43.9004
  -2979980.67643  -2306971.22246  23667304.991    23667304.5724   23667309.5614
        39.2004         36.9004
  -5511035.81744  -4284385.44046  22862321.261    22862321.4094   22862326.4954
        41.5004         38.8004
 -14560258.30446 -11324361.20947  20752577.543    20752577.1854   20752579.6754
        49.5004         46.6004
  -1642902.61542  -1268981.55645  24900008.422    24900007.8354   24900009.8384
        37.0004         35.0004
  -8773471.00745  -6813119.89247  21514269.611    21514268.4684   21514271.3624
        45.5004         42.6004
 16  9 14  0 21 30.0000000  0  9G18G13G 5G28G30G24G15G17G20
  -4873957.24742  -3786477.77745  24003452.313    24003449.7414   24003452.0654
        36.1004         34.3004
 -19397169.89646 -15100038.35947  20156990.570    20156990.6034   20156992.4174
        49.5004         46.8004
   2883044.59544   2259107.91746  23429491.639    23429492.5174   23429494.5794
        41.8004         39.2004
 -11364885.79546  -8837895.57747  21615908.960    21615908.0404   21615910.3434
        46.5004         43.7004
  -2885218.71543  -2233130.77146  23685337.220    23685337.1584   23685340.5614
        39.2004         36.7004
  -5598940.27444  -4352882.38746  22845593.069    22845594.1254   22845598.4014
        41.6004         39.3004
 -14601611.98647 -11356584.87147  20744707.988    20744708.1604   20744710.2244
        49.6004         46.8004
  -1729156.66642  -1336192.48545  24883594.925    24883590.5964   24883596.6604
        36.8004         34.8004
  -8738757.90845  -6786070.73847  21520875.088    21520874.1824   21520876.6664
        45.5004         42.6004
 16  9 14  0 22  0.0000000  0  9G18G13G 5G28G30G24G15G17G20
  -4944787.32942  -3841670.05345  23989973.201    23989972.1074   23989973.9174
        35.7004         33.8004
 -19382439.77446 -15088560.34647  20159793.635    20159793.6734   20159794.9164
        49.5004         46.8004
   2989575.48344   2342118.97446  23449764.930    23449765.1634   23449768.0464
        41.8004         39.2004
 -11327681.24446  -8808905.01447  21622987.567    21622987.3284   21622989.8914
        46.5004         43.5004
  -2790371.08043  -2159223.55246  23703387.104    23703386.3174   23703391.1164
        39.2004         37.1004
  -5686643.03744  -4421222.16646  22828904.241    22828904.5244   22828909.7154
        41.8004         39.3004
 -14642544.31947 -11388480.19347  20736918.802    20736918.8744   20736920.9754
        49.6004         46.8004
  -1815294.13342  -1403312.52945  24867201.230    24867199.8814   24867206.0744
        37.1004         35.2004
  -8703475.52745  -6758577.98547  21527588.521    21527588.2314   21527591.1454
        45.5004         42.5004
 16  9 14  0 22 30.0000000  0  9G18G13G 5G28G30G24G15G17G20
  -5015263.09842  -3896586.26945  23976559.980    23976562.4114   23976561.4294
        35.4004         33.8004
 -19367254.34046 -15076727.55147  20162683.619    20162683.4994   20162684.6094
        49.5004         46.8004
   3096270.52544   2425257.94346  23470067.656    23470067.4964   23470070.2124
        41.6004         39.0004
 -11289992.87646  -8779537.45847  21630159.299    21630159.4254   21630162.4004
        46.5004         43.7004
  -2695439.01043  -2085250.55746  23721451.022    23721450.2124   23721455.7744
        39.2004         36.9004
  -5774143.48244  -4489404.31146  22812252.818    22812253.0814   22812258.3504
        41.6004         38.8004
 -14683054.56047 -11420046.62047  20729210.123    20729210.0734   20729212.5384
        49.6004         46.8004
  -1901311.97242  -1470339.41045  24850826.810    24850832.4614   24850836.5454
        37.1004         35.2004
  -8667625.48145  -6730642.89947  21534411.089    21534409.9044   21534413.2204
        45.3004         42.5004
 16  9 14  0 23  0.0000000  0  9G18G13G 5G28G30G24G15G17G20
  -5085382.52042  -3951224.78845  23963219.590    23963218.1814   23963220.1314
        36.3004         34.8004
 -19351613.05446 -15064539.54147  20165659.432    20165659.8064   20165661.3174
        49.5004         46.8004
   3203127.16944   2508522.83946  23490401.691    23490401.7934   23490404.9614
        41.6004         39.0004
 -11251822.44346  -8749794.25847  21637423.209    21637423.0484   21637425.2464
        46.5004         43.7004
  -2600423.72343  -2011212.71846  23739533.291    23739532.7334   23739535.5914
        39.2004         36.9004
  -5861440.95344  -4557428.29846  22795640.854    22795641.4154   22795647.0384
        41.5004         39.0004
 -14723140.52647 -11451282.43547  20721581.694    20721581.8874   20721583.8934
        49.6004         46.8004
  -1987207.16742  -1537270.74145  24834475.482    24834486.2034   24834490.9214
        37.0004         34.8004
  -8631209.40845  -6702266.74647  21541341.116    21541340.4404   21541343.2904
        45.5004         42.8004
 16  9 14  0 23 30.0000000  0  9G18G13G 5G28G30G24G15G17G20
  -5155144.10342  -4005584.43745  23949943.241    23949943.1534   23949945.4494
        37.0004         35.0004
 -19335516.18846 -15051996.53447  20168722.468    20168722.4934   20168724.0904
        49.5004         46.8004
   3310142.29744   2591911.23046  23510764.433    23510764.9484   23510768.9274
        41.5004         38.6004
 -11213171.14046  -8719676.35847  21644779.712    21644778.7284   21644780.9484
        46.5004         43.7004
  -2505326.32943  -1937110.89146  23757629.260    23757628.1744   23757631.4824
        39.0004         36.6004
  -5948534.27144  -4625293.21446  22779069.248    22779068.7544   22779073.3874
        42.0004         39.5004
 -14762800.89046 -11482186.62347  20714034.693    20714034.7434   20714036.7354
        49.5004         46.6004
  -2072976.92742  -1604104.31245  24818163.574    24818164.3464   24818168.1164
        37.0004         35.0004
  -8594228.24845  -6673450.27647  21548379.232    21548378.6974   21548380.5984
        45.8004         43.2004
 16  9 14  0 24  0.0000000  0  9G18G13G 5G28G30G24G15G17G20
  -5224545.24943  -4059663.25645  23936736.658    23936735.6164   23936738.2944
        37.6004         35.7004
 -19318962.73746 -15039097.74847  20171873.301    20171873.4004   20171874.4594
        49.5004         46.8004
   3417313.49244   2675421.23346  23531159.580    23531159.4814   23531161.2164
        41.3004         38.6004
 -11174040.76946  -8689185.15647  21652225.687    21652224.8844   21652227.0534
        46.5004         43.7004
  -2410148.09943  -1862946.04446  23775738.437    23775739.2954   23775743.6484
        38.7004         36.2004
  -6035422.91844  -4692998.62446  22762534.454    22762534.6404   22762538.7614
        42.3004         39.7004
 -14802034.65746 -11512758.38647  20706568.906    20706568.8974   20706570.9924
        49.5004         46.6004
  -2158618.17042  -1670837.66745  24801873.615    24801869.6824   24801871.0704
        37.1004         35.2004
  -8556683.94745  -6644194.97947  21555522.953    21555522.2344   21555525.1784
        46.0004         43.0004
 16  9 14  0 24 30.0000000  0  9G18G13G 5G28G30G24G15G17G20
  -5293583.96043  -4113459.69946  23923599.541    23923597.8634   23923600.3354
        38.0004         36.0004
 -19301952.62546 -15025843.11447  20175109.379    20175109.6474   20175111.6114
        49.5004         46.8004
   3524637.77344   2759050.53246  23551583.479    23551583.9064   23551585.9804
        41.3004         38.8004
 -11134432.88446  -8658321.86447  21659762.276    21659762.0244   21659764.6194
        46.5004         43.9004
  -2314890.13743  -1788719.08346  23793867.815    23793866.3044   23793871.0044
        38.5004         36.0004
  -6122106.00944  -4760543.85846  22746038.681    22746038.8994   22746043.3114
        42.0004         39.2004
 -14840839.95546 -11542996.28047  20699184.198    20699184.2724   20699186.5394
        49.5004         46.8004
  -2244128.03242  -1737468.68245  24785598.216    24785595.7044   24785600.1834
        37.1004         35.0004
  -8518578.08545  -6614502.12147  21562774.326    21562773.0974   21562776.4614
        45.8004         42.8004
 16  9 14  0 25  0.0000000  0  9G18G13G 5G28G30G24G15G17G20
  -5362258.48443  -4166972.29246  23910530.789    23910530.1544   23910531.7844
        38.3004         36.2004
 -19284485.60346 -15012232.45947  20178433.754    20178433.4464   20178435.2194
        49.5004         46.8004
   3632112.61344   2842797.14546  23572036.453    23572035.5914   23572037.6724
        41.3004         38.8004
 -11094349.11446  -8627087.75047  21667389.953    21667388.9914   21667392.0064
        46.5004         43.7004
  -2219553.62143  -1714430.95246  23812006.358    23812006.8994   23812013.8194
        38.3004         36.0004
  -6208582.73544  -4827928.30146  22729582.736    22729582.7574   22729587.1154
        41.8004         39.0004
 -14879215.59346 -11572899.37647  20691881.647    20691881.5704   20691883.8354
        49.5004         46.6004
  -2329503.28842  -1803994.87745  24769349.978    24769349.7924   24769352.9844
        37.3004         35.3004
  -8479912.13345  -6584372.81547  21570131.766    21570131.3774   21570134.2854
        45.8004         43.2004
 16  9 14  0 25 30.0000000  0  9G18G13G 5G28G30G24G15G17G20
  -5430566.68143  -4220199.44946  23897532.130    23897531.4814   23897532.7574
        38.7004         36.6004
 -19266561.59246 -14998265.70747  20181844.506    20181844.8054   20181846.0714
        49.5004         46.8004
   3739735.17244   2926658.85946  23592515.444    23592515.8844   23592517.0944
        41.1004         38.5004
 -11053791.00146  -8595484.02447  21675108.092    21675107.0714   21675110.1784
        46.5004         43.7004
  -2124139.67743  -1640082.44845  23830165.836    23830163.6554   23830169.6844
        38.2004         35.9004
  -6294851.90544  -4895151.03546  22713166.791    22713166.7304   22713171.0234
        41.8004         39.3004
 -14917160.06146 -11602466.49347  20684660.932    20684661.4704   20684663.2544
        49.5004         46.6004
  -2414741.31242  -1870414.08445  24753126.583    24753129.0834   24753132.3594
        37.5004         35.3004
  -8440687.67545  -6553808.30747  21577596.081    21577595.7274   21577598.3044
        46.0004         43.0004
 16  9 14  0 26  0.0000000  0  9G18G13G 5G28G30G24G15G17G20
  -5498506.42143  -4273139.51746  23884603.443    23884602.6964   23884604.0074
        38.9004         36.4004
 -19248179.87746 -14983942.30047  20185342.249    20185342.2484   20185344.2454
        49.5004         46.8004
   3847502.62944   3010633.47746  23613022.924    23613023.3524   23613025.5764
        41.3004         38.8004
 -11012760.14946  -8563511.91547  21682915.518    21682915.5314   21682917.7304
        46.5004         43.7004
  -2028649.52743  -1565674.59346  23848334.337    23848334.5484   23848340.3344
        38.2004         36.0004
  -6380912.73644  -4962211.40546  22696789.596    22696790.2214   22696794.2484
        42.3004         39.9004
 -14954671.92746 -11631696.51947  20677522.671    20677523.0984   20677525.0204
        49.5004         46.6004
  -2499839.06243  -1936724.01645  24736935.724    24736935.9984   24736939.6064
        37.6004         35.7004
  -8400906.20745  -6522809.77247  21585166.607    21585165.8544   21585168.2964
        45.6004         42.8004
 16  9 14  0 26 30.0000000  0  9G18G13G 5G28G30G24G15G17G20
  -5566075.88143  -4325791.05146  23871744.491    23871743.5454   23871747.6864
        38.7004         36.4004
 -19229340.71346 -14969262.44547  20188927.284    20188927.3804   20188929.0304
        49.5004         46.8004
   3955412.70044   3094719.21846  23633557.802    23633557.3674   23633560.6004
        41.5004         39.0004
 -10971258.37546  -8531172.86347  21690812.906    21690812.4744   21690815.7084
        46.5004         43.7004
  -1933084.30843  -1491208.19746  23866521.823    23866520.1274   23866527.4384
        38.5004         36.2004
  -6466764.90944  -5029109.16646  22680452.403    22680452.5634   22680457.3594
        42.5004         40.0004
 -14991749.88746 -11660588.44047  20670467.123    20670467.5254   20670468.7954
        49.5004         46.5004
  -2584793.46543  -2002922.24545  24720774.394    24720769.7934   24720773.8514
        37.6004         35.5004
  -8360569.23845  -6491378.37847  21592841.206    21592841.3474   21592844.3074
        45.5004         42.5004
 16  9 14  0 27  0.0000000  0  9G18G13G 5G28G30G24G15G17G20
  -5633272.84543  -4378152.33946  23858957.779    23858958.5324   23858959.2254
        38.7004         36.6004
 -19210043.67746 -14954225.79947  20192599.525    20192599.5474   20192601.0524
        49.5004         46.8004
   4063461.89744   3178913.37346  23654117.539    23654118.0534   23654120.7754
        41.5004         38.8004
 -10929287.30146  -8498468.13247  21698800.225    21698800.4564   21698802.2174
        46.5004         43.7004
  -1837445.15043  -1416684.22545  23884718.113    23884719.4204   23884725.5024
        38.2004         35.9004
  -6552406.80144  -5095843.07646  22664154.274    22664154.5514   22664160.1664
        42.7004         40.0004
 -15028392.46546 -11689141.09247  20663494.232    20663494.3704   20663496.4134
        49.5004         46.8004
  -2669601.82343  -2069006.64845  24704637.034    24704632.5624   24704634.4054
        37.8004         35.7004
  -8319678.51945  -6459515.49847  21600623.098    21600621.8674   21600625.0264
        45.3004         42.3004
 16  9 14  0 27 30.0000000  0  9G18G13G 5G28G30G24G15G17G20
  -5700095.29343  -4430221.77946  23846242.206    23846242.0714   23846243.1704
        38.7004         36.4004
 -19190288.58446 -14938832.22747  20196358.473    20196358.7014   20196360.4014
        49.5004         46.8004
   4171648.34244   3263214.47846  23674706.370    23674706.3244   23674709.3074
        41.6004         39.0004
 -10886848.82046  -8465399.18547  21706876.082    21706875.8304   21706878.0424
        46.5004         43.7004
  -1741733.18743  -1342103.51645  23902934.500    23902932.5374   23902939.7514
        37.8004         35.7004
  -6637837.85244  -5162412.69646  22647897.526    22647898.0204   22647902.6404
        42.5004         39.7004
 -15064598.19646 -11717353.34647  20656604.540    20656604.9114   20656606.7094
        49.5004         46.8004
  -2754261.01843  -2134974.82045  24688519.953    24688520.3684   24688524.8204
        37.8004         35.5004
  -8278235.99445  -6427222.63347  21608509.392    21608508.2934   21608511.4304
        45.1004         42.1004
 16  9 14  0 28  0.0000000  0  9G18G13G 5G28G30G24G15G17G20
  -5766541.66143  -4481998.13146  23833596.949    23833596.2424   23833598.5484
        38.5004         36.2004
 -19170075.23846 -14923081.57747  20200205.358    20200205.3654   20200206.7894
        49.5004         46.8004
   4279969.12744   3347620.26546  23695317.584    23695317.6284   23695321.7004
        41.6004         38.8004
 -10843944.14146  -8431966.96947  21715040.424    21715040.2674   21715042.2214
        46.5004         43.7004
  -1645949.53343  -1267466.94345  23921159.617    23921161.3224   23921167.3104
        37.8004         35.7004
  -6723057.28144  -5228817.42046  22631681.042    22631681.8694   22631686.5714
        42.3004         39.7004
 -15100365.86647 -11745224.26247  20649798.423    20649798.2894   20649800.1924
        49.6004         46.8004
  -2838768.38943  -2200824.74645  24672434.616    24672440.0674   24672442.3314
        37.8004         35.7004
  -8236242.97545  -6394500.82147  21616500.390    21616499.8834   21616501.7644
        44.9004         42.1004
 16  9 14  0 28 30.0000000  0  9G18G13G 5G28G30G24G15G17G20
  -5832609.79243  -4533479.77646  23821026.019    23821024.8684   23821026.3944
        38.5004         36.4004
 -19149403.25147 -14906973.54747  20204138.933    20204139.1674   20204140.8944
        49.6004         47.0004
   4388421.53644   3432128.60346  23715956.419    23715955.7184   23715959.3194
        41.6004         39.0004
 -10800575.05346  -8398172.87247  21723293.776    21723293.2184   21723295.3214
        46.5004         43.5004
  -1550095.30743  -1192775.34745  23939402.145    23939399.4524   23939408.6874
        37.6004         35.5004
  -6808064.35444  -5295056.68446  22615504.747    22615504.7584   22615509.9324
        42.5004         39.9004
 -15135694.21446 -11772752.84347  20643075.068    20643075.5984   20643077.2414
        49.5004         46.6004
  -2923120.34443  -2266553.55146  24656388.282    24656388.1894   24656391.9004
        38.3004         36.2004
  -8193701.22545  -6361351.40847  21624595.957    21624595.5204   21624598.4034
        45.1004         42.3004
 16  9 14  0 29  0.0000000  0  9G18G13G 5G28G30G24G15G17G20
  -5898297.61843  -4584665.08346  23808524.821    23808525.3164   23808528.0924
        39.0004         36.9004
 -19128272.59146 -14890508.09947  20208160.188    20208160.2604   20208162.0344
        49.5004         46.8004
   4497002.23344   3516736.92046  23736617.834    23736617.7364   23736621.9494
        41.6004         39.0004
 -10756743.19145  -8364018.16647  21731633.809    21731633.3224   21731635.4644
        46.3004         43.3004
  -1454171.68742  -1118029.74345  23957652.361    23957654.2234   23957661.1074
        37.5004         35.3004
  -6892858.06644  -5361129.69246  22599368.755    22599370.0574   22599374.2154
        42.5004         40.0004
 -15170581.70547 -11799937.90847  20636436.422    20636436.7304   20636438.9394
        49.6004         46.8004
  -3007314.55743  -2332159.38546  24640371.364    24640366.6144   24640369.4754
        38.3004         36.0004
  -8150612.85845  -6327776.08447  21632795.925    21632795.4474   21632797.5894
        45.1004         42.5004
 16  9 14  0 29 30.0000000  0  9G18G13G 5G28G30G24G15G17G20
  -5963603.23543  -4635552.58646  23796098.468    23796097.2084   23796099.9854
        38.9004         36.6004
 -19106683.09546 -14873685.11847  20212268.378    20212268.3264   20212270.1144
        49.5004         46.8004
   4605709.00144   3601443.47446  23757302.931    23757303.4974   23757308.2104
        41.5004         38.6004
 -10712450.40645  -8329504.29847  21740062.538    21740061.9584   21740064.7564
        46.3004         43.5004
  -1358179.65942  -1043230.78345  23975921.282    23975920.8494   23975927.7064
        37.5004         35.3004
  -6977437.68944  -5427035.87346  22583274.048    22583274.4914   22583279.4434
        42.7004         40.2004
 -15205026.91447 -11826778.32147  20629881.487    20629882.0534   20629883.7214
        49.6004         46.8004
  -3091347.74043  -2397639.78246  24624381.592    24624376.4544   24624379.5434
        38.5004         36.2004
  -8106979.21245  -6293775.85647  21641098.530    21641097.9034   21641100.7614
        44.9004         42.1004
 16  9 14  0 30  0.0000000  0  9G18G13G 5G28G30G24G15G17G20
  -6028524.53643  -4686140.62946  23783744.467    23783743.8184   23783744.7184
        38.5004         36.0004
 -19084634.70246 -14856504.56047  20216463.949    20216464.1834   20216465.8474
        49.5004         46.8004
   4714539.15544   3686246.18646  23778012.448    23778013.5864   23778017.2214
        41.3004         38.5004
 -10667698.71745  -8294632.84447  21748578.932    21748578.5364   21748580.8364
        46.3004         43.5004
  -1262120.46343   -968379.51645  23994202.621    23994202.1024   23994207.1274
        37.8004         35.9004
  -7061802.24144  -5492774.46846  22567220.217    22567219.8534   22567225.7784
        42.7004         40.0004
 -15239028.45547 -11853273.02847  20623411.270    20623411.5624   20623413.8824
        49.6004         46.8004
  -3175216.87743  -2462992.29945  24608417.034    24608414.7954   24608418.9504
        38.2004         35.7004
  -8062801.97345  -6259352.05747  21649504.941    21649504.5104   21649507.5594
        44.9004         42.1004
 16  9 14  0 30 30.0000000  0  9G18G13G 5G28G30G24G15G17G20
  -6093059.73743  -4736427.78445  23771463.427    23771462.1194   23771464.4524
        38.3004         35.9004
 -19062127.06046 -14838966.14547  20220747.503    20220747.0564   20220748.8974
        49.5004         46.8004
   4823490.02744   3771142.93946  23798746.014    23798746.0534   23798748.8594
        41.1004         38.5004
 -10622489.36445  -8259404.78447  21757182.082    21757181.8004   21757183.8144
        46.3004         43.5004
  -1165995.16743   -893476.72546  24012494.314    24012494.0554   24012499.7004
        38.2004         36.0004
  -7145951.04144  -5558344.94046  22551206.807    22551206.7704   22551211.7444
        42.7004         40.0004
 -15272585.11347 -11879421.07747  20617026.226    20617026.4154   20617028.0884
        49.6004         47.0004
  -3258919.14843  -2528214.82745  24592481.324    24592486.1934   24592491.5904
        37.6004         35.5004
  -8018083.10645  -6224506.19746  21658015.367    21658014.6454   21658017.5014
        44.9004         41.9004
 16  9 14  0 31  0.0000000  0  9G18G13G 5G28G30G24G15G17G20
  -6157207.05143  -4786412.71245  23759256.832    23759256.2974   23759258.7804
        38.0004         35.9004
 -19039160.11746 -14821069.83547  20225117.028    20225117.5924   20225119.2324
        49.5004         46.6004
   4932558.57444   3856131.40546  23819500.378    23819501.3514   23819504.6844
        40.9004         38.5004
 -10576824.57845  -8223821.83147  21765871.614    21765871.3864   21765873.3894
        46.3004         43.5004
  -1069804.83143   -818523.26046  24030798.274    24030799.2784   24030804.5784
        38.3004         36.2004
  -7229883.34244  -5623746.71746  22535235.498    22535236.0334   22535240.7034
        42.9004         40.4004
 -15305695.55947 -11905221.42447  20610725.276    20610725.3944   20610727.3404
        49.8004         46.8004
  -3342452.03143  -2593305.41345  24576586.257    24576590.7584   24576595.6024
        37.8004         35.7004
  -7972824.39645  -6189239.68446  21666627.569    21666626.9074   21666629.2924
        44.9004         41.9004
 16  9 14  0 31 30.0000000  0  9G18G13G 5G28G30G24G15G17G20
  -6220964.70043  -4836094.00046  23747124.067    23747124.0504   23747126.6954
        38.2004         36.0004
 -19015733.78146 -14802815.55847  20229575.751    20229575.7154   20229576.9114
        49.5004         46.6004
   5041742.49044   3941209.75646  23840277.889    23840278.3834   23840281.9154
        40.9004         38.3004
 -10530705.93345  -8187885.21947  21774647.436    21774646.8054   21774649.2154
        46.2004         43.3004
   -973550.58043   -743519.98146  24049115.430    24049115.6334   24049120.4524
        38.5004         36.2004
  -7313597.79844  -5688978.74046  22519305.128    22519305.4534   22519309.7124
        43.0004         40.4004
 -15338358.55047 -11930673.09947  20604509.438    20604509.7084   20604511.9414
        49.6004         46.8004
  -3425812.55543  -2658261.61045  24560728.180    24560729.5084   24560732.9304
        37.8004         35.5004
  -7927027.50545  -6153553.80947  21675342.601    21675342.2464   21675345.2854
        44.9004         42.3004
 16  9 14  0 32  0.0000000  0  9G18G13G 5G28G30G24G15G17G20
  -6284330.19143  -4885469.69246  23735065.862    23735064.7944   23735068.0244
        38.2004         36.0004
 -18991847.74646 -14784203.06747  20234120.806    20234121.1714   20234122.6404
        49.5004         46.8004
   5151038.89344   4026375.77646  23861077.753    23861077.2994   23861079.3034
        40.9004         38.5004
 -10484134.96845  -8151596.15747  21783509.970    21783509.6344   21783511.3794
        46.2004         43.3004
   -877233.40943   -668467.72245  24067445.729    24067443.3434   24067448.3734
        38.0004         35.5004
  -7397093.82644  -5754040.57346  22503415.418    22503416.2514   22503421.3094
        42.9004         40.2004
 -15370572.47947 -11955774.85847  20598379.739    20598380.2154   20598381.7664
        49.8004         47.2004
  -3508996.95343  -2723080.56145  24544902.755    24544898.9084   24544902.9084
        38.0004         35.9004
  -7880694.69545  -6117450.33547  21684159.992    21684158.6504   21684161.6554
        45.1004         42.3004
 16  9 14  0 32 30.0000000  0  9G18G13G 5G28G30G24G15G17G20
  -6347301.91843  -4934538.59046  23723084.297    23723083.2224   23723084.6494
        38.3004         36.0004
 -18967501.94246 -14765232.32747  20238753.462    20238753.5034   20238755.2994
        49.5004         46.6004
   5260445.12744   4111627.37946  23881895.769    23881897.0314   23881899.3024
        41.1004         38.5004
 -10437113.59845  -8114956.11947  21792458.136    21792457.4744   21792459.2344
        46.3004         43.3004
   -780854.49543   -593367.33045  24085782.480    24085784.4234   24085787.4934
        37.6004         35.5004
  -7480370.73644  -5818931.65046  22487568.775    22487569.5584   22487573.7014
        42.9004         40.0004
 -15402336.20047 -11980525.81247  20592334.741    20592335.2564   20592337.1394
        49.8004         47.0004
  -3592002.80643  -2787760.43046  24529104.667    24529103.1154   24529108.1794
        38.3004         36.4004
  -7833827.51845  -6080930.46147  21693077.830    21693077.2524   21693079.8944
        45.1004         42.1004
 16  9 14  0 33  0.0000000  0  9G18G13G 5G28G30G24G15G17G20
  -6409877.98943  -4983299.13145  23711175.735    23711174.6964   23711177.0184
        38.2004         35.9004
 -18942696.45746 -14745903.39347  20243474.027    20243473.9774   20243475.9484
        49.5004         46.8004
   5369958.52944   4196962.47746  23902737.203    23902737.5214   23902738.9904
        41.1004         38.6004
 -10389643.73145  -8077966.60647  21801491.159    21801490.4534   21801492.8914
        46.3004         43.3004
   -684414.85443   -518219.58945  24104137.160    24104135.5644   24104141.8014
        37.6004         35.5004
  -7563427.96944  -5883651.54646  22471763.726    22471764.1514   22471768.1924
        42.9004         40.4004
 -15433648.40147 -12004924.92247  20586376.179    20586376.3484   20586378.3254
        49.6004         46.8004
  -3674827.00943  -2852298.75746  24513340.386    24513342.8914   24513346.4554
        38.5004         36.4004
  -7786427.84245  -6043995.67347  21702097.768    21702097.2054   21702099.8514
        44.9004         42.3004
 16  9 14  0 33 30.0000000  0  9G18G13G 5G28G30G24G15G17G20
  -6472056.22743  -5031749.71045  23699342.560    23699342.6774   23699343.4654
        37.8004         35.5004
 -18917431.08646 -14726216.10347  20248281.489    20248281.6364   20248283.7654
        49.3004         46.6004
   5479576.02344   4282378.70446  23923596.680    23923596.9404   23923599.4784
        41.3004         38.8004
 -10341727.18645  -8040629.03547  21810609.163    21810608.4754   21810611.1394
        46.2004         43.3004
   -587915.59742   -443025.41045  24122499.393    24122499.1554   24122503.2914
        37.5004         35.3004
  -7646264.00044  -5948199.07746  22456000.790    22456000.8374   22456004.9474
        43.0004         40.6004
 -15464507.92847 -12028971.31247  20580504.218    20580504.1994   20580506.2624
        49.6004         47.0004
  -3757466.75343  -2916693.35046  24497615.858    24497618.0344   24497621.1284
        38.5004         36.4004
  -7738497.66845  -6006647.50847  21711218.859    21711218.2554   21711220.6334
        44.9004         42.1004
 16  9 14  0 34  0.0000000  0  9G18G13G 5G28G30G24G15G17G20
  -6533835.02443  -5079889.04545  23687588.012    23687587.0164   23687588.6014
        37.8004         35.7004
 -18891705.83146 -14706170.46247  20253176.948    20253177.0114   20253179.0354
        49.3004         46.6004
   5589294.96244   4367873.96246  23944474.704    23944475.0664   23944478.0234
        41.3004         38.8004
 -10293365.59545  -8002944.68147  21819811.801    21819811.8794   21819813.6774
        46.2004         43.3004
   -491357.75143   -367785.57845  24140872.289    24140873.1634   24140879.8804
        37.6004         35.5004
  -7728878.65144  -6012574.10146  22440278.689    22440279.4484   22440284.0154
        43.2004         40.6004
 -15494913.40347 -12052663.88847  20574718.119    20574718.3384   20574720.4274
        49.8004         47.2004
  -3839918.98443  -2980941.82246  24481929.968    24481927.0454   24481930.6984
        38.7004         36.4004
  -7690039.09345  -5968887.58746  21720439.780    21720439.4984   21720441.8054
        44.8004         41.9004
 16  9 14  0 34 30.0000000  0  9G18G13G 5G28G30G24G15G17G20
  -6595212.58343  -5127715.71545  23675908.027    23675907.7184   23675908.8024
        38.0004         35.9004
 -18865520.54046 -14685766.35247  20258160.219    20258160.1444   20258161.9284
        49.3004         46.6004
   5699113.32544   4453446.71346  23965372.699    23965373.1464   23965375.5584
        41.3004         38.5004
 -10244560.96245  -7964915.09447  21829099.319    21829099.2134   21829101.1074
        46.2004         43.3004
   -394742.39342   -292500.92545  24159259.994    24159258.0604   24159263.6484
        37.5004         35.3004
  -7811270.70344  -6076775.66946  22424600.069    22424600.0944   22424605.5204
        43.2004         40.4004
 -15524863.57647 -12076001.68847  20569018.946    20569019.2334   20569020.9784
        50.0004         47.2004
  -3922181.26943  -3045042.25846  24466275.480    24466272.0324   24466276.5184
        38.5004         36.2004
  -7641053.64645  -5930717.13646  21729761.336    21729761.1974   21729763.0494
        44.6004         41.6004
 16  9 14  0 35  0.0000000  0  9G18G13G 5G28G30G24G15G17G20
  -6656187.09843  -5175228.31846  23664304.140    23664303.3414   23664305.5224
        38.2004         36.0004
 -18838875.10546 -14665003.68847  20263230.560    20263230.5664   20263232.3594
        49.3004         46.6004
   5809028.03644   4539094.50746  23986288.609    23986288.9734   23986290.8134
        40.9004         38.3004
 -10195315.05145  -7926541.65147  21838470.459    21838470.3484   21838472.4334
        46.2004         43.3004
   -298070.56743   -217172.26845  24177652.433    24177654.5394   24177661.4454
        37.6004         35.7004
  -7893439.62944  -6140803.38746  22408963.855    22408964.3584   22408969.0194
        43.0004         40.4004
 -15554357.23247 -12098983.75547  20563406.663    20563406.6934   20563408.6524
        50.0004         47.3004
  -4004249.90143  -3108991.83846  24450654.917    24450654.7974   24450658.8304
        38.9004         36.6004
  -7591543.60345  -5892137.89946  21739183.130    21739182.3874   21739184.6314
        44.4004         41.6004
 16  9 14  0 35 30.0000000  0  9G18G13G 5G28G30G24G15G17G20
  -6716756.46943  -5222425.22846  23652778.085    23652777.8164   23652779.7284
        38.7004         36.6004
 -18811769.49046 -14643882.43747  20268388.418    20268388.4894   20268390.1644
        49.3004         46.6004
   5919035.89044   4624814.90546  24007221.121    24007221.5224   24007224.4524
        40.8004         38.3004
 -10145629.81545  -7887825.87947  21847925.417    21847925.1264   21847926.6824
        46.2004         43.2004
   -201343.32742   -141800.44345  24196060.236    24196060.6484   24196065.8604
        37.5004         35.5004
  -7975384.41144  -6204656.45346  22393371.073    22393371.0134   22393375.6804
        43.0004         40.6004
 -15583393.05447 -12121609.07447  20557881.012    20557881.2614   20557883.4704
        50.2004         47.5004
  -4086122.26043  -3172788.47346  24435074.337    24435075.4244   24435079.3854
        38.7004         36.4004
  -7541510.81345  -5853151.32747  21748704.515    21748703.9724   21748706.1444
        44.8004         42.1004
 16  9 14  0 36  0.0000000  0  9G18G13G 5G28G30G24G15G17G20
  -6776919.03443  -5269305.17446  23641330.203    23641329.1204   23641330.7224
        38.7004         36.2004
 -18784203.93046 -14622402.79447  20273634.302    20273633.9254   20273636.2014
        49.3004         46.5004
   6029134.82443   4710606.26746  24028173.241    24028172.9114   24028175.2594
        40.4004         37.8004
 -10095506.80845  -7848768.98147  21857463.474    21857462.6684   21857465.2804
        46.2004         43.3004
   -104561.64843    -66386.23645  24214480.369    24214478.6064   24214484.3944
        37.8004         35.7004
  -8057104.43944  -6268334.38446  22377820.010    22377819.9314   22377824.9804
        43.2004         40.6004
 -15611969.84447 -12143876.70847  20552443.250    20552443.7214   20552445.1644
        50.2004         47.5004
  -4167795.57043  -3236429.99246  24419534.094    24419533.5094   24419536.8084
        38.9004         36.6004
  -7490956.98845  -5813758.73746  21758324.250    21758323.4994   21758325.6084
        44.6004         41.8004
 16  9 14  0 36 30.0000000  0  9G18G13G 5G28G30G24G15G17G20
  -6836673.05643  -5315866.75146  23629959.417    23629958.9324   23629959.6474
        38.7004         36.2004
 -18756178.26946 -14600564.63747  20278966.921    20278967.1644   20278969.0604
        49.1004         46.5004
   6139322.23844   4796466.58546  24049141.211    24049140.9724   24049144.0404
        40.6004         38.1004
 -10044948.09945  -7809372.58147  21867084.881    21867084.1634   21867086.1624
        46.3004         43.3004
     -7726.67743      9069.55145  24232903.126    24232905.1614   24232910.4304
        37.6004         35.3004
  -8138598.49944  -6331836.21446  22362311.863    22362312.1734   22362317.5834
        43.4004         40.6004
 -15640086.19647 -12165785.55647  20547093.220    20547093.1754   20547095.3954
        50.3004         47.5004
  -4249266.64043  -3299913.90146  24404033.618    24404031.1084   24404033.8724
        38.7004         36.4004
  -7439884.62945  -5773962.12046  21768043.384    21768042.2184   21768044.0324
        44.6004         41.8004
 16  9 14  0 37  0.0000000  0  9G18G13G 5G28G30G24G15G17G20
  -6896016.56643  -5362108.44246  23618666.978    23618665.6694   23618667.4474
        38.5004         36.2004
 -18727692.24146 -14578367.74447  20284387.722    20284387.6564   20284389.9354
        49.1004         46.5004
   6249595.21144   4882393.56546  24070126.495    24070126.2734   24070129.0754
        40.6004         38.1004
  -9993955.55445  -7769638.12747  21876788.227    21876787.9364   21876789.9564
        46.3004         43.3004
     89160.63942     84566.11145  24251341.256    24251340.7894   24251348.2064
        37.3004         35.2004
  -8219866.03144  -6395161.53246  22346846.785    22346847.1194   22346852.8564
        43.2004         40.4004
 -15667741.21247 -12187334.92247  20541830.520    20541830.3274   20541832.3214
        50.3004         47.5004
  -4330532.81943  -3363238.16546  24388567.200    24388566.2194   24388569.0994
        39.0004         36.9004
  -7388295.75345  -5733763.01247  21777859.789    21777860.1514   21777862.5044
        44.8004         42.1004
 16  9 14  0 37 30.0000000  0  9G18G13G 5G28G30G24G15G17G20
  -6954947.73143  -5408028.83746  23607451.442    23607451.9074   23607453.5134
        38.7004         36.4004
 -18698746.03846 -14555812.27547  20289896.300    20289896.2204   20289898.2244
        49.1004         46.5004
   6359951.14244   4968385.18746  24091125.409    24091126.9194   24091129.0354
        40.8004         38.3004
  -9942531.10645  -7729567.12147  21886573.594    21886573.2874   21886575.5194
        46.2004         43.3004
    186099.30442    160102.69145  24269789.140    24269788.5554   24269796.1744
        37.3004         35.0004
  -8300905.89444  -6458309.45946  22331425.627    22331426.0534   22331430.7684
        43.0004         40.4004
 -15694933.32247 -12208523.58447  20536655.799    20536655.9574   20536658.2404
        50.3004         47.7004
  -4411590.78343  -3426400.22646  24373140.004    24373142.6154   24373145.1784
        39.4004         37.1004
  -7336192.22345  -5693162.85646  21787774.178    21787773.6324   21787776.9204
        44.8004         41.8004
 16  9 14  0 38  0.0000000  0  9G18G13G 5G28G30G24G15G17G20
  -7013464.63843  -5453626.43546  23596316.745    23596316.0704   23596317.2124
        38.9004         36.6004
 -18669339.76646 -14532898.30947  20295491.855    20295491.8654   20295493.8314
        49.1004         46.3004
   6470386.96344   5054439.07846  24112141.702    24112141.8854   24112144.2054
        40.8004         38.1004
  -9890676.58145  -7689161.00447  21896441.008    21896440.7614   21896443.0194
        46.2004         43.2004
    283088.30542    235678.45045  24288249.149    24288245.8494   24288250.5484
        37.1004         35.2004
  -8381717.68344  -6521279.69146  22316048.439    22316048.4864   22316052.6094
        43.2004         40.7004
 -15721661.52247 -12229350.75947  20531569.618    20531569.9474   20531571.6354
        50.3004         47.3004
  -4492438.12743  -3489398.14446  24357759.708    24357758.5554   24357760.2174
        39.6004         37.3004
  -7283576.19845  -5652163.38347  21797787.787    21797786.9064   21797789.4434
        44.8004         42.1004
 16  9 14  0 38 30.0000000  0  9G18G13G 5G28G30G24G15G17G20
  -7071565.61643  -5498899.93246  23585260.909    23585260.1074   23585261.7014
        39.0004         36.7004
 -18639473.31746 -14509625.76247  20301175.674    20301175.6744   20301177.2704
        49.1004         46.5004
   6580900.14344   5140553.23246  24133170.619    24133171.4114   24133173.7424
        40.6004         37.9004
  -9838393.71345  -7648421.09547  21906390.585    21906390.2404   21906392.3804
        46.0004         43.2004
    380126.51342    311292.60645  24306709.978    24306713.1814   24306717.1694
        37.3004         35.3004
  -8462300.50545  -6584071.48746  22300714.012    22300714.4744   22300718.6544
        43.6004         40.9004
 -15747924.62147 -12249815.51647  20526571.682    20526571.8554   20526574.1384
        50.2004         47.5004
  -4573071.65743  -3552229.41646  24342414.847    24342414.7304   24342414.4974
        39.6004         37.3004
  -7230449.72245  -5610766.15446  21807896.827    21807896.1104   21807899.6634
        44.8004         41.9004
 16  9 14  0 39  0.0000000  0  9G18G13G 5G28G30G24G15G17G20
  -7129249.01843  -5543848.04146  23574284.684    23574283.3724   23574285.4094
        39.2004         36.7004
 -18609146.79046 -14485994.71347  20306945.985    20306946.3284   20306948.3814
        49.1004         46.5004
   6691488.29044   5226725.81946  24154215.518    24154215.2394   24154217.7054
        40.6004         37.9004
  -9785684.80045  -7607349.21747  21916420.558    21916419.5944   21916421.9324
        45.8004         43.0004
    477213.07642    386944.42445  24325189.610    24325186.9394   24325192.6664
        37.3004         35.3004
  -8542653.61445  -6646684.28046  22285422.985    22285423.2054   22285428.3184
        43.6004         40.9004
 -15773721.35347 -12269916.86747  20521663.062    20521662.8334   20521665.2634
        50.2004         47.5004
  -4653488.18143  -3614891.64246  24327109.947    24327110.5214   24327112.4094
        39.7004         37.3004
  -7176814.67245  -5568972.61246  21818103.113    21818102.6084   21818105.5334
        44.6004         41.8004
 16  9 14  0 39 30.0000000  0  9G18G13G 5G28G30G24G15G17G20
  -7186513.09543  -5588469.36746  23563387.153    23563386.7304   23563387.6184
        39.4004         36.9004
 -18578360.13246 -14462005.11947  20312805.102    20312805.2154   20312806.8044
        49.1004         46.5004
   6802148.72843   5312954.70646  24175273.277    24175274.3254   24175274.7064
        40.3004         37.6004
  -9732551.62345  -7565946.73847  21926530.514    21926530.0904   21926532.9284
        45.6004         42.8004
    574346.91442    462633.03645  24343670.439    24343671.6294   24343676.0314
        37.1004         35.2004
  -8622776.24145  -6709117.46146  22270175.661    22270176.1314   22270181.9164
        43.7004         41.1004
 -15799050.50147 -12289653.86547  20516842.824    20516843.1584   20516845.0404
        50.2004         47.3004
  -4733684.95843  -3677382.61646  24311849.692    24311850.6934   24311852.6874
        39.7004         37.3004
  -7122673.17045  -5526784.45146  21828406.413    21828405.2494   21828408.5734
        44.6004         41.9004
 16  9 14  0 40  0.0000000  0  9G18G13G 5G28G30G24G15G17G20
  -7243355.78343  -5632762.37146  23552570.198    23552568.8004   23552570.9874
        39.2004         36.7004
 -18547113.66646 -14437657.23447  20318750.508    20318750.8954   20318752.7324
        49.1004         46.3004
   6912878.75243   5399237.84646  24196344.466    24196345.2964   24196347.1764
        40.1004         37.6004
  -9678995.86745  -7524214.97447  21936722.170    21936721.2874   21936723.8824
        45.6004         42.6004
    671527.05342    538357.79445  24362164.199    24362163.7924   24362168.7284
        37.1004         35.2004
  -8702667.39245  -6771370.26746  22254972.810    22254973.3444   22254978.8664
        43.9004         41.2004
 -15823910.91447 -12309025.62147  20512112.170    20512112.1724   20512114.3794
        50.2004         47.5004
  -4813659.18243  -3739700.16546  24296630.341    24296631.8574   24296633.4144
        39.6004         36.9004
  -7068027.80145  -5484203.66246  21838804.988    21838803.7274   21838807.1204
        44.6004         41.6004
 16  9 14  0 40 30.0000000  0  9G18G13G 5G28G30G24G15G17G20
  -7299775.83343  -5676726.03946  23541833.192    23541832.1424   23541834.5774
        38.9004         36.4004
 -18515407.31346 -14412951.00047  20324784.203    20324784.3714   20324786.4894
        49.1004         46.3004
   7023675.23743   5485572.74046  24217427.290    24217428.4724   24217430.2094
        39.9004         37.3004
  -9625019.56645  -7482155.51747  21946993.416    21946993.1484   21946995.7054
        45.6004         42.6004
    768752.53742    614117.85545  24380665.515    24380666.2704   24380671.4894
        37.3004         35.5004
  -8782326.15245  -6833442.02046  22239814.014    22239814.8774   22239819.4244
        43.9004         41.1004
 -15848301.56847 -12328031.32847  20507470.986    20507471.0294   20507472.9434
        50.2004         47.5004
  -4893408.19343  -3801842.21246  24281455.998    24281454.7094   24281457.0274
        39.4004         36.9004
  -7012880.53845  -5441231.78246  21849299.623    21849298.3744   21849300.9844
        44.6004         41.8004
 16  9 14  0 41  0.0000000  0  9G18G13G 5G28G30G24G15G17G20
  -7355771.09943  -5720358.70646  23531176.786    23531176.4994   23531179.0964
        38.9004         36.4004
 -18483241.11046 -14387886.44047  20330905.536    20330905.5264   20330907.4084
        49.1004         46.3004
   7134535.78543   5571957.57646  24238523.330    24238522.9554   24238526.4094
        39.6004         36.9004
  -9570624.78145  -7439769.96147  21957345.534    21957344.4044   21957346.5944
        45.6004         43.0004
    866022.26843    689912.39745  24399175.998    24399173.9044   24399182.7424
        37.8004         35.7004
  -8861752.09345  -6895332.35746  22224700.672    22224700.5624   22224705.7454
        43.7004         41.1004
 -15872221.23547 -12346670.04047  20502919.465    20502919.3814   20502921.5134
        50.3004         47.7004
  -4972928.55843  -3863806.11546  24266320.963    24266322.5634   24266326.2464
        39.2004         36.7004
  -6957233.43645  -5397870.42646  21859888.524    21859887.5494   21859891.0534
        44.4004         41.6004
 16  9 14  0 41 30.0000000  0  9G18G13G 5G28G30G24G15G17G20
  -7411339.69043  -5763658.92546  23520602.982    23520602.6624   23520605.0854
        38.9004         36.6004
 -18450615.24046 -14362463.69847  20337114.090    20337114.1624   20337115.7814
        49.1004         46.3004
   7245458.31743   5658390.70546  24259631.521    24259631.7074   24259635.6144
        39.4004         37.1004
  -9515813.41945  -7397059.81447  21967775.519    21967775.4124   21967777.1644
        45.6004         42.8004
    963335.36943    765740.73545  24417691.660    24417693.6724   24417700.4294
        38.0004         35.9004
  -8940943.88645  -6957040.22746  22209630.955    22209631.1754   22209635.6864
        43.9004         41.2004
 -15895668.60247 -12364940.71247  20498456.967    20498457.2064   20498459.0464
        50.3004         47.5004
  -5052217.94543  -3925590.02346  24251233.498    24251234.2584   24251236.2204
        39.2004         36.9004
  -6901088.77745  -5354121.35746  21870573.077    21870572.6124   21870575.1454
        44.2004         41.4004
 16  9 14  0 42  0.0000000  0 10G18G13G 5G28G30G24G19G15G17G20
  -7466480.24443  -5806625.59146  23510110.072    23510109.4024   23510110.9604
        38.9004         36.6004
 -18417529.84146 -14336682.87647  20343410.061    20343410.0464   20343411.8214
        48.9004         46.3004
   7356439.42143   5744869.47046  24280750.187    24280750.2474   24280754.6724
        39.2004         36.7004
  -9460587.46645  -7354026.59947  21978285.370    21978284.3124   21978286.5674
        45.8004         43.0004
   1060690.85543    841602.13045  24436219.892    24436218.7884   24436227.0614
        37.8004         35.5004
  -9019901.25945  -7018565.43446  22194605.324    22194606.1194   22194610.0774
        43.9004         41.2004
                    -39068.74353  25217817.530
                        23.4004
 -15918642.84947 -12382842.73247  20494085.224    20494085.3584   20494087.4964
        50.3004         47.5004
  -5131273.09843  -3987191.41546  24236191.756    24236190.4774   24236193.0204
        39.2004         36.7004
  -6844448.70445  -5309986.24646  21881350.982    21881350.0574   21881353.3724
        44.4004         41.8004
 16  9 14  0 42 30.0000000  0 10G18G13G 5G28G30G24G19G15G17G20
  -7521190.89643  -5849257.27546  23499699.514    23499698.9804   23499700.2224
        38.9004         36.6004
 -18383984.85246 -14310543.93047  20349793.457    20349793.3414   20349795.2254
        48.9004         46.3004
   7467476.92043   5831392.19846  24301880.737    24301880.7864   24301883.5994
        39.0004         36.6004
  -9404948.91145  -7310671.88047  21988872.604    21988871.7334   21988873.7644
        45.8004         43.0004
   1158087.81343    917495.77445  24454755.900    24454752.7724   24454760.3164
        37.6004         35.5004
  -9098622.89745  -7079906.93746  22179624.639    22179625.5634   22179630.5224
        44.1004         41.2004
                   -121283.46545  25197739.235
                        33.1004
 -15941142.99647 -12400375.32047  20489803.938    20489804.1104   20489805.8034
        50.3004         47.7004
  -5210090.93343  -4048607.87546  24221193.171    24221191.7894   24221194.9704
        39.4004         36.9004
  -6787315.22845  -5265466.67946  21892222.921    21892222.4254   21892225.1114
        44.2004         41.2004
 16  9 14  0 43  0.0000000  0 10G18G13G 5G28G30G24G19G15G17G20
  -7575470.34743  -5891552.93945  23489369.738    23489369.4014   23489371.5234
        38.5004         35.9004
 -18349980.60146 -14284047.12847  20356264.223    20356264.3724   20356266.2284
        48.9004         46.3004
   7578568.22143   5917956.80846  24323023.846    24323023.0634   24323023.0754
        39.0004         36.6004
  -9348899.63045  -7266997.10847  21999538.396    21999537.7614   21999539.3794
        45.8004         43.0004
   1255525.21542    993420.97745  24473292.162    24473293.7864   24473300.5424
        37.0004         34.8004
  -9177108.35045  -7141064.41246  22164689.585    22164689.9624   22164694.8674
        43.9004         40.9004
                   -203494.68045  25177663.767
                        34.3004
 -15963167.74947 -12417537.46147  20485612.444    20485612.8374   20485614.9234
        50.5004         47.8004
  -5288668.60643  -4109837.20146  24206237.515    24206239.3734   24206241.4954
        39.2004         36.9004
  -6729690.74545  -5220564.50246  21903188.623    21903188.5044   21903190.4904
        44.2004         41.6004
 16  9 14  0 43 30.0000000  0 10G18G13G 5G28G30G24G19G15G17G20
  -7629316.69443  -5933511.13445  23479122.380    23479121.4854   23479125.7054
        38.0004         35.5004
 -18315516.86746 -14257192.28747  20362822.154    20362822.4544   20362824.2534
        48.9004         46.3004
   7689710.21443   6004560.93346  24344170.347    24344170.6504   24344172.0424
        39.0004         36.7004
  -9292441.72745  -7223003.94547  22010281.105    22010280.5144   22010283.3194
        45.8004         43.0004
   1353002.10742   1069376.97145  24491843.885    24491842.3654   24491850.4044
        37.0004         34.8004
  -9255356.97445  -7202037.34646  22149799.485    22149799.6274   22149804.3334
        43.6004         40.7004
   -380049.86642   -285700.03445  25157585.838    25157582.6404   25157584.3014
        35.6004         34.8004
 -15984715.69147 -12434328.07647  20481512.361    20481512.7444   20481514.1964
        50.5004         47.8004
  -5367003.48343  -4170877.35346  24191333.958    24191332.2964   24191335.6794
        39.2004         36.7004
  -6671577.70845  -5175281.64446  21914246.422    21914246.6114   21914249.1994
        44.2004         41.2004
 16  9 14  0 44  0.0000000  0 10G18G13G 5G28G30G24G19G15G17G20
  -7682728.21942  -5975130.51045  23468959.073    23468959.1934   23468960.8334
        37.3004         35.2004
 -18280594.18446 -14229979.81647  20369467.761    20369468.2254   20369469.7234
        48.9004         46.3004
   7800900.45543   6091202.70446  24365329.087    24365328.9544   24365332.6674
        38.9004         36.7004
  -9235576.96145  -7178693.72447  22021102.385    22021101.6984   22021104.4174
        45.8004         42.8004
   1450517.55442   1145362.95845  24510399.743    24510397.5574   24510408.2734
        36.6004         34.6004
  -9333367.52945  -7262824.77146  22134954.545    22134954.6624   22134960.4094
        43.7004         41.1004
   -485535.66142   -367896.73645  25137509.120    25137509.9664   25137510.5924
        36.3004         34.5004
 -16005786.06647 -12450746.55548  20477503.059    20477503.1664   20477504.8994
        50.7004         48.0004
  -5445092.56643  -4231725.93546  24176474.713    24176471.6134   24176476.6924
        39.2004         36.9004
  -6612978.56445  -5129619.98946  21925397.773    21925397.4534   21925401.1374
        44.1004         41.1004
 16  9 14  0 44 30.0000000  0 10G18G13G 5G28G30G24G19G15G17G20
  -7735703.28142  -6016409.78645  23458879.398    23458877.8694   23458881.3444
        37.1004         34.8004
 -18245212.95846 -14202410.03947  20376200.799    20376200.6954   20376202.5274
        48.9004         46.1004
   7912136.01143   6177879.73146  24386497.333    24386496.7694   24386499.8594
        39.0004         36.7004
  -9178307.46345  -7134068.14947  22032000.528    22032000.1744   22032002.6734
        45.6004         42.8004
   1548070.63542   1221378.28945  24528963.239    24528962.5904   24528971.0054
        36.1004         34.3004
  -9411139.68145  -7323426.41746  22120154.806    22120155.7964   22120160.3994
        44.1004         41.4004
   -591007.36552   -450082.47355  25117442.495    25117437.7854   25117439.9394
        36.4004         34.6004
 -16026377.76447 -12466792.03347  20473584.792    20473584.7844   20473586.3754
        50.5004         47.8004
  -5522932.79843  -4292380.65146  24161656.352    24161659.2664   24161662.5654
        39.0004         36.6004
  -6553895.25745  -5083581.07246  21936641.028    21936640.6924   21936642.6854
        43.9004         40.9004
 16  9 14  0 45  0.0000000  0 10G18G13G 5G28G30G24G19G15G17G20
  -7788240.09942  -6057347.56145  23448881.703    23448880.7224   23448882.3944
        36.8004         34.6004
 -18209372.59846 -14174482.49747  20383020.952    20383021.0704   20383022.8864
        48.9004         46.1004
   8023414.99843   6264590.64246  24407669.855    24407671.1114   24407673.6974
        38.7004         36.4004
  -9120635.55845  -7089128.98447  22042975.206    22042974.8504   22042976.8774
        45.6004         42.6004
   1645660.34342   1297422.18045  24547536.105    24547533.8174   24547541.4644
        36.1004         34.1004
  -9488672.27645  -7383841.40346  22105401.148    22105401.4034   22105405.9594
        44.2004         41.4004
   -696461.60542   -532254.60045  25097375.492    25097370.3534   25097374.1254
        36.4004         34.6004
 -16046489.76547 -12482463.72447  20469757.512    20469757.4234   20469758.9004
        50.5004         47.8004
  -5600521.47243  -4352839.33146  24146894.291    24146895.4474   24146899.3794
        39.2004         36.9004
  -6494329.74845  -5037166.40146  21947975.921    21947975.3264   21947978.0024
        43.9004         41.1004
 16  9 14  0 45 30.0000000  0 10G18G13G 5G28G30G24G19G15G17G20
  -7840336.87542  -6097942.42745  23438967.061    23438967.0824   23438966.7104
        36.1004         34.0004
 -18173073.77346 -14146197.71047  20389928.309    20389928.0704   20389930.1754
        48.8004         46.1004
   8134734.45643   6351333.06446  24428857.737    24428856.5814   24428858.0724
        38.9004         36.6004
  -9062562.94145  -7043877.60147  22054026.105    22054025.7014   22054027.4024
        45.5004         42.5004
   1743285.77442   1373493.91545  24566111.277    24566111.1594   24566119.3254
        35.6004         33.8004
  -9565964.69145  -7444069.24846  22090693.413    22090693.8304   22090698.2934
        44.4004         41.6004
   -801895.28742   -614410.75045  25077311.951    25077310.2474   25077308.7154
        36.3004         34.5004
 -16066120.75147 -12497760.60447  20466021.604    20466021.6324   20466023.3374
        50.5004         47.7004
  -5677855.72543  -4413099.74646  24132179.293    24132179.1614   24132182.2364
        39.4004         36.9004
  -6434284.97245  -4990378.27646  21959402.914    21959401.6504   21959404.6154
        43.7004         40.9004
 16  9 14  0 46  0.0000000  0 10G18G13G 5G28G30G24G19G15G17G20
  -7891992.42942  -6138193.50845  23429137.212    23429135.2964   23429138.8314
        35.2004         33.4004
 -18136316.77046 -14117555.90147  20396922.697    20396922.7844   20396924.8504
        48.8004         46.1004
   8246091.31543   6438104.62446  24450046.075    24450047.2364   24450049.7984
        38.7004         36.4004
  -9004091.72145  -6998315.60847  22065153.085    22065152.6274   22065154.5444
        45.5004         42.8004
   1840946.09042   1449592.82445  24584695.105    24584697.2684   24584698.9894
        35.2004         33.3004
  -9643016.19645  -7504109.36746  22076031.036    22076031.6444   22076036.3304
        44.6004         41.9004
   -907305.23542   -696548.33445  25057254.014    25057247.4944   25057249.8444
        36.1004         34.3004
 -16085269.90047 -12512682.02147  20462376.967    20462377.5074   20462379.4464
        50.5004         47.7004
  -5754932.84043  -4473159.79346  24117513.532    24117510.6994   24117515.7354
        39.6004         37.3004
  -6373763.13045  -4943218.41246  21970919.317    21970918.9014   21970920.9974
        43.9004         41.1004
 16  9 14  0 46 30.0000000  0 10G18G13G 5G28G30G24G19G15G17G20
  -7943205.32342  -6178099.64945  23419392.550    23419391.6164   23419393.8984
        34.5004         32.9004
 -18099101.61246 -14088557.08947  20404004.449    20404004.5744   20404006.5314
        48.8004         46.1004
   8357483.43843   6524903.66946  24471243.106    24471243.4754   24471246.7384
        38.7004         36.4004
  -8945223.72845  -6952444.44647  22076354.854    22076353.9874   22076356.1684
        45.5004         42.5004
   1938640.18542   1525718.04745  24603287.711    24603286.8614   24603294.7684
        34.7004         33.3004
  -9719825.79645  -7563960.99246  22061414.604    22061414.9954   22061419.4314
        44.6004         41.9004
  -1012688.04442   -778664.82945  25037204.375    25037196.1704   25037195.7144
        36.3004         34.6004
 -16103936.36047 -12527227.31847  20458825.374    20458825.5564   20458827.3914
        50.3004         47.7004
  -5831749.61443  -4533016.98946  24102890.540    24102893.7054   24102897.9074
        39.9004         37.6004
  -6312766.41845  -4895688.52246  21982526.367    21982524.6904   21982528.6074
        43.9004         41.1004
 16  9 14  0 47  0.0000000  0 10G18G13G 5G28G30G24G19G15G17G20
  -7993973.63142  -6217659.34845  23409730.662    23409731.6794   23409732.4734
        35.0004         33.4004
 -18061428.72546 -14059201.60847  20411173.795    20411173.8274   20411175.7064
        48.8004         46.1004
   8468907.68643   6611727.76846  24492447.410    24492447.6664   24492451.5254
        38.7004         36.4004
  -8885961.06845  -6906265.75247  22087631.564    22087631.1074   22087633.9634
        45.3004         42.5004
   2036367.29042   1601869.00445  24621882.953    24621884.9954   24621887.1364
        35.0004         33.4004
  -9796392.99645  -7623623.73046  22046844.389    22046844.4274   22046848.9554
        44.6004         41.8004
  -1118040.73742   -860757.82745  25017157.524    25017148.1214   25017148.8164
        36.4004         34.6004
 -16122119.00747 -12541395.62247  20455364.962    20455365.0954   20455367.1014
        50.3004         47.5004
  -5908303.22543  -4592669.13246  24088326.276    24088326.8544   24088329.1584
        39.9004         37.4004
  -6251297.27845  -4847790.49446  21994223.795    21994223.1314   21994226.1084
        43.9004         41.1004
 16  9 14  0 47 30.0000000  0 10G18G13G 5G28G30G24G19G15G17G20
  -8044295.57942  -6256871.29045  23400156.285    23400154.2824   23400156.6744
        34.9004         33.4004
 -18023298.09946 -14029489.43547  20418429.762    20418429.4694   20418431.5254
        48.8004         46.1004
   8580362.24643   6698575.44046  24513656.230    24513655.1824   24513659.2324
        38.7004         36.4004
  -8826305.83545  -6859781.14147  22098984.221    22098983.3174   22098985.6324
        45.3004         42.3004
   2134126.48442   1678044.95845  24640485.418    24640485.7894   24640490.9634
        35.2004         33.6004
  -9872716.61645  -7683096.67846  22032319.792    22032321.2344   22032324.3974
        44.4004         41.6004
  -1223360.11242   -942824.87545  24997109.522    24997106.4384   24997106.3114
        37.0004         35.3004
 -16139816.73047 -12555186.05847  20451997.869    20451997.8694   20451999.6284
        50.3004         47.7004
  -5984591.38943  -4652114.40846  24073810.979    24073809.7664   24073811.8534
        39.9004         37.4004
  -6189357.98945  -4799526.13846  22006010.256    22006010.2244   22006011.3054
        43.7004         40.9004
 16  9 14  0 48  0.0000000  0 10G18G13G 5G28G30G24G19G15G17G20
  -8094169.75642  -6295734.28245  23390664.567    23390665.4464   23390665.5114
        35.2004         33.6004
 -17984710.11646 -13999420.89647  20425773.561    20425773.2364   20425774.7664
        48.9004         46.1004
   8691844.26343   6785444.54346  24534872.477    24534870.9264   24534874.1974
        38.5004         36.2004
  -8766260.06245  -6812992.22347  22110410.431    22110409.6544   22110412.6714
        45.3004         42.5004
   2231916.77842   1754245.16345  24659102.586    24659096.7844   24659103.2224
        35.2004         33.8004
  -9948796.21845  -7742379.45546  22017842.864    22017842.5284   22017848.0084
        44.4004         41.8004
  -1328642.99142  -1024863.47645  24977072.194    24977071.7194   24977070.8114
        37.0004         35.0004
 -16157028.50747 -12568597.83847  20448722.177    20448722.4074   20448724.1884
        50.3004         47.7004
  -6060610.32243  -4711349.92546  24059342.898    24059343.2514   24059346.0394
        40.1004         37.6004
  -6126951.17645  -4750897.46946  22017885.834    22017885.9084   22017888.2894
        43.7004         41.1004
 16  9 14  0 48 30.0000000  0 10G18G13G 5G28G30G24G19G15G17G20
  -8143594.88442  -6334247.35945  23381259.248    23381259.9404   23381261.1914
        35.7004         34.3004
 -17945665.12346 -13968996.23847  20433202.773    20433202.8294   20433204.6054
        48.9004         46.1004
   8803350.53443   6872332.51046  24556088.999    24556090.9294   24556091.4134
        38.3004         36.0004
  -8705825.78345  -6765900.59147  22121911.283    22121910.7864   22121913.0124
        45.3004         42.6004
   2329737.39642   1830468.93245  24677717.000    24677712.0474   24677717.6984
        35.2004         33.4004
 -10024630.82145  -7801471.32646  22003411.807    22003412.0894   22003416.7754
        44.6004         41.9004
  -1433885.96942  -1106870.99245  24957045.868    24957043.7414   24957046.8114
        37.1004         35.2004
 -16173753.59147 -12581630.37847  20445539.585    20445539.7474   20445541.4444
        50.3004         47.5004
  -6136357.93243  -4770374.00846  24044926.208    24044928.2964   24044931.3444
        40.1004         37.6004
  -6064079.05145  -4701906.22146  22029850.339    22029849.3004   22029852.8584
        43.7004         40.9004
 16  9 14  0 49  0.0000000  0 10G18G13G 5G28G30G24G19G15G17G20
  -8192569.31442  -6372409.25545  23371940.216    23371937.8004   23371941.2404
        35.7004         34.1004
 -17906163.27946 -13938215.59847  20440720.035    20440719.7654   20440721.7384
        48.9004         46.1004
   8914879.02943   6959237.84645  24577310.726    24577311.3384   24577314.9244
        38.2004         35.7004
  -8645005.21145  -6718507.92947  22133485.319    22133484.2874   22133485.8444
        45.5004         42.6004
   2427587.23442   1906715.51345  24696330.707    24696332.4524   24696337.2774
        35.2004         33.6004
 -10100219.69545  -7860371.72946  21989028.294    21989028.3644   21989032.5644
        44.6004         41.9004
  -1539085.71242  -1188844.82745  24937026.440    24937024.0444   24937027.1204
        37.0004         34.8004
 -16189990.95647 -12594282.87747  20442449.623    20442449.7524   20442451.6754
        50.3004         47.5004
  -6211830.80843  -4829184.02746  24030566.475    24030567.7374   24030569.4814
        40.3004         37.6004
  -6000743.97745  -4652554.23446  22041902.964    22041902.4354   22041904.5014
        43.7004         40.9004
 16  9 14  0 49 30.0000000  0 10G18G13G 5G28G30G24G19G15G17G20
  -8241091.07642  -6410218.46445  23362707.716    23362707.3564   23362707.1634
        35.7004         34.0004
 -17866204.69446 -13907079.04847  20448323.419    20448323.3084   20448326.1994
        48.8004         46.1004
   9026426.84843   7046158.21246  24598540.659    24598540.6994   24598543.0264
        38.2004         36.0004
  -8583800.38945  -6670815.85947  22145132.600    22145131.7134   22145132.6124
        45.6004         42.8004
   2525465.54642   1982984.31745  24714952.528    24714956.4874   24714962.5854
        35.4004         33.8004
 -10175562.32345  -7919080.24847  21974690.700    21974690.6554   21974695.7194
        44.8004         42.1004
  -1644238.97942  -1270782.43345  24917016.682    24917013.9944   24917016.6274
        37.1004         35.3004
 -16205739.54047 -12606554.50347  20439452.886    20439453.2794   20439454.8944
        50.3004         47.7004
  -6287026.33843  -4887777.88146  24016259.872    24016258.2074   24016261.1244
        40.3004         37.9004
  -5936948.61645  -4602843.60446  22054042.714    22054041.5964   22054044.7554
        43.7004         40.9004
 16  9 14  0 50  0.0000000  0 10G18G13G 5G28G30G24G19G15G17G20
  -8289159.23642  -6447674.17345  23353559.634    23353557.9284   23353562.4464
        35.9004         34.3004
 -17825790.09646 -13875587.16847  20456014.625    20456014.2624   20456016.5434
        48.8004         46.1004
   9137991.78943   7133091.89545  24619769.472    24619769.5484   24619773.4404
        37.8004         35.5004
  -8522213.16545  -6622825.82347  22156851.823    22156851.4054   22156852.8454
        45.5004         42.5004
   2623371.52142   2059274.63345  24733589.537    24733586.2754   24733594.3804
        35.7004         34.0004
 -10250657.60745  -7977596.04047  21960400.682    21960401.0784   21960405.0414
        44.8004         42.1004
  -1749342.72742  -1352681.42145  24897023.439    24897014.0504   24897016.0804
        37.1004         34.8004
 -16220998.34147 -12618444.47847  20436549.245    20436549.4624   20436550.9484
        50.3004         47.7004
  -6361941.89243  -4946153.61046  24002002.776    24002001.2164   24002004.2204
        40.3004         37.8004
  -5872695.35245  -4552776.13646  22066269.393    22066268.3794   22066271.2944
        43.6004         40.7004
 16  9 14  0 50 30.0000000  0 10G18G13G 5G28G30G24G19G15G17G20
  -8336772.46042  -6484775.37645  23344498.924    23344498.0464   23344500.8334
        36.3004         34.5004
 -17784919.57446 -13843740.01947  20463791.409    20463791.3824   20463794.2184
        48.9004         46.1004
   9249571.07443   7220036.81845  24641000.060    24640999.9814   24641004.9364
        37.6004         35.5004
  -8460245.67045  -6574539.45847  22168643.351    22168643.2394   22168644.5204
        45.3004         42.5004
   2721304.19342   2135585.72445  24752225.571    24752224.1894   24752229.7014
        35.7004         34.0004
 -10325504.92345  -8035918.61647  21946157.506    21946157.6824   21946162.4604
        44.9004         42.3004
  -1854393.75342  -1434539.37645  24877032.133    24877022.5404   24877024.6804
        37.0004         35.0004
 -16235766.59947 -12629952.21547  20433738.689    20433739.1874   20433740.8404
        50.3004         47.7004
  -6436574.37143  -5004308.76046  23987796.503    23987799.3604   23987802.6364
        40.3004         37.8004
  -5807986.49644  -4502353.67946  22078583.143    22078582.4044   22078584.7384
        43.4004         40.6004
 16  9 14  0 51  0.0000000  0 10G18G13G 5G28G30G24G19G15G17G20
  -8383928.61442  -6521520.43345  23335524.977    23335524.8674   23335528.2104
        36.8004         35.0004
 -17743593.32646 -13811537.75947  20471656.386    20471655.9124   20471658.6604
        48.9004         46.3004
   9361161.52042   7306990.40245  24662235.902    24662236.5274   24662240.6214
        37.1004         34.8004
  -8397900.00045  -6525958.41147  22180507.300    22180506.4514   22180508.8024
        45.3004         42.3004
   2819262.56642   2211916.89545  24770861.541    24770864.3014   24770869.0004
        35.6004         33.8004
 -10400103.30945  -8094047.22247  21931962.318    21931962.4144   21931966.0374
        45.1004         42.3004
  -1959388.56642  -1516353.46745  24857049.103    24857041.7424   24857046.6814
        37.0004         35.0004
 -16250043.41747 -12641077.00647  20431022.155    20431022.0904   20431024.0124
        50.5004         47.7004
  -6510921.16443  -5062241.29346  23973653.465    23973651.2584   23973655.5824
        40.3004         37.8004
  -5742824.62844  -4451578.22746  22090982.457    22090982.5444   22090985.7544
        43.4004         40.6004
 16  9 14  0 51 30.0000000  0 10G18G13G 5G28G30G24G19G15G17G20
  -8430626.54942  -6557908.46145  23326637.996    23326638.4514   23326639.7904
        37.3004         35.2004
 -17701811.90646 -13778980.81947  20479606.350    20479606.5694   20479608.9154
        48.9004         46.3004
   9472761.16642   7393951.13845  24683474.397    24683473.7224   24683476.9114
        37.0004         35.0004
  -8335178.24345  -6477084.32447  22192442.941    22192441.8664   22192444.1764
        45.1004         42.3004
   2917246.00442   2288267.58945  24789513.437    24789508.9814   24789518.3004
        35.4004         33.6004
 -10474452.05745  -8151981.29646  21917812.993    21917813.5884   21917817.9784
        44.9004         41.9004
  -2064323.90842  -1598121.25145  24837078.425    24837074.7244   24837077.8594
        36.8004         34.8004
 -16263827.73847 -12651818.04047  20428398.826    20428399.2044   20428401.2794
        50.5004         47.8004
  -6584979.89343  -5119949.33546  23959558.302    23959558.8614   23959560.8974
        40.4004         37.9004
  -5677212.19744  -4400451.66346  22103468.837    22103468.6774   22103470.9544
        43.4004         40.7004
 16  9 14  0 52  0.0000000  0 10G18G13G 5G28G30G24G19G15G17G20
  -8476864.73742  -6593938.22745  23317840.372    23317839.1044   23317841.8214
        37.5004         35.5004
 -17659575.57346 -13746069.40747  20487644.529    20487644.0134   20487646.1314
        48.9004         46.3004
   9584367.17642   7480916.83645  24704712.998    24704713.4314   24704714.3224
        36.8004         34.6004
  -8272082.66945  -6427918.93647  22204449.283    22204449.0954   22204451.2394
        45.1004         42.3004
   3015253.46242   2364636.99245  24808164.834    24808158.6614   24808166.9104
        35.7004         34.1004
 -10548550.51545  -8209720.33646  21903712.692    21903713.1694   21903717.6284
        44.8004         41.9004
  -2169196.59842  -1679840.21945  24817122.944    24817118.7314   24817120.0244
        36.8004         34.8004
 -16277118.75647 -12662174.68547  20425870.072    20425869.9954   20425871.8254
        50.5004         47.7004
  -6658746.76644  -5177430.01546  23945521.774    23945522.4564   23945524.0544
        40.6004         38.1004
  -5611151.74444  -4348976.01146  22116039.589    22116038.9324   22116042.1284
        43.4004         40.4004
 16  9 14  0 52 30.0000000  0 10G18G13G 5G28G30G24G19G15G17G20
  -8522641.74143  -6629608.63446  23309129.380    23309127.8994   23309130.5034
        38.2004         36.0004
 -17616884.85046 -13712803.92247  20495767.769    20495767.9814   20495770.4214
        48.9004         46.3004
   9695977.63642   7567886.00545  24725950.170    24725950.7644   24725951.3274
        36.4004         34.5004
  -8208615.32445  -6378463.85547  22216527.070    22216525.9934   22216528.3484
        45.1004         42.1004
   3113284.08842   2441024.45345  24826812.064    24826814.9334   24826820.9734
        35.4004         33.6004
 -10622398.06245  -8267263.86046  21889660.213    21889660.5684   21889665.1724
        44.4004         41.6004
  -2274003.42342  -1761507.84245  24797178.289    24797173.2024   24797176.1644
        36.8004         34.6004
 -16289915.44347 -12672146.13047  20423434.420    20423434.7824   20423436.7684
        50.5004         47.7004
  -6732219.00944  -5234681.08346  23931540.010    23931541.2954   23931542.2894
        40.8004         38.3004
  -5544645.80544  -4297153.21246  22128695.343    22128695.2084   22128696.7674
        43.0004         40.2004
 16  9 14  0 53  0.0000000  0 10G18G13G 5G28G30G24G19G15G17G20
  -8567956.21443  -6664918.61146  23300507.518    23300506.3804   23300507.7454
        38.5004         36.6004
 -17573739.82846 -13679184.43347  20503978.043    20503978.2654   20503980.4244
        48.9004         46.3004
   9807589.58842   7654856.39045  24747185.063    24747187.1404   24747189.7864
        36.1004         34.1004
  -8144778.19445  -6328720.64547  22228674.569    22228674.1074   22228676.2544
        44.9004         42.3004
   3211337.08242   2517429.36845  24845472.106    24845473.0954   24845480.1504
        35.4004         33.8004
 -10695993.74045  -8324611.12346  21875654.849    21875655.6424   21875659.9164
        44.4004         41.8004
  -2378740.81742  -1843121.41545  24777244.952    24777242.3784   24777245.7894
        36.6004         34.8004
 -16302217.14247 -12681731.88347  20421093.830    20421093.9304   20421095.7214
        50.5004         47.8004
  -6805394.51644  -5291700.93946  23917617.000    23917616.3204   23917618.3434
        40.8004         38.1004
  -5477696.46144  -4244984.91346  22141435.547    22141435.2244   22141437.4694
        43.2004         40.4004
 16  9 14  0 53 30.0000000  0 10G18G13G 5G28G30G24G19G15G17G20
  -8612806.87843  -6699867.17046  23291972.495    23291971.3334   23291972.4744
        38.7004         36.4004
 -17530140.90846 -13645211.25647  20512274.791    20512274.8054   20512276.8404
        48.9004         46.1004
   9919200.17242   7741825.65745  24768428.969    24768428.1634   24768432.5334
        36.1004         34.5004
  -8080573.35545  -6278690.89247  22240892.243    22240892.1624   22240894.1124
        44.9004         42.1004
   3309411.58942   2593850.98445  24864139.272    24864138.4264   24864144.6054
        35.7004         34.1004
 -10769336.58345  -8381761.36246  21861698.719    21861698.8124   21861703.6494
        44.6004         41.9004
  -2483405.69142  -1924678.42745  24757329.803    24757325.3334   24757327.8514
        36.4004         34.6004
 -16314022.86247 -12690931.15147  20418846.880    20418847.2514   20418849.2614
        50.5004         47.8004
  -6878270.24044  -5348487.19046  23903750.250    23903748.4804   23903749.9654
        40.8004         38.3004
  -5410307.06644  -4192473.69846  22154259.131    22154258.0394   22154260.7654
        43.0004         40.2004
 16  9 14  0 54  0.0000000  0 10G18G13G 5G28G30G24G19G15G17G20
  -8657192.13543  -6734453.08146  23283526.157    23283526.1374   23283526.6374
        38.9004         36.6004
 -17486088.81246 -13610884.95347  20520657.443    20520657.4004   20520659.4194
        48.9004         45.9004
  10030807.00442   7828791.99745  24789668.695    24789668.3384   24789668.8204
        36.4004         34.6004
  -8016002.92145  -6228376.26346  22253179.595    22253178.8764   22253181.3614
        44.9004         41.9004
   3407506.81542   2670288.76145  24882808.046    24882807.3784   24882808.9734
        35.6004         33.8004
 -10842425.79145  -8438713.97147  21847790.149    21847790.3284   21847795.6624
        44.8004         42.1004
  -2587994.66442  -2006176.33745  24737427.012    24737422.4204   24737425.8564
        36.8004         34.8004
 -16325331.95947 -12699743.43547  20416694.708    20416695.3644   20416697.2884
        50.5004         47.8004
  -6950843.50644  -5405037.77546  23889935.481    23889937.1794   23889940.8724
        40.8004         38.3004
  -5342479.82244  -4139621.31646  22167166.258    22167165.5034   22167168.1114
        42.9004         40.4004
 16  9 14  0 54 30.0000000  0 10G18G13G 5G28G30G24G19G15G17G20
  -8701110.43643  -6768675.14046  23275168.207    23275168.3394   23275169.8684
        38.9004         36.6004
 -17441583.54346 -13576205.53347  20529126.229    20529126.4924   20529128.8394
        48.8004         45.9004
  10142407.66342   7915753.54045  24810902.757    24810903.5694   24810904.3494
        36.3004         34.5004
  -7951069.10945  -6177778.48446  22265535.997    22265535.4204   22265537.2424
        44.8004         41.9004
   3505621.83042   2746741.99545  24901475.764    24901476.4094   24901481.5394
        35.6004         33.8004
 -10915261.08345  -8495468.70947  21833930.076    21833930.5194   21833935.3884
        44.9004         42.3004
  -2692504.46742  -2087612.52845  24717541.329    24717535.8724   24717536.9824
        36.6004         34.6004
 -16336143.44447 -12708167.97447  20414638.120    20414638.2004   20414639.8394
        50.7004         47.8004
  -7023111.41544  -5461350.39246  23876184.683    23876184.5014   23876187.4254
        40.8004         38.3004
  -5274217.13044  -4086429.63946  22180155.858    22180154.9694   22180158.3174
        43.0004         40.4004
 16  9 14  0 55  0.0000000  0 10G18G13G 5G28G30G24G19G15G17G20
  -8744560.67143  -6802532.48146  23266900.111    23266899.3594   23266901.6434
        39.0004         36.9004
 -17396625.55646 -13541173.34747  20537681.575    20537681.4064   20537683.6054
        48.6004         45.8004
  10253998.71042   8002707.60345  24832136.400    24832136.1354   24832140.1924
        35.7004         34.1004
  -7885773.84845  -6126899.05846  22277961.605    22277960.8374   22277963.3804
        44.6004         41.6004
   3603755.87442   2823210.03645  24920153.022    24920152.6474   24920154.4714
        35.4004         33.8004
 -10987841.34945  -8552024.75947  21820118.239    21820118.8084   21820124.0674
        44.9004         42.3004
  -2796931.89042  -2168984.53245  24697670.487    24697662.8514   24697666.6754
        36.8004         34.8004
 -16346456.57847 -12716204.18247  20412675.441    20412675.4454   20412677.4334
        50.7004         47.8004
  -7095070.90844  -5517422.68046  23862492.611    23862491.2304   23862494.3804
        40.8004         38.3004
  -5205521.85544  -4032900.85646  22193227.429    22193227.4744   22193230.0154
        42.9004         40.2004
 16  9 14  0 55 30.0000000  0 10G18G13G 5G28G30G24G19G15G17G20
  -8787541.47043  -6836024.00646  23258720.910    23258720.6164   23258721.8654
        39.4004         37.1004
 -17351215.63246 -13505789.00547  20546322.630    20546322.7164   20546324.9344
        48.6004         45.8004
  10365578.68742   8089653.07145  24853370.341    24853369.1334   24853375.3114
        36.1004         34.5004
  -7820119.92645  -6075740.17246  22290454.707    22290453.6664   22290456.3944
        44.6004         41.8004
   3701908.05842   2899692.20545  24938829.435    24938828.9304   24938834.8454
        35.0004         33.6004
 -11060165.65845  -8608381.34947  21806355.198    21806355.3524   21806360.5964
        44.9004         42.1004
  -2901273.29142  -2250289.50845  24677812.496    24677806.4704   24677812.0844
        36.6004         34.6004
 -16356270.64747 -12723851.51748  20410807.959    20410808.1264   20410809.9654
        50.7004         48.0004
  -7166719.87444  -5573253.02046  23848857.205    23848857.5024   23848860.5814
        41.1004         38.6004
  -5136396.37844  -3979036.87646  22206383.615    22206383.2354   22206384.6294
        43.0004         40.4004
 16  9 14  0 56  0.0000000  0 10G18G13G 5G28G30G24G19G15G17G20
  -8830051.51943  -6869148.71846  23250632.608    23250631.3224   23250633.2874
        39.7004         37.4004
 -17305353.93446 -13470052.63147  20555050.421    20555050.2604   20555051.7144
        48.6004         45.8004
  10477144.94342   8176587.81245  24874603.828    24874602.2404   24874604.9754
        36.3004         34.5004
  -7754108.42645  -6024302.62446  22303016.835    22303016.4454   22303017.5704
        44.6004         41.8004
   3800077.60942   2976187.93245  24957509.106    24957510.4424   24957515.3924
        35.4004         33.8004
 -11132233.88045  -8664538.38947  21792640.448    21792641.1324   21792646.6814
        44.9004         42.1004
  -3005525.50942  -2331525.00945  24657972.036    24657970.5934   24657973.3944
        36.8004         34.8004
 -16365584.59847 -12731109.14347  20409035.507    20409035.5284   20409037.5724
        50.7004         47.8004
  -7238055.05744  -5628838.86546  23835280.050    23835282.4864   23835285.4364
        41.1004         38.6004
  -5066843.33744  -3924839.70346  22219618.075    22219617.1774   22219621.0824
        43.0004         40.2004
 16  9 14  0 56 30.0000000  0 10G18G13G 5G28G30G24G19G15G17G20
  -8872089.35243  -6901905.47646  23242632.323    23242631.4494   23242633.0174
        39.6004         37.1004
 -17259041.18646 -13433964.78247  20563863.050    20563862.9184   20563865.1564
        48.6004         45.6004
  10588694.83342   8263509.77445  24895830.775    24895830.3504   24895831.8524
        36.3004         34.5004
  -7687741.98145  -5972588.52546  22315646.270    22315645.6684   22315646.7984
        44.6004         41.8004
   3898263.59742   3052696.44645  24976188.813    24976193.9824   24976197.9864
        35.7004         34.3004
 -11204044.56445  -8720494.74847  21778975.878    21778976.5554   21778981.2754
        44.9004         42.3004
  -3109685.34242  -2412688.47145  24638151.734    24638148.0664   24638151.0094
        37.0004         35.0004
 -16374398.29647 -12737976.96347  20407358.447    20407358.3344   20407360.4294
        50.7004         47.8004
  -7309073.71144  -5684178.04546  23821771.609    23821769.1454   23821770.5394
        41.3004         38.8004
  -4996865.26544  -3870311.34646  22232935.137    22232933.8744   22232936.8464
        43.0004         40.2004
 16  9 14  0 57  0.0000000  0 10G18G13G 5G28G30G24G19G15G17G20
  -8913653.79543  -6934293.34146  23234721.442    23234721.5194   23234724.2364
        39.2004         36.7004
 -17212277.67846 -13397525.69047  20572761.502    20572761.8604   20572764.0034
        48.4004         45.8004
  10700225.53742   8350416.79745  24917054.151    24917053.8544   24917055.0254
        35.7004         34.1004
  -7621022.93645  -5920599.66246  22328342.259    22328341.1114   22328342.7824
        44.6004         41.6004
   3996465.28142   3129217.23245  24994881.911    24994880.7534   24994888.7204
        35.6004         33.8004
 -11275597.18845  -8776250.00647  21765359.889    21765359.5674   21765365.8264
        45.1004         42.5004
  -3213749.28942  -2493777.26245  24618345.772    24618343.6244   24618347.6924
        37.0004         34.8004
 -16382710.16247 -12744453.74448  20405776.695    20405777.0874   20405778.4714
        50.7004         48.0004
  -7379773.21744  -5739268.52546  23808314.622    23808314.5884   23808316.8844
        41.1004         38.3004
  -4926465.00644  -3815454.02546  22246331.626    22246330.5754   22246333.0884
        42.9004         40.0004
 16  9 14  0 57 30.0000000  0 10G18G13G 5G28G30G24G19G15G17G20
  -8954743.51543  -6966311.30746  23226902.401    23226901.1554   23226904.4654
        38.7004         36.4004
 -17165063.79846 -13360735.66647  20581746.588    20581746.4274   20581748.5184
        48.4004         45.8004
  10811734.81142   8437307.16445  24938270.217    24938271.2004   24938275.5174
        35.6004         33.8004
  -7553953.05245  -5868337.42146  22341105.476    22341104.7244   22341106.2954
        44.4004         41.8004
   4094681.93642   3205749.63245  25013576.113    25013571.4184   25013577.2244
        35.7004         34.3004
 -11346891.01545  -8831803.61547  21751793.542    21751793.4784   21751798.9164
        45.3004         42.5004
  -3317714.02542  -2574788.72345  24598558.366    24598560.7034   24598565.2464
        36.8004         34.8004
 -16390519.62847 -12750539.04547  20404290.372    20404290.3774   20404292.3884
        50.7004         47.8004
  -7450150.53644  -5794107.98146  23794921.715    23794922.1794   23794923.7704
        40.9004         38.1004
  -4855645.13544  -3760269.72646  22259808.198    22259807.0474   22259809.4164
        42.5004         39.9004
 16  9 14  0 58  0.0000000  0 10G18G13G 5G28G30G24G19G15G17G20
  -8995357.40743  -6997958.48846  23219173.473    23219173.1994   23219176.6554
        38.3004         36.0004
 -17117399.92446 -13323594.99847  20590816.167    20590816.6054   20590818.7984
        48.4004         45.8004
  10923219.76542   8524178.57845  24959486.835    24959488.3884   24959492.7674
        35.4004         33.8004
  -7486534.78645  -5815803.69846  22353935.462    22353934.6914   22353936.0124
        44.6004         41.9004
   4192912.65642   3282292.99245  25032266.396    25032265.9904   25032269.9554
        35.7004         34.1004
 -11417925.24945  -8887154.95047  21738275.989    21738276.6184   21738281.6704
        45.3004         42.6004
  -3421576.21352  -2655720.28155  24578787.294    24578796.1234   24578801.2194
        37.0004         35.2004
 -16397826.15047 -12756232.44547  20402899.775    20402900.1594   20402901.6284
        50.5004         47.7004
  -7520203.39244  -5848694.62346  23781591.669    23781590.6654   23781594.1564
        40.8004         38.3004
  -4784408.17644  -3704760.44346  22273363.576    22273363.0594   22273366.0464
        42.5004         39.9004
 16  9 14  0 58 30.0000000  0 10G18G13G 5G28G30G24G19G15G17G20
  -9035494.03843  -7029233.78546  23211536.509    23211535.7934   23211539.4604
        38.3004         36.2004
 -17069286.90846 -13286104.35347  20599972.229    20599972.1914   20599974.5574
        48.6004         45.8004
  11034677.96042   8611029.08545  24980700.458    24980698.3924   24980698.4344
        35.4004         33.8004
  -7418770.01845  -5762999.98546  22366829.719    22366830.0124   22366831.0194
        44.8004         41.9004
   4291156.58542   3358846.72845  25050960.597    25050960.0374   25050964.7914
        35.2004         33.4004
 -11488699.29945  -8942303.55247  21724808.622    21724808.7534   21724813.8514
        45.6004         43.0004
  -3525332.58242  -2736569.37745  24559046.561    24559051.4354   24559057.1604
        37.0004         35.0004
 -16404629.05847 -12761533.41747  20401605.641    20401605.5994   20401607.3714
        50.5004         47.7004
  -7589929.27944  -5903026.44746  23768324.492    23768322.8124   23768325.8884
        40.9004         38.3004
  -4712756.88244  -3648928.27746  22286998.413    22286997.2424   22287001.4914
        42.5004         39.9004
 16  9 14  0 59  0.0000000  0 10G18G13G 5G28G30G24G19G15G17G20
  -9075151.77743  -7060135.90646  23203990.936    23203989.9274   23203992.2964
        38.3004         36.2004
 -17020725.23246 -13248264.10047  20609213.039    20609212.9264   20609215.0564
        48.4004         45.6004
  11146107.16942   8697856.96345  25001903.800    25001904.4884   25001902.7004
        34.7004         33.1004
  -7350660.96145  -5709927.99646  22379791.165    22379790.8554   22379791.8684
        44.8004         41.9004
   4389413.05842   3435410.12645  25069660.655    25069656.8814   25069665.9224
        34.9004         33.4004
 -11559212.53045  -8997248.90947  21711390.719    21711391.0394   21711395.5974
        45.8004         43.3004
  -3628979.60942  -2817333.29845  24539324.372    24539327.9184   24539333.1924
        37.1004         35.3004
 -16410927.71247 -12766441.46047  20400406.919    20400407.0664   20400408.8504
        50.5004         47.8004
  -7659324.91844  -5957100.94746  23755116.187    23755115.9474   23755120.3594
        40.8004         38.3004
  -4640693.83144  -3592775.25346  22300711.937    22300711.5534   22300713.8144
        42.7004         40.2004
 16  9 14  0 59 30.0000000  0 10G18G13G 5G28G30G24G19G15G17G20
  -9114329.87343  -7090664.29546  23196535.614    23196535.0374   23196536.7634
        38.5004         36.2004
 -16971715.27546 -13210074.54247  20618539.231    20618539.2124   20618541.3434
        48.4004         45.6004
  11257505.03942   8784660.53845  25023097.469    25023096.2344   25023100.4814
        34.5004         32.9004
  -7282210.10045  -5656589.66646  22392816.722    22392815.9274   22392817.7994
        44.6004         41.9004
   4487681.15642   3511982.60745  25088357.094    25088356.2164   25088360.5484
        34.7004         33.4004
 -11629463.52445  -9051989.92847  21698022.093    21698022.9674   21698027.2624
        46.2004         43.5004
  -3732514.14842  -2898009.54745  24519621.635    24519627.0894   24519632.2724
        37.5004         35.3004
 -16416721.43647 -12770956.05048  20399304.754    20399304.6614   20399306.3684
        50.7004         48.0004
  -7728387.51344  -6010915.94946  23741974.431    23741974.4664   23741978.3344
        40.8004         38.3004
  -4568221.69544  -3536303.48346  22314502.156    22314500.7704   22314503.8844
        42.7004         39.9004
 16  9 14  1  0  0.0000000  0 10G18G13G 5G28G30G24G19G15G17G20
  -9153027.12543  -7120817.99746  23189172.200    23189172.1084   23189172.7844
        38.9004         36.6004
 -16922257.67446 -13171536.16347  20627950.533    20627951.1374   20627953.4734
        48.4004         45.8004
  11368868.78141   8871437.49745  25044291.165    25044290.1874   25044295.1394
        34.3004         32.9004
  -7213419.22245  -5602986.38346  22405906.994    22405906.3834   22405908.4344
        44.6004         41.8004
   4585960.25641   3588563.68945  25107055.461    25107056.1054   25107065.0174
        34.3004         32.7004
 -11699452.27045  -9106526.59647  21684703.756    21684704.0334   21684708.5714
        46.2004         43.3004
  -3835932.68543  -2978595.42245  24499948.126    24499948.1384   24499951.7084
        37.8004         35.3004
 -16422009.29547 -12775076.46347  20398298.201    20398298.0474   20398300.0534
        50.7004         47.8004
  -7797114.90744  -6064469.72946  23728895.558    23728895.6744   23728900.9384
        40.8004         38.1004
  -4495343.21544  -3479515.07246  22328370.500    22328370.7494   22328373.0894
        42.3004         39.5004
 16  9 14  1  0 30.0000000  0 10G18G13G 5G28G30G24G19G15G17G20
  -9191242.35443  -7150596.08646  23181900.036    23181898.4994   23181900.5724
        38.5004         36.2004
 -16872353.06446 -13132649.46547  20637447.875    20637447.4914   20637449.7554
        48.6004         45.8004
  11480195.95341   8958185.88645  25065477.332    25065477.3214   25065478.9704
        34.2004         32.9004
  -7144290.48445  -5549119.82646  22419061.201    22419060.3854   22419062.4804
        44.6004         41.4004
   4684249.46541   3665152.62245  25125762.014    25125761.3834   25125765.1204
        33.8004         32.6004
 -11769177.63645  -9160858.04447  21671435.564    21671435.5164   21671440.0944
        46.2004         43.3004
  -3939231.68343  -3059088.12245  24480293.640    24480290.7764   24480294.1594
        37.8004         35.7004
 -16426790.59847 -12778802.15748  20397388.533    20397388.5924   20397390.5554
        50.7004         48.0004
  -7865504.15744  -6117760.00946  23715881.391    23715882.3144   23715885.1214
        40.8004         38.3004
  -4422061.43344  -3422412.40646  22342316.460    22342315.4104   22342318.6914
        42.3004         39.9004
 16  9 14  1  1  0.0000000  0  9G18G13G 5G28G24G19G15G17G20
  -9228974.16243  -7179997.49545  23174719.690    23174719.1394   23174721.1744
        38.2004         35.9004
 -16822001.85846 -13093414.77247  20647029.233    20647029.0664   20647031.3764
        48.6004         45.8004
  11591483.74241   9044903.60645  25086653.883    25086653.5714   25086653.8424
        34.3004         32.7004
  -7074826.07445  -5494991.72646  22432279.684    22432279.1684   22432281.2674
        44.4004         41.4004
 -11838638.74045  -9214983.57447  21658217.296    21658218.1644   21658221.7304
        46.0004         43.3004
  -4042407.78643  -3139485.06346  24460659.008    24460656.5464   24460661.6844
        38.0004         36.0004
 -16431064.96347 -12782132.82848  20396574.875    20396574.7624   20396576.9504
        50.7004         48.0004
  -7933552.52944  -6170784.68646  23702932.681    23702933.0424   23702936.1274
        40.8004         38.3004
  -4348378.53944  -3364997.17346  22356336.715    22356336.7504   22356340.0974
        42.3004         39.7004
 16  9 14  1  1 30.0000000  0  9G18G13G 5G28G24G19G15G17G20
  -9266221.49243  -7209021.37345  23167633.334    23167630.7684   23167632.3034
        37.6004         35.3004
 -16771204.52746 -13053832.45147  20656695.627    20656695.4644   20656697.7054
        48.6004         45.8004
  11702730.06541   9131589.09245  25107822.290    25107820.3674   25107825.3584
        34.0004         32.9004
  -7005028.35245  -5440603.88546  22445562.294    22445561.2294   22445562.0944
        44.2004         41.2004
 -11907835.24845  -9268902.92747  21645049.675    21645050.0654   21645054.2624
        46.2004         43.5004
  -4145457.96243  -3219783.88646  24441049.011    24441047.4634   24441051.6254
        38.2004         36.0004
 -16434831.52647 -12785067.82148  20395857.986    20395858.3854   20395860.3914
        50.7004         48.0004
  -8001257.37344  -6223541.66746  23690049.892    23690049.3794   23690052.4144
        40.9004         38.3004
  -4274297.57744  -3307271.75146  22370434.130    22370433.6764   22370436.7404
        42.3004         39.5004
 16  9 14  1  2  0.0000000  0  9G18G13G 5G28G24G19G15G17G20
  -9302983.42242  -7237667.02945  23160635.355    23160635.7484   23160638.2074
        37.3004         35.2004
 -16719961.83346 -13013903.09347  20666446.869    20666447.1934   20666448.9104
        48.6004         45.8004
  11813932.09741   9218240.02345  25128984.530    25128987.8094   25128990.3104
        34.3004         32.7004
  -6934899.28045  -5385957.85746  22458906.773    22458907.4844   22458907.5384
        44.1004         41.2004
 -11976766.20645  -9322615.35047  21631932.381    21631932.8644   21631936.9464
        46.2004         43.3004
  -4248378.44943  -3299981.64746  24421465.233    24421462.5294   24421465.0554
        38.2004         36.0004
 -16438089.74547 -12787606.69648  20395237.718    20395237.9684   20395240.3404
        50.7004         48.0004
  -8068615.96044  -6276028.85846  23677230.098    23677230.2744   23677234.8874
        40.9004         38.5004
  -4199821.13444  -3249238.18446  22384606.418    22384605.8394   22384608.4864
        42.2004         39.3004
 16  9 14  1  2 30.0000000  0  9G18G13G 5G28G24G19G15G17G20
  -9339258.41142  -7265933.27945  23153732.858    23153730.5264   23153733.2474
        37.1004         35.0004
 -16668274.37046 -12973627.15147  20676282.705    20676282.8604   20676284.5714
        48.6004         45.8004
  11925087.63141   9304854.68545  25150136.668    25150134.9514   25150137.1434
        33.7004         32.6004
  -6864441.00245  -5331055.30046  22472315.460    22472314.0384   22472315.2174
        44.1004         41.2004
 -12045430.82945  -9376120.24047  21618865.511    21618865.7794   21618870.4364
        46.0004         43.2004
  -4351166.33643  -3380076.06846  24401906.393    24401902.8134   24401905.8754
        38.3004         36.0004
 -16440839.33547 -12789749.23848  20394714.679    20394714.7544   20394717.0404
        50.7004         48.0004
  -8135626.25244  -6328244.64746  23664477.814    23664479.2184   23664483.3774
        41.1004         38.6004
  -4124952.16744  -3190898.74746  22398852.955    22398851.8934   22398857.2124
        42.2004         39.7004
 16  9 14  1  3  0.0000000  0  9G18G13G 5G28G24G19G15G17G20
  -9375045.53942  -7293819.32245  23146921.636    23146921.1704   23146924.0124
        36.8004         34.8004
 -16616142.64446 -12933005.04447  20686203.732    20686203.2734   20686204.5134
        48.6004         45.6004
  12036194.48741   9391431.43445  25171275.130    25171278.8714   25171284.0584
        33.5004         32.2004
  -6793655.83245  -5275898.03146  22485785.147    22485784.5124   22485785.0774
        43.9004         41.2004
 -12113828.45145  -9429417.08147  21605850.206    21605850.8684   21605855.3234
        46.2004         43.5004
  -4453817.63643  -3460064.06446  24382370.080    24382368.6074   24382371.9024
        38.5004         36.2004
 -16443079.44147 -12791494.77748  20394287.993    20394288.4564   20394290.6644
        50.7004         48.0004
  -8202284.81344  -6380186.36546  23651794.147    23651795.6004   23651798.3054
        41.1004         38.6004
  -4049693.19144  -3132255.40646  22413175.021    22413174.9894   22413178.1794
        42.3004         39.9004
 16  9 14  1  3 30.0000000  0  9G18G13G 5G28G24G19G15G17G20
  -9410343.60142  -7321324.32445  23140205.073    23140204.7704   23140205.4904
        36.8004         34.8004
 -16563567.60546 -12892037.49047  20696207.426    20696207.2734   20696209.4524
        48.4004         45.4004
  12147250.12041   9477968.31245  25192412.737    25192412.2344   25192415.4764
        33.5004         32.7004
  -6722545.92345  -5220487.71346  22499316.071    22499316.1794   22499318.4974
        43.9004         41.4004
 -12181958.61346  -9482505.50947  21592885.471    21592885.7414   21592890.4504
        46.5004         43.7004
  -4556329.35843  -3539943.32546  24362860.928    24362861.9814   24362865.0414
        38.7004         36.6004
 -16444809.58847 -12792842.94648  20393959.669    20393959.5934   20393961.3664
        50.7004         48.0004
  -8268589.14744  -6431852.02746  23639180.922    23639178.6194   23639181.4054
        41.3004         38.8004
  -3974046.96244  -3073310.32246  22427569.972    22427569.2434   22427573.2334
        42.2004         39.3004
 16  9 14  1  4  0.0000000  0  9G18G13G 5G28G24G19G15G17G20
  -9445151.84142  -7348447.61945  23133580.484    23133580.9604   23133582.0274
        36.6004         34.6004
 -16510549.57646 -12850724.76447  20706297.042    20706296.9634   20706298.4334
        48.2004         45.4004
  12258251.79541   9564463.10545  25213536.945    25213537.3304   25213542.5024
        33.7004         32.6004
  -6651113.33345  -5164825.95746  22512909.328    22512908.8254   22512911.4424
        43.9004         41.2004
 -12249819.98246  -9535384.48547  21579971.992    21579972.1124   21579977.1404
        46.5004         43.7004
  -4658697.82843  -3619710.96546  24343382.934    24343382.3714   24343384.2194
        39.0004         36.7004
 -16446029.01747 -12793793.15148  20393727.662    20393727.7074   20393729.0844
        50.7004         48.0004
  -8334536.73344  -6483239.73146  23626627.528    23626628.3554   23626632.0094
        41.3004         38.6004
  -3898016.32044  -3014065.68646  22442038.109    22442037.7174   22442041.6494
        42.0004         39.3004
 16  9 14  1  4 30.0000000  0  9G18G13G 5G28G24G19G15G17G20
  -9479468.76942  -7375188.08645  23127052.887    23127050.9504   23127053.0864
        36.8004         34.8004
 -16457089.21046 -12809067.34547  20716468.656    20716469.3314   20716471.9244
        48.2004         45.2004
  12369196.92741   9650913.83045  25234648.196    25234646.2944   25234649.6264
        33.3004         32.4004
  -6579360.20645  -5108914.42646  22526564.092    22526563.7284   22526565.2634
        43.9004         41.1004
 -12317412.20646  -9588053.72747  21567109.324    21567109.9444   21567114.5714
        46.5004         43.9004
  -4760919.83043  -3699364.45946  24323929.981    24323928.9834   24323931.8024
        39.0004         36.7004
 -16446737.30547 -12794345.06447  20393592.353    20393592.6644   20393594.3124
        50.7004         47.8004
  -8400125.13144  -6534347.54146  23614148.749    23614147.2024   23614149.9354
        41.5004         39.0004
  -3821604.14344  -2954523.73946  22456578.778    22456578.4574   22456582.1194
        42.2004         39.7004
 16  9 14  1  5  0.0000000  0  9G18G13G 5G28G24G19G15G17G20
  -9513293.54742  -7401545.09445  23120614.528    23120613.8074   23120614.8394
        36.8004         35.0004
 -16403187.39246 -12767065.95047  20726727.522    20726727.3814   20726729.1554
        48.2004         45.4004
  12480083.17641   9737318.67845  25255748.081    25255747.4424   25255748.6364
        32.4004         31.7004
  -6507288.79845  -5052754.88046  22540279.433    22540278.6864   22540280.0794
        43.9004         41.4004
 -12384734.08946  -9640512.32447  21554298.786    21554298.0324   21554303.3434
        46.5004         43.7004
  -4862991.88143  -3778901.11646  24304501.870    24304504.8094   24304508.8624
        38.9004         36.6004
 -16446934.00847 -12794498.34748  20393555.402    20393555.6884   20393556.9884
        50.7004         48.0004
  -8465351.60244  -6585173.32546  23601734.910    23601735.6304   23601738.5424
        41.6004         39.0004
  -3744813.12544  -2894686.60346  22471192.229    22471191.0854   22471195.0224
        42.3004         39.7004
 16  9 14  1  5 30.0000000  0  9G18G13G 5G28G24G19G15G17G20
  -9546625.23942  -7427517.85245  23114273.136    23114271.9474   23114272.5954
        37.1004         35.2004
 -16348844.73846 -12724721.03447  20737068.435    20737068.5004   20737069.7084
        48.2004         45.2004
  12590907.71441   9823675.48745  25276838.115    25276836.4754   25276842.9024
        33.1004         32.4004
  -6434901.29845  -4996349.03146  22554053.866    22554053.7814   22554054.7774
        44.1004         41.4004
 -12451785.19346  -9692759.93947  21541539.202    21541539.5894   21541544.5144
        46.5004         43.9004
  -4964910.41743  -3858318.15546  24285114.109    24285111.0754   24285114.2424
        38.9004         36.4004
 -16446618.38147 -12794252.41047  20393614.792    20393615.2534   20393617.0644
        50.7004         47.8004
  -8530213.86544  -6635715.31846  23589393.282    23589392.7304   23589395.1134
        41.5004         38.8004
  -3667646.04344  -2834556.42946  22485876.161    22485875.3744   22485878.9024
        42.3004         39.5004
 16  9 14  1  6  0.0000000  0  9G18G13G 5G28G24G19G15G17G20
  -9579462.56942  -7453105.38345  23108023.308    23108022.9524   23108024.1974
        37.3004         35.2004
 -16294061.86746 -12682033.08947  20747492.930    20747492.9084   20747494.6074
        48.2004         45.4004
  12701668.95241   9909982.95545  25297912.084    25297914.8974   25297919.1374
        33.0004         32.0004
  -6362200.11045  -4939698.76246  22567888.673    22567888.3004   22567888.9884
        44.1004         41.2004
 -12518564.97546  -9744796.12447  21528831.134    21528831.7994   21528836.5704
        46.7004         43.9004
  -5066672.27243  -3937613.06746  24265749.225    24265745.5094   24265748.2454
        38.3004         36.0004
 -16445790.04847 -12793606.96148  20393773.064    20393773.3414   20393774.8474
        50.7004         48.0004
  -8594708.84544  -6685971.10446  23577119.741    23577118.6294   23577121.5394
        41.5004         38.8004
  -3590105.75344  -2774135.43046  22500631.454    22500631.2674   22500635.1494
        42.2004         39.5004
 16  9 14  1  6 30.0000000  0  9G18G13G 5G28G24G19G15G17G20
  -9611804.79342  -7478307.10845  23101868.244    23101867.5084   23101869.7674
        37.5004         35.5004
 -16238839.51346 -12639002.69947  20758000.694    20758000.4564   20758003.1714
        48.1004         45.2004
  12812364.03041   9996238.85745  25318981.481    25318978.3854
        32.4004         31.3004
  -6289187.16445  -4882805.56346  22581782.500    22581782.1584   22581782.5274
        43.9004         40.9004
 -12585072.43746  -9796620.10547  21516175.481    21516175.9174   21516180.6994
        46.7004         44.0004
  -5168273.86943  -4016783.09046  24246417.733    24246413.4574   24246415.9024
        38.5004         36.2004
 -16444448.53147 -12792561.62848  20394028.209    20394028.5334   20394030.1954
        50.7004         48.0004
  -8658833.97944  -6735938.71546  23564915.375    23564915.9874   23564918.5404
        41.3004         38.8004
  -3512195.04844  -2713425.82046  22515456.869    22515456.2694   22515461.0384
        42.0004         39.2004
 16  9 14  1  7  0.0000000  0  9G18G13G 5G28G24G19G15G17G20
  -9643650.86243  -7503122.22646  23095808.304    23095807.3754   23095810.4964
        37.8004         36.0004
 -16183178.36146 -12595630.38347  20768592.006    20768592.6294   20768595.5134
        48.1004         45.2004
                  10082441.42045  25340035.332
                        31.3004
  -6215864.54945  -4825671.05346  22595736.262    22595734.9764   22595735.8774
        43.9004         41.1004
 -12651306.86846  -9848231.33347  21503571.721    21503572.0034   21503576.6504
        47.0004         44.4004
  -5269711.81643  -4095825.62945  24227114.329    24227109.0504   24227113.3884
        38.3004         35.9004
 -16442593.17247 -12791115.90048  20394381.210    20394381.4424   20394383.1324
        50.7004         48.0004
  -8722586.98344  -6785616.36546  23552784.481    23552785.6754   23552786.5874
        41.5004         39.0004
  -3433916.76644  -2652429.79246  22530352.989    22530353.2334   22530355.7814
        41.8004         39.2004
 16  9 14  1  7 30.0000000  0 10G18G13G 5G28G24G19G10G15G17G20
  -9674999.87343  -7527550.03646  23089842.618    23089842.9834   23089845.2164
        38.5004         36.4004
 -16127079.00846 -12551916.62947  20779268.216    20779268.4034   20779270.7934
        48.1004         45.2004
                  10168588.78655  25361065.199
                        31.5004
  -6142234.65545  -4768297.12446  22609746.895    22609746.7364   22609746.7884
        43.9004         41.1004
 -12717267.84546  -9899629.48947  21491019.819    21491019.9984   21491024.6104
        47.0004         44.2004
  -5370982.77543  -4174738.04645  24207839.993    24207837.3684   24207840.0824
        38.0004         35.7004
   -313274.93852   -229191.65855  24675546.303    24675541.6964   24675547.4244
        37.1004         35.5004
 -16440223.91747 -12789269.72848  20394832.005    20394832.3994   20394834.2734
        50.8004         48.2004
  -8785965.12644  -6835001.90746  23540724.914    23540724.5624   23540727.0964
        41.5004         38.8004
  -3355273.57944  -2591149.41446  22545318.813    22545318.3574   22545322.0144
        42.0004         39.5004
 16  9 14  1  8  0.0000000  0 10G18G13G 5G28G24G19G10G15G17G20
  -9705850.38243  -7551589.39446  23083972.418    23083971.6384   23083974.2194
        39.0004         36.9004
 -16070542.28046 -12507862.05647  20790026.547    20790026.7674   20790029.5264
        48.1004         45.2004
                      6428.02653  25382093.739
                        23.4004
  -6068299.37545  -4710685.22146  22623816.280    22623815.2604   22623816.4194
        43.9004         40.9004
 -12782954.29046  -9950813.71847  21478520.471    21478520.7134   21478525.1174
        47.2004         44.5004
  -5472083.09243  -4253517.51745  24188597.678    24188598.3014   24188601.2624
        37.8004         35.5004
   -392406.52042   -290852.61345  24660483.243    24660484.1564   24660489.8494
        37.3004         35.2004
 -16437340.02247 -12787022.54148  20395380.669    20395380.7794   20395382.8284
        50.8004         48.0004
  -8848965.96744  -6884093.45946  23528734.991    23528735.7794   23528738.0054
        41.5004         39.0004
  -3276268.41044  -2529586.97646  22560354.627    22560353.6114   22560356.5474
        42.2004         39.7004
 16  9 14  1  8 30.0000000  0  9G18G13G28G24G19G10G15G17G20
  -9736201.93643  -7575239.95146  23078196.684    23078195.9814   23078198.8374
        39.4004         37.3004
 -16013568.91046 -12463467.23947  20800869.519    20800869.1324   20800871.3064
        48.1004         45.2004
  -5994061.19545  -4652837.28246  22637942.222    22637942.3844   22637945.4304
        43.7004         40.9004
 -12848365.48646 -10001783.46147  21466072.883    21466073.4524   21466077.7444
        47.4004         44.7004
  -5573009.55243  -4332161.51945  24169388.389    24169392.2704   24169396.4274
        37.8004         35.5004
   -471147.06252   -352208.89555  24645500.655    24645500.5864   24645505.6604
        37.3004         35.2004
 -16433941.46247 -12784374.31148  20396027.260    20396027.5784   20396029.5904
        50.7004         48.0004
  -8911587.01644  -6932889.05046  23516819.666    23516820.2144   23516822.5784
        41.6004         39.2004
  -3196904.43444  -2467744.92446  22575455.788    22575455.1464   22575458.8144
        42.0004         39.2004
 16  9 14  1  9  0.0000000  0  9G18G13G28G24G19G10G15G17G20
  -9766053.84243  -7598501.17746  23072516.740    23072515.9274   23072518.3574
        39.6004         37.1004
 -15956159.76346 -12418732.85047  20811793.039    20811793.2274   20811795.3674
        48.1004         45.2004
  -5919522.22745  -4594754.96346  22652126.304    22652126.3404   22652127.6264
        43.6004         40.7004
 -12913500.86646 -10052538.28847  21453677.808    21453678.0424   21453682.7204
        47.4004         44.5004
  -5673758.71943  -4410667.37845  24150215.492    24150221.5564   24150223.7914
        38.0004         35.5004
   -549494.14642   -413258.57845  24630590.186    24630590.3724   24630597.4384
        36.8004         34.6004
 -16430027.12447 -12781324.18848  20396772.639    20396772.4254   20396774.5944
        50.8004         48.2004
  -8973825.56844  -6981386.58846  23504977.268    23504975.9084   23504979.5584
        41.8004         39.3004
  -3117184.11144  -2405625.22146  22590626.410    22590626.3084   22590628.7294
        41.8004         39.2004
 16  9 14  1  9 30.0000000  0  9G18G13G28G24G19G10G15G17G20
  -9795404.98743  -7621372.21846  23066931.298    23066929.5244   23066931.8414
        39.6004         37.3004
 -15898315.56146 -12373659.46147  20822801.376    20822800.9694   20822803.0744
        48.1004         45.2004
  -5844684.69145  -4536439.99546  22666368.076    22666368.0824   22666369.7004
        43.6004         40.9004
 -12978359.58846 -10103077.54647  21441336.019    21441335.7744   21441340.0234
        47.2004         44.2004
  -5774326.96043  -4489032.21345  24131085.467    24131082.5574   24131086.3034
        37.8004         35.7004
   -627445.35042   -473999.76945  24615757.838    24615758.2274   24615764.5574
        37.3004         35.5004
 -16425597.01147 -12777872.15648  20397615.389    20397615.6504   20397617.4664
        50.8004         48.0004
  -9035679.14844  -7029584.15846  23493204.711    23493206.0884   23493208.0954
        41.8004         39.2004
  -3037110.43844  -2343230.15746  22605863.596    22605863.7784   22605865.2704
        41.6004         38.8004
 16  9 14  1 10  0.0000000  0  9G18G13G28G24G19G10G15G17G20
  -9824254.22143  -7643852.12246  23061440.846    23061439.4724   23061442.5064
        39.7004         37.3004
 -15840036.91546 -12328247.54347  20833890.544    20833891.0384   20833893.0674
        48.1004         45.2004
  -5769550.68345  -4477894.01946  22680666.184    22680664.4914   22680667.1264
        43.6004         40.7004
 -13042940.69646 -10153400.48147  21429046.291    21429047.0224   21429051.1554
        47.2004         44.5004
  -5874710.93843  -4567253.40745  24111986.573    24111980.5804   24111985.0094
        37.8004         35.7004
   -704998.13243   -534430.51445  24601000.534    24601000.7334   24601004.4034
        37.6004         35.5004
 -16420650.93947 -12774018.08048  20398557.138    20398557.0934   20398558.4194
        50.8004         48.2004
  -9097145.33444  -7077479.86746  23481508.637    23481509.4234   23481511.5454
        42.0004         39.3004
  -2956686.43044  -2280562.11346  22621168.136    22621167.7794   22621170.0694
        41.6004         39.0004
 16  9 14  1 10 30.0000000  0  9G18G13G28G24G19G10G15G17G20
  -9852601.06243  -7665940.57846  23056045.726    23056046.0384   23056048.5154
        39.7004         37.3004
 -15781324.84846 -12282497.89147  20845063.483    20845063.8384   20845065.9164
        48.1004         45.2004
  -5694122.06645  -4419118.48846  22695019.790    22695019.4574   22695020.2604
        43.6004         40.7004
 -13107244.06146 -10203506.98947  21416809.819    21416810.1824   21416814.0014
        47.2004         44.5004
  -5974907.39743  -4645328.58845  24092915.767    24092914.6604   24092917.2814
        37.8004         35.7004
   -782150.05542   -594548.90445  24586318.921    24586319.7674   24586321.3944
        37.5004         35.2004
 -16415188.39647 -12769761.56148  20399596.287    20399596.3764   20399598.3064
        50.8004         48.2004
  -9158221.86244  -7125071.94246  23469885.781    23469886.4444   23469888.1894
        41.8004         39.2004
  -2875914.69244  -2217623.10246  22636538.804    22636538.0604   22636540.3064
        41.5004         38.6004
 16  9 14  1 11  0.0000000  0  9G18G13G28G24G19G10G15G17G20
  -9880444.64243  -7687636.87846  23050747.626    23050746.7344   23050750.0324
        39.7004         37.3004
 -15722180.35746 -12236411.29247  20856318.592    20856318.8744   20856320.6404
        48.1004         45.2004
  -5618401.33145  -4360115.29946  22709429.281    22709428.4314   22709429.8194
        43.6004         40.7004
 -13171268.44746 -10253396.11047  21404626.266    21404626.6724   21404630.6034
        47.4004         44.5004
  -6074912.65843  -4723254.74845  24073886.501    24073883.4424   24073885.4044
        37.8004         35.7004
   -858898.76843   -654353.09245  24571714.762    24571714.6664   24571718.3104
        37.6004         35.5004
 -16409208.98647 -12765102.28148  20400734.293    20400734.3464   20400736.0794
        50.8004         48.2004
  -9218905.98144  -7172358.23646  23458338.922    23458338.2574   23458341.4244
        42.0004         39.3004
  -2794798.16144  -2154415.43646  22651974.540    22651973.2154   22651976.3824
        41.5004         39.0004
 16  9 14  1 11 30.0000000  0  9G18G13G28G24G19G10G15G17G20
  -9907783.78143  -7708940.09646  23045545.824    23045545.5704   23045547.3664
        39.7004         37.3004
 -15662604.07746 -12189988.22747  20867655.854    20867655.7354   20867657.4364
        48.1004         45.2004
  -5542390.79544  -4300886.32046  22723892.227    22723891.0024   22723893.6964
        43.4004         40.2004
 -13235013.51946 -10303067.59747  21392495.566    21392495.9864   21392500.1204
        47.4004         44.4004
  -6174723.10543  -4801029.08046  24054893.098    24054890.6584   24054894.2044
        38.3004         36.2004
   -935241.78342   -713841.10845  24557186.565    24557187.3794   24557189.0554
        37.1004         34.8004
 -16402712.41547 -12760040.03048  20401970.450    20401970.6124   20401972.2334
        50.8004         48.2004
  -9279195.23644  -7219336.84646  23446865.161    23446865.8234   23446868.7104
        42.0004         39.3004
  -2713339.73444  -2090941.34346  22667475.724    22667475.6644   22667478.8414
        41.6004         39.0004
 16  9 14  1 12  0.0000000  0  9G18G13G28G24G19G10G15G17G20
  -9934618.19243  -7729850.02246  23040439.187    23040438.4094   23040440.5954
        39.4004         36.9004
 -15602596.51946 -12143229.11647  20879074.249    20879074.2874   20879076.3904
        47.9004         44.9004
  -5466092.69844  -4241433.25046  22738411.395    22738411.0254   22738412.5464
        43.2004         40.6004
 -13298478.35446 -10352520.70347  21380418.662    21380419.1934   21380424.0104
        47.4004         44.7004
  -6274335.54543  -4878649.17946  24035933.718    24035934.8914   24035939.3404
        38.5004         36.6004
  -1011176.71042   -773011.17245  24542736.645    24542737.1374   24542740.2864
        36.8004         34.8004
 -16395698.38847 -12754574.55948  20403304.770    20403305.1734   20403307.2184
        50.8004         48.2004
  -9339087.40244  -7266006.04746  23435466.240    23435467.5974   23435470.8614
        41.8004         39.0004
  -2631542.27644  -2027203.08146  22683041.021    22683040.3294   22683043.1714
        41.5004         38.8004
 16  9 14  1 12 30.0000000  0  9G18G13G28G24G19G10G15G17G20
  -9960946.78143  -7750365.80146  23035428.900    23035428.6994   23035431.3604
        39.2004         36.7004
 -15542158.66046 -12096134.69647  20890575.500    20890575.1354   20890577.3884
        47.7004         44.9004
  -5389508.97344  -4181757.63246  22752984.514    22752984.6004   22752985.8974
        43.2004         40.4004
 -13361661.93746 -10401754.64847  21368395.762    21368395.8684   21368400.4284
        47.7004         44.9004
  -6373746.51343  -4956112.29646  24017015.887    24017019.3074   24017020.3504
        39.2004         36.9004
  -1086701.16242   -831861.42345  24528365.788    24528363.3524   24528367.8024
        36.8004         34.8004
 -16388166.60047 -12748705.63948  20404738.409    20404738.6874   20404740.2944
        51.0004         48.2004
  -9398579.74744  -7312363.68446  23424147.557    23424147.1144   23424150.8454
        42.0004         39.3004
  -2549408.84744  -1963203.01846  22698670.237    22698669.1684   22698673.1104
        41.3004         38.8004
 16  9 14  1 13  0.0000000  0  9G18G13G28G24G19G10G15G17G20
  -9986768.65743  -7770486.74346  23030516.574    23030515.4724   23030516.3874
        39.0004         36.7004
 -15481291.65246 -12048705.88247  20902157.964    20902157.9054   20902160.5064
        47.7004         44.9004
  -5312642.04244  -4121861.32646  22767612.462    22767612.7684   22767613.2324
        43.0004         40.4004
 -13424563.80046 -10450769.07147  21356425.746    21356425.9234   21356430.5764
        47.7004         44.9004
  -6472952.68743  -5033415.77346  23998144.195    23998140.3994   23998141.5254
        39.4004         36.9004
  -1161812.69042   -890389.88845  24514071.229    24514072.2344   24514075.7284
        36.6004         34.6004
 -16380116.58447 -12742432.89948  20406270.207    20406270.5294   20406272.0504
        50.8004         48.2004
  -9457669.91444  -7358407.92346  23412904.565    23412903.5434   23412906.0644
        42.2004         39.7004
  -2466942.30944  -1898943.39146  22714363.277    22714362.7504   22714366.7294
        41.5004         38.8004
 16  9 14  1 13 30.0000000  0  9G18G13G28G24G19G10G15G17G20
 -10012083.39843  -7790212.51446  23025699.678    23025697.7194   23025700.3824
        38.9004         36.6004
 -15419996.12646 -12000943.15547  20913821.604    20913821.8844   20913824.1514
        47.7004         44.7004
  -5235493.95944  -4061745.93946  22782293.635    22782292.9164   22782294.9234
        43.0004         40.4004
 -13487183.36146 -10499563.52147  21344509.813    21344510.3724   21344514.2704
        47.7004         44.9004
  -6571950.33243  -5110556.75246  23979307.246    23979301.2284   23979303.8084
        39.6004         37.3004
  -1236508.86342   -948594.69845  24499857.869    24499857.1184   24499860.7454
        37.1004         35.2004
 -16371548.02447 -12735756.10648  20407900.718    20407901.0234   20407902.6974
        50.8004         48.2004
  -9516355.60044  -7404137.01246  23401735.258    23401735.3874   23401738.0664
        42.3004         39.7004
  -2384145.60444  -1834426.51246  22730118.277    22730117.9924   22730121.3004
        41.5004         38.8004
 16  9 14  1 14  0.0000000  0  9G18G13G28G24G19G10G15G17G20
 -10036890.33643  -7809542.59246  23020978.298    23020977.3294   23020979.1814
        38.7004         36.4004
 -15358273.24246 -11952847.42147  20925567.702    20925567.7214   20925570.1544
        47.7004         44.9004
  -5158066.84944  -4001413.13746  22797027.384    22797027.6404   22797028.3404
        43.0004         40.6004
 -13549519.61746 -10548137.21647  21332647.814    21332648.1344   21332652.6944
        47.7004         45.1004
  -6670735.95543  -5187532.53946  23960506.337    23960502.3644   23960506.5824
        39.9004         37.3004
  -1310787.40642  -1006474.10545  24485723.220    24485722.5374   24485727.2484
        37.5004         35.7004
 -16362461.00447 -12728675.31948  20409629.840    20409630.0224   20409632.0554
        50.8004         48.2004
  -9574634.33544  -7449548.97946  23390644.671    23390644.6434   23390647.6624
        42.3004         39.5004
  -2301021.48044  -1769654.49746  22745936.604    22745935.4764   22745940.0264
        41.3004         38.6004
 16  9 14  1 14 30.0000000  0  9G18G13G28G24G19G10G15G17G20
 -10061188.56643  -7828476.28645  23016354.023    23016352.4544   23016354.6624
        38.3004         35.7004
 -15296123.28246 -11904418.90447  20937394.725    20937394.5614   20937396.8194
        47.7004         44.9004
  -5080362.85644  -3940864.56846  22811813.777    22811813.8944   22811814.8934
        43.2004         40.6004
 -13611572.24146 -10596489.90547  21320839.182    21320839.1664   21320844.3034
        47.9004         44.9004
  -6769306.12143  -5264340.45646  23941742.194    23941745.0494   23941748.2704
        39.9004         37.4004
  -1384645.83643  -1064026.16445  24471668.197    24471668.5124   24471672.7484
        37.8004         35.7004
 -16352855.25247 -12721190.32648  20411457.902    20411458.1014   20411459.7844
        50.8004         48.0004
  -9632503.74244  -7494641.99546  23379633.823    23379632.0944   23379635.9704
        42.2004         39.3004
  -2217572.86144  -1704629.61946  22761816.067    22761815.7634   22761820.0924
        41.5004         38.8004
 16  9 14  1 15  0.0000000  0  9G18G13G28G24G19G10G15G17G20
 -10084977.36843  -7847013.00045  23011825.784    23011826.8624   23011827.2884
        37.8004         35.2004
 -15233547.57146 -11855658.62447  20949301.827    20949301.9384   20949304.6124
        47.7004         44.9004
  -5002384.29344  -3880102.04846  22826652.356    22826651.8404   22826654.0634
        43.0004         40.0004
 -13673340.10346 -10644620.69247  21309085.132    21309085.4504   21309089.9654
        47.7004         44.9004
  -6867657.59343  -5340977.97246  23923026.041    23923029.1664   23923032.8494
        39.7004         37.3004
  -1458081.84243  -1121249.05945  24457693.603    24457694.0924   24457696.3124
        37.8004         35.7004
 -16342730.24947 -12713300.72248  20413384.477    20413384.7514   20413386.9054
        50.8004         48.2004
  -9689961.41344  -7539414.18246  23368697.632    23368699.3864   23368702.7784
        42.2004         39.5004
  -2133802.95544  -1639354.37846  22777757.799    22777756.9424   22777760.1744
        41.3004         38.5004
 16  9 14  1 15 30.0000000  0  9G18G13G28G24G19G10G15G17G20
 -10108255.94942  -7865152.15445  23007397.763    23007396.6354   23007399.9494
        37.5004         35.3004
 -15170546.88746 -11806567.19947  20961290.901    20961291.2064   20961293.2774
        47.7004         44.7004
  -4924133.45944  -3819127.38246  22841543.345    22841542.3914   22841545.3134
        43.0004         40.2004
 -13734822.87546 -10692529.33847  21297385.416    21297385.6964   21297389.3454
        47.5004         44.5004
  -6965786.95143  -5417442.38346  23904355.372    23904355.4044   23904358.8824
        39.9004         37.3004
  -1531093.03643  -1178140.90345  24443799.877    24443799.7164   24443803.1274
        37.8004         35.7004
 -16332086.23147 -12705006.68548  20415409.558    20415410.0834   20415412.0684
        50.7004         48.0004
  -9747004.94744  -7583863.66946  23357843.598    23357844.2534   23357847.6264
        42.2004         39.3004
  -2049714.70544  -1573831.09746  22793759.127    22793757.8234   22793761.0954
        40.9004         38.3004
 16  9 14  1 16  0.0000000  0  9G18G13G28G24G19G10G15G17G20
 -10131024.04942  -7882893.51345  23003064.044    23003062.7294   23003066.8244
        37.3004         35.0004
 -15107122.18846 -11757145.37547  20973360.777    20973360.4334   20973362.1384
        47.5004         44.7004
  -4845612.27444  -3757942.05146  22856485.396    22856484.5854   22856485.8434
        43.0004         40.2004
 -13796019.40046 -10740214.94047  21285739.950    21285740.6294   21285743.5174
        47.4004         44.4004
  -7063690.38543  -5493730.75046  23885728.385    23885725.8224   23885729.3784
        39.7004         37.3004
  -1603677.14243  -1234699.94145  24429988.486    24429988.8884   24429991.7754
        38.2004         35.9004
 -16320922.69747 -12696307.83948  20417534.547    20417534.5274   20417535.9734
        50.8004         48.0004
  -9803632.17644  -7627988.74646  23347068.204    23347068.3474   23347070.7464
        42.2004         39.5004
  -1965310.78844  -1508061.84146  22809819.506    22809818.9474   22809823.7284
        40.6004         38.1004
 16  9 14  1 16 30.0000000  0  9G18G13G28G24G19G10G15G17G20
 -10153280.92842  -7900236.54445  22998829.568    22998828.6434   22998830.2494
        37.3004         35.2004
 -15043274.78846 -11707394.17447  20985510.191    20985510.1084   20985511.8144
        47.5004         44.5004
  -4766823.06744  -3696547.85946  22871478.544    22871477.8734   22871478.9834
        42.9004         39.9004
 -13856929.04746 -10787677.00547  21274149.331    21274150.0334   21274153.0124
        47.4004         44.5004
  -7161364.82443  -5569840.67446  23867143.378    23867139.1554   23867142.2004
        39.7004         37.4004
  -1675831.75843  -1290924.35546  24416256.140    24416257.1754   24416261.8564
        38.3004         36.0004
 -16309239.54947 -12687204.08848  20419757.768    20419757.7414   20419759.3394
        50.8004         48.0004
  -9859840.66944  -7671787.54046  23336371.664    23336372.0494   23336375.1484
        42.3004         39.7004
  -1880594.05744  -1442048.80246  22825940.307    22825941.0624   22825944.6784
        40.6004         37.9004
 16  9 14  1 17  0.0000000  0  9G18G13G28G24G19G10G15G17G20
 -10175025.90343  -7917180.68245  22994691.584    22994690.4624   22994692.5914
        37.8004         35.9004
 -14979005.29746 -11657314.06447  20997740.485    20997740.2514   20997742.0214
        47.4004         44.4004
  -4687767.95444  -3634946.47346  22886521.877    22886522.0374   22886523.7644
        42.7004         40.0004
 -13917551.43146 -10834915.21847  21262613.092    21262613.5174   21262617.2324
        47.5004         44.7004
  -7258806.50943  -5645769.24346  23848598.253    23848597.0484   23848598.5904
        39.7004         37.4004
  -1747554.64643  -1346812.32446  24402609.195    24402609.2574   24402612.2884
        38.2004         36.0004
 -16297036.57547 -12677695.28348  20422080.191    20422080.1244   20422081.5914
        50.8004         48.2004
  -9915627.86944  -7715258.05246  23325757.674    23325755.0944   23325759.3764
        42.3004         39.5004
  -1795567.64643  -1375794.48746  22842121.063    22842120.4364   22842123.1534
        40.4004         37.8004
 16  9 14  1 17 30.0000000  0  9G18G13G28G24G19G10G15G17G20
 -10196258.35643  -7933725.46746  22990650.353    22990649.7164   22990651.8594
        38.0004         36.0004
 -14914314.53146 -11606905.68847  21010050.276    21010050.2114   21010052.2544
        47.4004         44.4004
  -4608449.17644  -3573139.63746  22901615.857    22901615.2934   22901617.3414
        42.7004         40.0004
 -13977885.77046 -10881928.97847  21251131.793    21251131.5944   21251136.5234
        47.5004         44.7004
  -7356012.01143  -5721513.76546  23830099.495    23830099.3654   23830102.6214
        39.7004         37.4004
  -1818843.41243  -1402361.99646  24389043.686    24389043.3744   24389047.5704
        38.5004         36.4004
 -16284313.56247 -12667781.25548  20424501.163    20424501.0614   20424502.8424
        50.8004         48.0004
  -9970991.73344  -7758398.69346  23315220.658    23315220.7104   23315222.7254
        42.3004         39.7004
  -1710234.69443  -1309301.29646  22858358.955    22858358.5834   22858362.3284
        40.3004         37.9004
 16  9 14  1 18  0.0000000  0  9G18G13G28G24G19G10G15G17G20
 -10216977.50543  -7949870.28246  22986708.116    22986707.9794   22986709.3274
        38.7004         36.6004
 -14849203.77646 -11556170.05947  21022440.232    21022440.3354   21022442.9104
        47.2004         44.2004
  -4528868.88044  -3511129.02046  22916760.096    22916759.4714   22916761.3874
        42.7004         39.9004
 -14037930.99246 -10928717.45847  21239705.410    21239705.9834   21239710.4854
        47.5004         44.9004
  -7452977.93443  -5797071.63546  23811648.253    23811647.7114   23811649.9114
        39.9004         37.6004
  -1889695.83843  -1457571.71345  24375560.319    24375559.9114   24375563.8984
        38.3004         35.9004
 -16271070.50247 -12657461.99647  20427020.981    20427021.1374   20427022.8524
        50.7004         47.8004
 -10025929.94944  -7801207.68446  23304764.836    23304766.4364   23304768.7444
        42.5004         39.9004
  -1624597.86544  -1242571.31446  22874656.492    22874655.6694   22874659.3244
        40.6004         38.1004
 16  9 14  1 18 30.0000000  0  9G18G13G28G24G19G10G15G17G20
 -10237182.96443  -7965614.80646  22982862.935    22982862.1844   22982863.8134
        39.2004         36.9004
 -14783673.68746 -11505107.66647  21034909.858    21034909.9414   21034912.4764
        47.0004         44.2004
  -4449029.31144  -3448916.37946  22931952.303    22931952.2434   22931953.1484
        42.7004         40.2004
 -14097686.77946 -10975280.39747  21228334.395    21228335.0584   21228338.8824
        47.7004         45.1004
  -7549700.62343  -5872439.95246  23793243.280    23793241.5064   23793243.2804
        39.9004         37.3004
  -1960109.56543  -1512439.56846  24362161.747    24362161.8424   24362163.9354
        38.3004         36.2004
 -16257307.09447 -12646737.27247  20429639.878    20429639.8184   20429642.0154
        50.7004         47.8004
 -10080440.19444  -7843683.17246  23294393.844    23294394.3294   23294395.6964
        42.5004         40.0004
  -1538660.29943  -1175606.96746  22891008.300    22891007.8744   22891011.7824
        40.4004         37.8004
 16  9 14  1 19  0.0000000  0  9G18G13G28G24G19G10G15G17G20
 -10256874.44643  -7980958.84046  22979116.334    22979115.9534   22979116.6624
        39.7004         37.4004
 -14717725.36246 -11453719.37847  21047459.695    21047459.7424   21047462.1884
        47.2004         44.2004
  -4368932.51444  -3386503.29146  22947194.665    22947194.5964   22947195.7494
        42.7004         39.9004
 -14157152.23746 -11021617.11547  21217018.672    21217018.9404   21217023.6854
        47.9004         45.2004
  -7646177.04443  -5947616.35746  23774885.130    23774882.4244   23774884.3894
        39.7004         37.3004
  -2030082.35443  -1566963.78046  24348845.210    24348845.2164   24348849.3244
        38.5004         36.2004
 -16243023.66847 -12635607.33547  20432357.681    20432358.1464   20432359.9024
        50.5004         47.8004
 -10134520.31544  -7885823.50546  23284102.407    23284102.9734   23284104.8224
        42.7004         40.0004
  -1452424.95043  -1108410.61246  22907419.620    22907418.2694   22907421.7334
        40.3004         37.8004
 16  9 14  1 19 30.0000000  0  9G18G13G28G24G19G10G15G17G20
 -10276051.17343  -7995901.74846  22975467.149    22975466.4444   22975468.6654
        40.1004         37.9004
 -14651359.80646 -11402005.96947  21060087.842    21060088.9284   21060091.2214
        47.2004         44.4004
  -4288580.71444  -3323891.51246  22962483.803    22962483.9714   22962485.7344
        42.5004         39.5004
 -14216326.58846 -11067726.98847  21205758.255    21205758.4474   21205763.4174
        48.1004         45.2004
  -7742403.46543  -6022597.97346  23756570.500    23756571.4144   23756572.8014
        39.6004         37.1004
  -2099611.91143  -1621142.66146  24335614.239    24335613.7854   24335619.0404
        38.3004         36.0004
 -16228220.18247 -12624072.16448  20435175.358    20435175.2234   20435177.2304
        50.7004         48.0004
 -10188167.78544  -7927626.71646  23273892.511    23273892.4684   23273896.2544
        42.7004         40.0004
  -1365894.70143  -1040984.47846  22923885.534    22923886.0184   22923888.2714
        40.4004         37.9004
 16  9 14  1 20  0.0000000  0  9G18G13G28G24G19G10G15G17G20
 -10294712.61244  -8010443.14246  22971915.794    22971914.8614   22971916.8534
        40.6004         38.3004
 -14584578.11946 -11349968.31947  21072797.689    21072797.7914   21072799.4544
        47.2004         44.4004
  -4207976.17244  -3261082.77446  22977824.207    22977823.3484   22977825.5304
        42.5004         40.0004
 -14275209.14246 -11113609.48547  21194552.920    21194553.5824   21194558.2784
        48.1004         45.2004
  -7838376.55143  -6097382.16246  23738309.807    23738306.9924   23738310.1454
        39.6004         37.1004
  -2168695.96943  -1674974.39445  24322468.609    24322468.1844   24322471.8124
        38.0004         35.7004
 -16212896.28047 -12612131.46447  20438090.537    20438091.0514   20438093.3814
        50.5004         47.8004
 -10241380.44944  -7969091.08546  23263767.453    23263766.4124   23263769.7884
        42.7004         40.0004
  -1279072.49043   -973330.81346  22940407.240    22940406.6344   22940410.0824
        40.4004         37.9004
 16  9 14  1 20 30.0000000  0  9G18G13G28G24G19G10G15G17G20
 -10312858.45244  -8024582.75746  22968462.608    22968462.3014   22968463.9424
        40.9004         38.5004
 -14517381.37646 -11297607.23347  21085584.540    21085584.1494   21085586.6604
        47.4004         44.4004
  -4127121.15644  -3198078.87546  22993208.655    22993209.2204   22993211.5054
        42.5004         39.9004
 -14333799.45346 -11159264.27147  21183403.649    21183403.9084   21183408.4954
        48.1004         45.2004
  -7934092.78443  -6171966.20846  23720094.827    23720093.0274   23720097.4664
        39.6004         37.3004
  -2237332.32943  -1728457.23846  24309406.460    24309406.4654   24309412.8614
        38.0004         36.0004
 -16197052.25147 -12599785.47648  20441106.091    20441106.2974   20441108.3544
        50.7004         48.0004
 -10294156.14944  -8010214.98046  23253722.810    23253723.8484   23253728.0174
        42.7004         40.0004
  -1191961.56444   -905452.18646  22956985.135    22956984.5734   22956985.8084
        40.6004         38.1004
 16  9 14  1 21  0.0000000  0  9G18G13G28G24G19G10G15G17G20
 -10330488.20644  -8038320.24546  22965108.386    22965107.2354   22965108.2874
        41.1004         38.5004
 -14449770.42446 -11244923.39547  21098450.567    21098450.4694   21098452.3874
        47.2004         44.4004
  -4046017.53044  -3134881.24946  23008643.193    23008642.7854   23008645.2194
        42.3004         39.7004
 -14392096.59146 -11204690.59947  21172310.003    21172310.0284   21172314.9144
        48.1004         45.2004
  -8029548.62543  -6246347.35746  23701929.497    23701928.7634   23701931.6134
        39.9004         37.6004
  -2305518.51143  -1781589.37145  24296431.847    24296432.7134   24296436.6104
        38.0004         35.9004
 -16180687.46447 -12587033.70448  20444220.698    20444220.4884   20444222.3824
        50.7004         48.0004
 -10346492.67544  -8050996.66246  23243766.439    23243765.4584   23243768.2764
        42.9004         40.4004
  -1104564.64243   -837350.71846  22973616.171    22973614.9204   22973616.9204
        40.4004         37.8004
 16  9 14  1 21 30.0000000  0  9G18G13G28G24G19G10G15G17G20
 -10347601.46344  -8051655.26146  22961850.331    22961849.2884   22961852.3484
        40.9004         38.5004
 -14381746.41946 -11191917.70147  21111394.746    21111394.9634   21111397.1254
        47.2004         44.4004
  -3964667.69344  -3071491.75746  23024122.719    23024122.5304   23024125.3634
        42.5004         39.9004
 -14450099.54446 -11249887.70847  21161272.156    21161273.0004   21161277.3244
        48.1004         45.2004
  -8124740.45043  -6320522.78646  23683813.818    23683814.9484   23683817.1564
        40.3004         37.9004
  -2373252.76043  -1834369.31545  24283542.568    24283542.1444   24283545.0924
        37.6004         35.5004
 -16163802.10347 -12573876.28248  20447433.670    20447433.8284   20447435.7944
        50.7004         48.0004
 -10398387.81644  -8091434.39346  23233890.746    23233890.5004   23233893.1304
        43.2004         40.4004
  -1016884.78643   -769028.75346  22990300.256    22990300.2464   22990302.6024
        40.3004         37.9004
 16  9 14  1 22  0.0000000  0  9G18G13G28G24G19G10G15G17G20
 -10364197.89844  -8064587.53446  22958693.175    22958692.1984   22958693.4874
        41.3004         39.0004
 -14313310.67746 -11138591.17547  21124418.092    21124418.0924   21124420.2264
        47.2004         44.4004
  -3883073.47344  -3007911.84546  23039648.987    23039648.3974   23039653.0784
        42.5004         39.9004
 -14507808.29646 -11294855.55647  21150290.997    21150290.9524   21150295.6924
        48.1004         45.2004
  -8219664.99843  -6394489.96546  23665753.432    23665752.5404   23665753.3554
        40.4004         38.1004
  -2440532.62343  -1886795.20545  24270739.578    24270739.5164   24270743.8444
        37.6004         35.5004
 -16146396.40547 -12560313.40748  20450746.072    20450746.2544   20450747.6724
        50.7004         48.0004
 -10449839.55544  -8131526.64346  23224099.702    23224100.2244   23224103.0074
        43.4004         40.7004
   -928925.15443   -700488.78546  23007038.343    23007038.6724   23007041.2054
        40.4004         37.8004
 16  9 14  1 22 30.0000000  0  9G18G13G28G24G19G10G15G17G20
 -10380277.24544  -8077116.90846  22955633.276    22955632.7814   22955635.0634
        42.0004         39.7004
 -14244463.69746 -11084944.19547  21137519.130    21137518.9924   21137521.1264
        47.0004         44.2004
  -3801237.36844  -2944143.43546  23055222.797    23055222.0004   23055225.3134
        42.3004         39.5004
 -14565221.65846 -11339593.23147  21139365.615    21139365.9534   21139370.6854
        48.1004         45.4004
  -8314318.98944  -6468246.29046  23647741.592    23647739.7654   23647741.2744
        40.6004         38.1004
  -2507355.95643  -1938865.30445  24258023.541    24258023.0874   24258027.6554
        37.8004         35.7004
 -16128470.39747 -12546345.09948  20454156.954    20454157.1574   20454158.8974
        50.7004         48.0004
 -10500845.43544  -8171271.47346  23214394.317    23214393.1364   23214396.6484
        43.2004         40.6004
   -840688.61643   -631733.06446  23023829.466    23023828.8994   23023830.2394
        39.9004         37.3004
 16  9 14  1 23  0.0000000  0  9G18G13G28G24G19G10G15G17G20
 -10395838.57644  -8089242.61646  22952672.007    22952672.2074   22952673.9764
        42.3004         39.9004
 -14175206.75246 -11030977.76747  21150697.982    21150698.2184   21150700.2434
        47.0004         44.0004
  -3719161.47444  -2880188.20346  23070841.303    23070840.4234   23070842.5774
        42.2004         39.5004
 -14622339.06446 -11384100.28947  21128496.406    21128496.7644   21128501.4064
        48.2004         45.4004
  -8408698.74943  -6541788.94046  23629782.184    23629779.0334   23629781.4794
        40.4004         37.9004
  -2573720.50943  -1990577.94845  24245393.704    24245393.1464   24245399.0634
        37.6004         35.3004
 -16110024.02547 -12531971.30547  20457666.766    20457667.0914   20457669.3084
        50.7004         47.8004
 -10551403.44944  -8210667.30646  23204770.622    23204771.6104   23204774.5984
        43.2004         40.6004
   -752178.09343   -562763.85646  23040671.698    23040671.7514   23040675.3634
        39.7004         37.3004
 16  9 14  1 23 30.0000000  0  9G18G13G28G24G19G10G15G17G20
 -10410881.92144  -8100964.70746  22949810.399    22949809.9794   22949811.5504
        42.9004         40.4004
 -14105541.12546 -10976692.88147  21163955.710    21163955.1064   21163957.1164
        47.0004         44.2004
  -3636847.74344  -2816047.64946  23086505.003    23086504.8834   23086507.4774
        42.0004         39.3004
 -14679159.97946 -11428376.31047  21117682.915    21117683.5934   21117688.8864
        48.1004         45.2004
  -8502800.89843  -6615115.26346  23611873.154    23611872.5804   23611875.2924
        40.4004         37.9004
  -2639624.17243  -2041931.45045  24232854.138    24232854.6944   24232857.2424
        37.8004         35.7004
 -16091057.30347 -12517192.04948  20461276.354    20461276.6104   20461278.3854
        50.7004         48.0004
 -10601511.24844  -8249712.33846  23195237.531    23195237.6014   23195239.6634
        43.4004         40.7004
   -663396.48643   -493583.40846  23057567.093    23057566.8044   23057570.3554
        39.9004         37.6004
 16  9 14  1 24  0.0000000  0  9G18G13G28G24G19G10G15G17G20
 -10425406.73044  -8112282.73146  22947045.686    22947045.5924   22947046.9484
        42.9004         40.4004
 -14035467.81746 -10922090.32347  21177289.387    21177289.7264   21177291.6664
        46.9004         44.0004
  -3554298.61144  -2751723.64846  23102214.245    23102214.3334   23102216.1034
        42.0004         39.3004
 -14735683.56046 -11472420.65647  21106927.109    21106927.6284   21106932.7924
        47.9004         45.1004
  -8596621.96144  -6688222.57546  23594020.223    23594018.5804   23594020.8014
        40.6004         38.1004
  -2705064.72843  -2092924.08345  24220400.367    24220401.0134   24220405.3814
        38.0004         35.9004
 -16071570.29047 -12502007.36947  20464984.809    20464984.8504   20464986.7984
        50.7004         47.8004
 -10651167.08744  -8288405.15546  23185788.705    23185787.2854   23185790.7724
        43.4004         40.7004
   -574347.03143   -424194.23046  23074511.697    23074510.9604   23074514.9464
        39.9004         37.4004
 16  9 14  1 24 30.0000000  0 10G18G13G28G24G19G10G15G12G17G20
 -10439413.02344  -8123196.74046  22944380.619    22944380.0554   22944381.5474
        43.0004         40.4004
 -13964988.09446 -10867171.08047  21190700.934    21190701.8584   21190703.5814
        46.9004         44.0004
  -3471516.07844  -2687217.77546  23117966.688    23117966.2674   23117968.9664
        41.8004         39.0004
 -14791909.23646 -11516232.85847  21096228.033    21096228.1664   21096233.1934
        47.9004         45.1004
  -8690158.35744  -6761108.03046  23576221.634    23576219.9074   23576221.8364
        40.8004         38.3004
  -2770040.07743  -2143554.20745  24208035.399    24208035.7164   24208040.5994
        37.6004         35.5004
 -16051563.11047 -12486417.36947  20468791.799    20468791.7404   20468794.1754
        50.7004         47.8004
                   -225904.55654  23926334.306
                        29.1004
 -10700368.59044  -8326743.96446  23176424.199    23176424.5754   23176428.3244
        43.4004         40.7004
   -485033.00143   -354598.91546  23091508.529    23091506.9704   23091511.1304
        39.9004         37.4004
 16  9 14  1 25  0.0000000  0 10G18G13G28G24G19G10G15G12G17G20
 -10452900.30044  -8133706.32546  22941813.506    22941812.7654   22941815.2504
        43.0004         40.6004
 -13894102.87646 -10811935.86247  21204190.806    21204190.5144   21204192.9914
        46.9004         43.9004
  -3388502.59144  -2622531.94946  23133765.528    23133764.7814   23133765.6384
        42.0004         39.5004
 -14847836.43146 -11559812.47747  21085584.875    21085585.7294   21085590.5274
        47.9004         44.9004
  -8783406.58144  -6833768.96346  23558474.339    23558474.7634   23558477.4264
        40.9004         38.6004
  -2834548.07343  -2193820.19345  24195761.884    24195762.0614   24195764.8704
        37.6004         35.7004
 -16031035.89447 -12470422.14347  20472697.864    20472697.8124   20472700.4124
        50.5004         47.8004
                    -37179.92043  23904095.324
                        23.4004
 -10749113.92044  -8364727.31046  23167148.680    23167148.9774   23167151.7734
        43.2004         40.6004
   -395456.93643   -284799.39846  23108554.127    23108553.8474   23108557.5454
        40.3004         37.9004
 16  9 14  1 25 30.0000000  0 10G18G13G28G24G19G10G15G12G17G20
 -10465867.93944  -8143810.99846  22939345.415    22939344.9974   22939346.4704
        43.0004         40.2004
 -13822813.32146 -10756385.58247  21217756.043    21217756.2274   21217758.5694
        46.7004         43.7004
  -3305259.89244  -2557667.51246  23149604.722    23149604.3104   23149606.6024
        41.8004         39.0004
 -14903463.65446 -11603158.35847  21075000.006    21075000.4774   21075004.5564
        47.7004         45.1004
  -8876363.50044  -6906202.92646  23540785.900    23540785.8874   23540788.1094
        41.1004         38.6004
  -2898586.62142  -2243720.32345  24183573.729    24183571.8124   24183580.0744
        37.3004         35.2004
 -16009988.68247 -12454021.73147  20476703.172    20476703.1864   20476705.4044
        50.5004         47.8004
                   -128145.17945  23881879.346
                        35.5004
 -10797400.90944  -8402353.50046  23157960.022    23157959.7724   23157962.1004
        43.2004         40.6004
   -305622.00143   -214798.16446  23125649.372    23125648.8194   23125651.8894
        40.4004         37.8004
 16  9 14  1 26  0.0000000  0 10G18G13G28G24G19G10G15G12G17G20
 -10478316.16244  -8153510.92046  22936977.299    22936976.9944   22936978.9144
        43.0004         40.2004
 -13751120.69446 -10700521.21247  21231398.858    21231398.4844   21231401.1904
        46.5004         43.5004
  -3221790.44944  -2492626.39346  23165487.404    23165487.1164   23165489.5884
        41.6004         38.6004
 -14958791.26446 -11646270.77747  21064472.093    21064472.0684   21064476.3724
        47.9004         45.2004
  -8969025.77044  -6978407.26146  23523155.935    23523152.6724   23523155.1124
        41.5004         38.8004
  -2962153.57443  -2293253.04046  24171477.171    24171478.9384   24171483.4694
        37.8004         36.0004
 -15988421.75447 -12437216.34047  20480806.956    20480807.2044   20480809.5844
        50.5004         47.8004
                   -218997.43446  23859694.359                    23859695.3374
                        36.9004
 -10845227.18544  -8439620.69446  23148859.562    23148859.5584   23148861.6564
        43.2004         40.4004
   -215531.64943   -144597.90346  23142792.743    23142791.3244   23142795.2214
        40.1004         37.3004
 16  9 14  1 26 30.0000000  0 10G18G13G28G24G19G10G15G12G17G20
 -10490244.57544  -8162805.80946  22934707.739    22934706.9564   22934708.2804
        42.9004         40.2004
 -13679026.04846 -10644343.58847  21245118.756    21245118.2114   21245120.8414
        46.5004         43.5004
  -3138096.20644  -2427410.10246  23181414.894    23181414.1824   23181415.3284
        41.6004         39.0004
 -15013817.53046 -11689148.38247  21054000.303    21054000.8834   21054005.4564
        48.1004         45.2004
  -9061389.57544  -7050379.02146  23505580.508    23505576.1494   23505578.8464
        41.6004         39.0004
  -3025246.81743  -2342416.63846  24159473.780    24159472.5204   24159475.9914
        38.9004         36.9004
 -15966335.24847 -12420006.08348  20485010.301    20485010.5974   20485012.4034
        50.7004         48.0004
   -773915.83643   -309734.46846  23837532.388    23837532.8174   23837536.0034
        38.7004         36.7004
 -10892591.14544  -8476527.65346  23139846.354    23139846.7124   23139848.8844
        43.2004         40.7004
   -125187.55743    -74199.95446  23159985.440    23159984.4884   23159986.8654
        39.9004         37.4004
 16  9 14  1 27  0.0000000  0 10G18G13G28G24G19G10G15G12G17G20
 -10501653.13544  -8171695.60946  22932536.261    22932535.0954   22932538.6284
        42.9004         40.0004
 -13606530.71645 -10587853.73847  21258912.302    21258912.7144   21258915.3924
        46.3004         43.3004
  -3054179.23844  -2362020.26946  23197383.685    23197383.2014   23197385.3604
        41.6004         38.8004
 -15068542.52746 -11731791.22447  21043586.474    21043586.9114   21043591.2104
        48.1004         45.2004
  -9153451.59544  -7122115.65046  23488057.932    23488057.1044   23488060.5074
        41.6004         38.8004
  -3087864.36143  -2391209.52946  24147554.997    24147555.5394   24147561.0964
        39.0004         36.7004
 -15943729.32947 -12402391.09447  20489312.174    20489311.9804   20489314.1014
        50.7004         47.8004
   -890211.91543   -400354.79046  23815402.938    23815403.3274   23815406.7404
        39.0004         36.9004
 -10939490.50344  -8513072.58346  23130921.754    23130921.5604   23130923.6854
        43.4004         40.6004
    -34594.16543     -3607.70146  23177223.000    23177222.2484   23177226.8754
        39.9004         37.4004
 16  9 14  1 27 30.0000000  0 10G18G13G28G24G19G10G15G12G17G20
 -10512541.61444  -8180180.13946  22930464.081    22930463.4184   22930465.7364
        42.7004         39.7004
 -13533635.72945 -10531052.47047  21272784.683    21272784.2954   21272787.4324
        46.2004         43.3004
  -2970041.73744  -2296458.57846  23213394.464    23213394.4064   23213395.0964
        41.5004         38.6004
 -15122965.09446 -11774198.41647  21033230.231    21033230.6774   21033234.6604
        48.1004         45.2004
  -9245208.46344  -7193614.50646  23470596.608    23470598.1364   23470598.4884
        41.5004         38.6004
  -3150004.09143  -2439630.12346  24135730.742    24135731.7044   24135735.6304
        39.2004         36.7004
 -15920604.03947 -12384371.39847  20493712.552    20493712.5944   20493714.5724
        50.7004         47.8004
  -1006355.96453   -490856.64256  23793303.129    23793303.3884   23793304.1874
        39.4004         37.1004
 -10985923.30444  -8549253.95646  23122084.772    23122085.4344   23122087.4824
        43.2004         40.4004
     56245.87143     67176.73846  23194510.490    23194510.0724   23194511.4964
        39.6004         37.1004
 16  9 14  1 28  0.0000000  0 10G18G13G28G24G19G10G15G12G17G20
 -10522909.68744  -8188259.16846  22928490.878    22928490.4324   22928492.4464
        42.3004         39.2004
 -13460342.06645 -10473940.54247  21286731.879    21286731.7754   21286734.9144
        46.2004         43.3004
  -2885685.92944  -2230726.78346  23229447.063    23229446.7854   23229447.9314
        41.5004         39.0004
 -15177084.97646 -11816369.74747  21022931.831    21022932.0574   21022936.7524
        48.2004         45.6004
  -9336656.62144  -7264872.77746  23453198.535    23453194.7084   23453197.2454
        41.3004         38.5004
  -3211664.01343  -2487676.82246  24123998.082    24123999.1204   24124003.1394
        39.2004         36.9004
 -15896959.79947 -12365947.32647  20498211.775    20498212.2594   20498214.1814
        50.7004         47.8004
  -1122345.66043   -581238.21046  23771230.524    23771229.6064   23771232.1554
        39.6004         37.3004
 -11031887.54444  -8585070.23146  23113338.448    23113338.2624   23113341.2434
        43.2004         40.6004
    147329.72743    138151.13746  23211842.750    23211842.6734   23211845.7864
        39.6004         36.9004
 16  9 14  1 28 30.0000000  0 10G18G13G28G24G19G10G15G12G17G20
 -10532757.15944  -8195932.51746  22926617.174    22926615.9634   22926618.0624
        41.6004         38.8004
 -13386651.06445 -10416519.00447  21300755.019    21300755.2104   21300757.5094
        46.2004         43.5004
  -2801113.78844  -2164826.41246  23245540.667    23245540.7384   23245541.6894
        41.6004         39.0004
 -15230901.39546 -11858304.61147  21012690.605    21012691.2414   21012695.8024
        48.4004         45.6004
  -9427792.84444  -7335887.97646  23435855.776    23435851.9854   23435855.0664
        41.1004         38.5004
  -3272842.00943  -2535348.02846  24112355.824    24112355.6084   24112359.7074
        39.2004         36.9004
 -15872797.08647 -12347119.24547  20502810.106    20502810.2724   20502812.0664
        50.5004         47.8004
  -1238178.89843   -671497.85746  23749186.619    23749186.3804   23749189.8514
        39.6004         37.3004
 -11077381.28744  -8620519.87646  23104680.531    23104680.8004   23104684.0204
        43.2004         40.6004
    238654.43043    209313.26346  23229220.044    23229219.6274   23229224.7114
        39.2004         36.7004
 16  9 14  1 29  0.0000000  0 10G18G13G28G24G19G10G15G12G17G20
 -10542084.13044  -8203200.29346  22924842.292    22924842.4204   22924843.3034
        41.1004         38.3004
 -13312564.37645 -10358789.13947  21314853.070    21314853.1784   21314856.0034
        46.2004         43.5004
  -2716327.68744  -2098759.33046  23261674.908    23261674.2404   23261675.2364
        41.3004         38.8004
 -15284413.32046 -11900002.20447  21002507.822    21002508.2974   21002512.7974
        48.4004         45.6004
  -9518613.40644  -7406657.23746  23418569.171    23418568.2094   23418572.4784
        41.1004         38.5004
  -3333536.12543  -2582642.12546  24100807.949    24100807.8394   24100811.0294
        40.1004         38.1004
 -15848115.59247 -12327886.92547  20507506.900    20507506.9924   20507509.0124
        50.7004         47.8004
  -1353853.65043   -761634.03546  23727174.060    23727174.5894   23727177.8734
        39.7004         37.4004
 -11122402.55644  -8655601.37146  23096113.617    23096113.8894   23096117.0434
        43.4004         40.7004
    330216.78643    280660.54846  23246643.782    23246643.7114   23246648.1654
        39.0004         36.6004
 16  9 14  1 29 30.0000000  0 10G18G13G28G24G19G10G15G12G17G20
 -10550889.99444  -8210061.99946  22923166.393    22923166.0834   22923168.2644
        40.6004         37.9004
 -13238082.97245 -10300751.71547  21329027.918    21329027.5904   21329029.2094
        46.3004         43.5004
  -2631329.69844  -2032527.14146  23277849.591    23277849.2104   23277849.3194
        41.3004         38.6004
 -15337620.28846 -11941462.17847  20992383.115    20992383.6694   20992387.4444
        48.4004         45.8004
  -9609115.11344  -7477178.04346  23401346.380    23401346.5794   23401349.2894
        41.3004         38.6004
  -3393744.37743  -2629557.60446  24089349.505    24089349.2834   24089354.5524
        40.4004         37.9004
 -15822915.53047 -12308250.51747  20512302.045    20512302.1994   20512304.1904
        50.7004         47.8004
  -1469367.86543   -851645.10146  23705194.354    23705194.9484   23705196.4234
        40.1004         37.8004
 -11166949.41645  -8690313.17546  23087638.413    23087637.9784   23087640.3564
        43.6004         41.1004
    422013.98043    352190.81246  23264113.863    23264113.0954   23264115.6374
        39.0004         36.4004
 16  9 14  1 30  0.0000000  0 10G18G13G28G24G19G10G15G12G17G20
 -10559175.22843  -8216518.02246  22921589.917    22921589.7774   22921591.5784
        40.4004         37.9004
 -13163207.62445 -10242407.30347  21343274.349    21343274.7154   21343278.3334
        46.3004         43.5004
  -2546121.80344  -1966131.38746  23294064.820    23294064.4274   23294065.1664
        41.3004         38.8004
 -15390521.82946 -11982684.15647  20982316.490    20982316.9624   20982320.6444
        48.4004         45.8004
  -9699294.50844  -7547447.66046  23384188.315    23384186.2324   23384189.6274
        41.5004         39.0004
  -3453464.71043  -2676092.95846  24077985.666    24077985.1384   24077989.9504
        40.4004         37.9004
 -15797197.34947 -12288210.38747  20517196.128    20517196.5624   20517198.2564
        50.5004         47.7004
  -1584719.69543   -941529.60846  23683241.233    23683241.8704   23683244.9634
        40.1004         37.6004
 -11211019.96445  -8724653.83546  23079250.491    23079251.0434   23079253.8654
        43.7004         41.1004
    514042.52343    423901.35746  23281625.451    23281625.0364   23281628.1624
        38.5004         36.2004
 16  9 14  1 30 30.0000000  0 10G18G13G28G24G19G10G15G12G17G20
 -10566939.67143  -8222568.22346  22920113.305    22920112.6224   22920114.7064
        40.1004         37.4004
 -13087939.83245 -10183757.10147  21357599.022    21357598.8004   21357600.9874
        46.3004         43.5004
  -2460706.13744  -1899573.73146  23310319.465    23310318.1394   23310318.0984
        41.1004         38.5004
 -15443116.59946 -12023667.09347  20972307.388    20972307.8604   20972312.6404
        48.4004         45.6004
  -9789148.18244  -7617463.48446  23367090.488    23367088.0934   23367090.8654
        41.6004         39.2004
  -3512695.18643  -2722246.54846  24066713.847    24066714.1144   24066717.8894
        40.4004         37.8004
 -15770961.52447 -12267766.89847  20522188.925    20522189.1264   20522190.5054
        50.5004         47.7004
  -1699906.65643  -1031285.68746  23661323.242    23661322.6844   23661326.4704
        40.1004         37.8004
 -11254612.14145  -8758621.74446  23070956.773    23070955.8104   23070958.8944
        43.9004         41.1004
    606299.81043    495790.14746  23299183.164    23299181.8514   23299186.3824
        38.9004         36.7004
 16  9 14  1 31  0.0000000  0 10G18G13G28G24G19G10G15G12G17G20
 -10574183.12043  -8228212.49146  22918734.458    22918734.4744   22918735.5054
        39.6004         36.7004
 -13012280.97145 -10124802.16247  21371995.944    21371995.7454   21371998.5804
        46.3004         43.5004
  -2375084.80744  -1832855.81046  23326610.954    23326612.1554   23326612.3704
        41.3004         38.6004
 -15495404.67646 -12064411.04247  20962357.086    20962357.2094   20962362.1054
        48.2004         45.4004
  -9878672.70444  -7687222.84046  23350053.307    23350052.5024   23350055.0594
        41.6004         39.0004
  -3571433.83843  -2768016.90846  24055536.312    24055536.3394   24055540.8834
        40.1004         37.4004
 -15744208.42547 -12246920.33047  20527279.612    20527279.7474   20527281.8634
        50.5004         47.7004
  -1814926.00143  -1120911.13446  23639435.593    23639436.2454   23639439.1754
        40.4004         37.8004
 -11297724.12445  -8792215.46246  23062751.876    23062751.5274   23062755.4314
        43.9004         41.1004
    698782.74443    567854.76146  23316781.017    23316780.4454   23316783.6594
        38.9004         36.2004
 16  9 14  1 31 30.0000000  0 10G18G13G28G24G19G10G15G12G17G20
 -10580905.57143  -8233450.77146  22917455.540    22917455.1794   22917455.9034
        39.0004         36.4004
 -12936232.21045 -10065543.40847  21386467.335    21386467.5054   21386469.6104
        46.3004         43.5004
  -2289259.97144  -1765979.33446  23342942.595    23342942.1354   23342944.3994
        41.1004         38.3004
 -15547385.09646 -12104915.25147  20952465.361    20952465.9594   20952470.8884
        48.4004         45.6004
  -9967864.70844  -7756723.10446  23333080.975    23333080.4644   23333082.3094
        41.8004         39.3004
  -3629678.65943  -2813402.50146  24044452.115    24044451.9124   24044458.7874
        40.3004         37.8004
 -15716938.17847 -12225670.79647  20532469.038    20532469.4114   20532471.1814
        50.5004         47.7004
  -1929776.09243  -1210404.69146  23617579.902    23617580.2654   23617584.1924
        40.4004         37.9004
 -11340354.14645  -8825433.63246  23054638.585    23054639.1614   23054643.2364
        43.6004         40.9004
    791488.11543    640092.67246  23334421.626    23334422.0114   23334424.7774
        38.5004         36.2004
 16  9 14  1 32  0.0000000  0 10G18G13G28G24G19G10G15G12G17G20
 -10587107.13143  -8238283.17346  22916275.593    22916273.7344   22916276.5224
        38.7004         36.2004
 -12859795.09545 -10005982.04147  21401012.486    21401012.9324   21401015.7884
        46.3004         43.3004
  -2203233.72944  -1698945.89846  23359312.380    23359312.8014   23359313.8654
        40.8004         38.3004
 -15599057.03446 -12145179.08947  20942632.429    20942633.0524   20942638.1384
        48.4004         45.8004
 -10056720.55444  -7825961.39546  23316172.730    23316170.4184   23316172.9394
        41.6004         39.0004
  -3687427.84143  -2858401.87046  24033464.529    24033464.5794   24033467.3634
        40.4004         37.8004
 -15689151.30347 -12204018.69247  20537756.144    20537756.8064   20537759.0334
        50.3004         47.5004
  -2044454.80043  -1299764.71246  23595756.421    23595757.5314   23595761.3554
        40.3004         37.6004
 -11382500.33845  -8858274.80346  23046618.170    23046619.0114   23046621.1314
        43.6004         40.7004
    884413.09443    712501.71146  23352104.834    23352104.5744   23352107.9414
        38.3004         36.0004
 16  9 14  1 32 30.0000000  0 10G18G13G28G24G19G10G15G12G17G20
 -10592787.58343  -8242709.50746  22915194.398    22915193.1554   22915194.9774
        38.7004         36.6004
 -12782970.47545  -9946118.72847  21415632.879    21415632.3744   21415634.2954
        46.2004         43.3004
  -2117008.18544  -1631757.16546  23375720.771    23375720.1584   23375723.5994
        40.8004         38.1004
 -15650419.97046 -12185202.14947  20932858.649    20932859.1514   20932863.9994
        48.6004         45.9004
 -10145237.16044  -7894935.36046  23299326.574    23299325.3184   23299329.1534
        41.6004         39.0004
  -3744679.35543  -2903013.44046  24022566.894    24022567.2784   24022573.0744
        39.7004         37.1004
 -15660847.78147 -12181964.00947  20543142.614    20543142.6794   20543144.9244
        50.3004         47.5004
  -2158959.96343  -1388989.50746  23573967.682    23573967.8784   23573970.9384
        40.1004         37.4004
 -11424160.82244  -8890737.47746  23038691.201    23038690.8614   23038693.4844
        43.4004         40.6004
    977554.49143    785079.42046  23369829.740    23369829.2584   23369834.0184
        38.5004         36.4004
 16  9 14  1 33  0.0000000  0 10G18G13G28G24G19G10G15G12G17G20
 -10597947.14143  -8246729.97546  22914211.413    22914211.3534   22914212.8694
        39.0004         36.7004
 -12705759.90645  -9885954.66347  21430324.628    21430324.9334   21430327.0644
        46.2004         43.2004
  -2030585.53944  -1564414.84146  23392167.697    23392166.7984   23392168.1074
        40.9004         38.3004
 -15701473.06046 -12224983.76847  20923143.857    20923144.5294   20923149.0664
        48.8004         46.1004
 -10233411.02144  -7963642.26046  23282549.194    23282548.1114   23282549.6954
        41.6004         39.0004
  -3801431.43043  -2947235.83546  24011769.339    24011769.7064   24011773.2924
        39.7004         37.6004
 -15632028.19747 -12159507.20047  20548627.070    20548627.1134   20548628.7304
        50.3004         47.5004
  -2273289.60143  -1478077.52446  23552211.959    23552212.1104   23552214.5774
        39.9004         37.6004
 -11465333.77844  -8922820.27946  23030856.187    23030855.8274   23030860.0854
        43.4004         40.7004
   1070909.10743    857823.24746  23387593.903    23387594.5064   23387597.0284
        38.7004         36.2004
 16  9 14  1 33 30.0000000  0 10G18G13G28G24G19G10G15G12G17G20
 -10602585.70143  -8250344.47146  22913329.419    22913328.7414   22913330.5644
        39.4004         37.1004
 -12628164.61945  -9825490.81847  21445091.342    21445091.1624   21445092.5894
        46.0004         43.0004
  -1943967.78944  -1496920.49646  23408649.057    23408648.9764   23408650.9624
        40.8004         38.1004
 -15752215.64346 -12264523.44147  20913488.314    20913488.5224   20913493.2484
        48.9004         46.3004
 -10321238.78744  -8032079.46746  23265834.657    23265835.0794   23265836.8094
        41.8004         39.2004
  -3857682.10543  -2991067.53646  24001065.123    24001065.3294   24001069.4014
        39.6004         37.1004
 -15602693.01647 -12136648.62547  20554209.194    20554209.4484   20554211.3024
        50.3004         47.5004
  -2387441.62543  -1567027.14046  23530489.147    23530490.5184   23530492.6764
        39.9004         37.6004
 -11506017.37344  -8954521.77146  23023113.955    23023114.1504   23023116.3054
        43.4004         40.6004
   1164474.39043    930731.25445  23405399.013    23405398.6034   23405400.6094
        38.2004         35.9004
 16  9 14  1 34  0.0000000  0 10G18G13G28G24G19G10G15G12G17G20
 -10606703.61543  -8253553.25246  22912545.592    22912544.2104   22912548.8774
        40.1004         37.9004
 -12550185.87845  -9764728.18847  21459930.277    21459929.3174   21459931.9884
        45.8004         42.8004
  -1857157.04744  -1429275.75446  23425168.986    23425168.7464   23425171.2104
        40.6004         37.9004
 -15802647.19746 -12303820.75547  20903891.636    20903892.0784   20903895.9764
        48.9004         46.1004
 -10408717.00444  -8100244.27846  23249189.018    23249187.5754   23249190.5794
        41.8004         39.3004
  -3913429.52443  -3034507.05846  23990455.898    23990456.2064   23990461.1334
        39.4004         37.3004
 -15572842.45147 -12113388.45447  20559889.618    20559889.6334   20559891.3364
        50.3004         47.5004
  -2501413.98043  -1655836.74846  23508800.934    23508801.3894   23508804.9604
        40.3004         37.8004
 -11546209.89044  -8985840.59746  23015465.420    23015465.9054   23015468.1484
        43.4004         40.7004
   1258247.05043   1003800.84246  23423243.295    23423243.1624   23423246.8484
        38.3004         36.2004
 16  9 14  1 34 30.0000000  0 10G18G13G28G24G19G10G15G12G17G20
 -10610300.83944  -8256356.32346  22911861.722    22911861.5894   22911863.7384
        40.6004         38.3004
 -12471825.02145  -9703667.80447  21474840.750    21474841.0904   21474843.6624
        45.6004         42.8004
  -1770155.39743  -1361482.26646  23441725.305    23441724.1764   23441727.3744
        40.4004         37.9004
 -15852767.43146 -12342875.47547  20894353.793    20894354.2034   20894358.2784
        48.9004         45.9004
 -10495842.32644  -8168134.12546  23232608.942    23232608.5484   23232611.5764
        42.0004         39.3004
  -3968671.87743  -3077553.05246  23979943.782    23979944.2164   23979948.2074
        39.9004         37.6004
 -15542477.08547 -12089727.13447  20565667.925    20565668.2944   20565669.8634
        50.3004         47.5004
  -2615204.19643  -1744504.44946  23487147.694    23487147.5354   23487149.8374
        40.3004         37.8004
 -11585909.45244  -9016775.30946  23007910.600    23007911.2514   23007913.9254
        43.4004         40.6004
   1352223.90243   1077029.56746  23441125.385    23441126.1314   23441130.6564
        38.3004         36.0004
 16  9 14  1 35  0.0000000  0 10G18G13G28G24G19G10G15G12G17G20
 -10613377.42844  -8258753.68846  22911276.276    22911275.5654   22911278.3164
        40.9004         38.6004
 -12393083.32445  -9642310.65147  21489825.519    21489824.9754   21489827.3174
        45.6004         42.8004
  -1682964.99644  -1293541.69346  23458317.489    23458316.9604   23458318.1654
        40.6004         38.1004
 -15902574.65946 -12381686.30547  20884875.824    20884875.8954   20884880.1394
        48.9004         46.1004
 -10582611.42144  -8235746.38046  23216099.711    23216097.1114   23216100.1884
        42.2004         39.5004
  -4023407.28943  -3120204.01046  23969528.102    23969528.5774   23969532.3464
        40.1004         37.4004
 -15511597.35647 -12065665.02147  20571544.251    20571544.4364   20571545.9004
        50.3004         47.5004
  -2728810.27843  -1833028.66146  23465529.803    23465529.5674   23465531.1164
        40.4004         38.1004
 -11625114.31544  -9047324.52346  23000451.176    23000452.2054   23000453.9594
        43.4004         40.9004
   1446401.91043   1150415.00446  23459049.690    23459047.3184   23459050.2764
        38.2004         36.0004
 16  9 14  1 35 30.0000000  0 10G18G13G28G24G19G10G15G12G17G20
 -10615933.12444  -8260745.16446  22910789.653    22910789.3784   22910791.2484
        41.3004         38.6004
 -12313962.32745  -9580657.95247  21504882.251    21504882.0714   21504884.0734
        45.6004         43.0004
  -1595587.75844  -1225455.54446  23474944.925    23474944.5714   23474944.8984
        40.6004         37.9004
 -15952068.82246 -12420253.19247  20875457.104    20875457.5214   20875461.5644
        48.9004         46.1004
 -10669020.94644  -8303078.46746  23199654.544    23199654.4664   23199656.3644
        42.2004         39.5004
  -4077633.88643  -3162458.53646  23959209.423    23959209.3144   23959214.9904
        40.1004         37.8004
 -15480203.79147 -12041202.50947  20577518.499    20577518.6654   20577520.4104
        50.3004         47.7004
  -2842229.96143  -1921407.62346  23443946.047    23443945.8534   23443948.6824
        40.4004         37.8004
 -11663823.19445  -9077487.26646  22993085.422    22993085.0214   22993088.0624
        43.7004         41.1004
   1540778.22843   1223954.94846  23477006.128    23477006.7184   23477010.4384
        38.3004         36.0004
 16  9 14  1 36  0.0000000  0 10G18G13G28G24G19G10G15G12G17G20
 -10617969.02144  -8262331.58546  22910402.759    22910402.0304   22910403.8464
        41.5004         39.0004
 -12234463.34645  -9518710.70847  21520010.147    21520010.0124   21520012.2034
        45.8004         43.0004
  -1508025.93343  -1157225.55246  23491607.467    23491606.5074   23491607.7164
        40.4004         37.8004
 -16001248.99946 -12458575.39347  20866098.482    20866099.0044   20866102.9444
        48.9004         46.3004
 -10755067.48044  -8370127.68946  23183279.583    23183279.4714   23183282.3734
        42.2004         39.7004
  -4131350.01043  -3204315.24246  23948987.596    23948987.5034   23948991.8644
        40.4004         38.3004
 -15448296.67247 -12016339.83347  20583589.770    20583589.9594   20583592.3744
        50.3004         47.5004
  -2955461.58943  -2009640.06646  23422398.530    23422398.7084   23422402.0364
        40.3004         37.8004
 -11702033.98345  -9107261.88746  22985812.772    22985813.1834   22985816.7444
        43.7004         41.1004
   1635349.91343   1297647.18246  23495003.218    23495002.3504   23495007.2384
        38.5004         36.2004
 16  9 14  1 36 30.0000000  0 10G18G13G28G24G19G10G15G12G17G20
 -10619484.80944  -8263512.72646  22910113.880    22910112.6224   22910115.5754
        41.5004         38.8004
 -12154587.57445  -9456469.87947  21535209.500    21535209.3604   21535211.6234
        45.8004         43.0004
  -1420281.42743  -1088853.20846  23508305.035    23508304.6794   23508305.2264
        40.4004         37.9004
 -16050115.11146 -12496652.87247  20856799.947    20856800.1764   20856804.2874
        49.1004         46.5004
 -10840747.66244  -8436891.44346  23166975.068    23166975.0374   23166978.7984
        42.2004         39.5004
  -4184553.83044  -3245772.74146  23938864.210    23938864.1604   23938868.0664
        40.6004         38.3004
 -15415876.78047 -11991077.59147  20589758.713    20589759.1314   20589761.8054
        50.2004         47.5004
  -3068502.81643  -2097724.12646  23400888.405    23400888.2994   23400889.3504
        40.3004         37.6004
 -11739744.67845  -9136646.81146  22978637.684    22978637.3924   22978640.2724
        43.9004         41.1004
   1730113.79343   1371489.14246  23513037.136    23513035.5434   23513041.0584
        38.7004         36.4004
 16  9 14  1 37  0.0000000  0 10G18G13G28G24G19G10G15G12G17G20
 -10620480.55044  -8264288.62846  22909923.532    22909923.2644   22909926.0624
        41.3004         38.8004
 -12074336.51245  -9393936.60547  21550480.704    21550481.1814   21550483.3784
        45.8004         43.2004
  -1332356.31543  -1020340.16146  23525035.735    23525036.1514   23525037.0344
        40.4004         37.8004
 -16098666.27346 -12534484.93547  20847560.965    20847561.0084   20847565.3284
        49.1004         46.3004
 -10926058.21044  -8503367.17346  23150742.207    23150740.8674   23150743.8074
        42.2004         39.5004
  -4237243.53343  -3286829.69246  23928835.954    23928836.0944   23928841.3364
        40.4004         37.8004
 -15382944.27547 -11965415.91547  20596025.867    20596026.0344   20596028.4114
        50.2004         47.3004
  -3181351.29643  -2185657.99246  23379414.873    23379414.2434   23379415.5844
        40.3004         37.8004
 -11776953.94545  -9165641.02646  22971556.557    22971557.0124   22971559.6634
        43.9004         41.1004
   1825066.85143   1445478.52146  23531105.542    23531105.0374   23531108.0034
        38.3004         36.0004
 16  9 14  1 37 30.0000000  0 10G18G13G28G24G19G10G15G12G17G20
 -10620956.56444  -8264659.56746  22909834.061    22909833.3144   22909835.1024
        41.3004         38.8004
 -11993711.54145  -9331111.97847  21565823.313    21565823.1024   21565824.9944
        45.8004         43.0004
  -1244252.61943   -951687.90946  23541801.259    23541800.5494   23541802.4064
        40.1004         37.6004
 -16146901.28746 -12572070.66047  20838381.897    20838382.2294   20838386.2884
        49.1004         46.3004
 -11010995.81444  -8569552.30246  23134578.020    23134578.4244   23134580.5164
        42.0004         39.5004
  -4289417.44044  -3327484.69346  23918909.238    23918909.1264   23918912.8724
        40.6004         38.1004
 -15349499.65547 -11939355.18347  20602389.607    20602390.1154   20602392.6114
        50.0004         47.2004
  -3294005.41343  -2273440.39346  23357977.145    23357976.3784   23357979.4914
        40.4004         37.9004
 -11813660.15645  -9194243.22946  22964570.599    22964571.5964   22964574.4894
        43.9004         41.1004
   1920205.91143   1519612.84046  23549210.560    23549209.4144   23549213.5194
        38.5004         36.2004
 16  9 14  1 38  0.0000000  0 10G18G13G28G24G19G10G15G12G17G20
 -10620913.22244  -8264625.79946  22909842.442    22909841.8544   22909843.7564
        41.5004         39.0004
 -11912713.91745  -9267996.96047  21581236.180    21581236.8024   21581239.2174
        45.8004         42.8004
  -1155972.51343   -882898.23946  23558600.441    23558599.6904   23558601.1734
        39.9004         37.3004
 -16194820.05446 -12609409.95247  20829263.242    20829263.8284   20829267.7584
        49.1004         46.3004
 -11095557.15344  -8635444.25346  23118489.441    23118487.2634   23118487.6694
        42.0004         39.3004
  -4341073.74543  -3367736.36046  23909078.255    23909078.2144   23909082.9094
        40.4004         37.8004
 -15315543.51047 -11912895.86047  20608851.891    20608851.9834   20608853.9804
        50.0004         47.2004
  -3406462.63443  -2361069.41046  23336576.484    23336576.1014   23336577.9974
        40.4004         37.9004
 -11849861.69645  -9222452.21746  22957683.337    22957683.1244   22957685.7224
        43.9004         41.2004
   2015527.90943   1593889.72246  23567348.971    23567348.8894   23567352.4274
        38.7004         36.4004
 16  9 14  1 38 30.0000000  0 10G18G13G28G24G19G10G15G12G17G20
 -10620350.78144  -8264187.55246  22909949.280    22909948.6174   22909950.9824
        41.5004         39.0004
 -11831345.26145  -9204592.82347  21596720.375    21596720.3984   21596722.9034
        45.6004         42.8004
  -1067518.27143   -813972.84646  23575432.811    23575431.9344   23575432.5104
        39.7004         37.1004
 -16242421.66846 -12646502.11447  20820204.780    20820204.9604   20820209.1844
        48.9004         46.1004
 -11179738.70544  -8701040.24546  23102470.696    23102467.9944   23102469.0394
        42.0004         39.5004
  -4392210.75043  -3407583.42246  23899347.400    23899347.9854   23899351.4264
        40.4004         37.9004
 -15281076.86747 -11886038.74747  20615410.875    20615410.8184   20615412.6534
        50.0004         47.2004
  -3518720.99443  -2448543.43946  23315214.181    23315215.4294   23315216.2044
        40.4004         37.9004
 -11885556.90445  -9250266.63246  22950891.622    22950890.9494   22950893.5704
        44.1004         41.4004
   2111029.88543   1668306.84046  23585524.091    23585522.1064   23585524.9824
        38.7004         36.4004
 16  9 14  1 39  0.0000000  0 10G18G13G28G24G19G10G15G12G17G20
 -10619269.35944  -8263344.87546  22910154.770    22910154.5884   22910156.0624
        41.5004         38.6004
 -11749606.82245  -9140900.55947  21612274.753    21612274.4664   21612277.1994
        45.6004         42.8004
   -978891.84743   -744913.31546  23592297.120    23592296.6764   23592298.9344
        39.6004         37.1004
 -16289705.24546 -12683346.46247  20811207.115    20811207.5624   20811211.1994
        48.9004         46.1004
 -11263537.40344  -8766337.92746  23086521.489    23086521.2514   23086522.3824
        42.2004         39.5004
  -4442826.82243  -3447024.52346  23889715.401    23889715.5534   23889720.4614
        40.3004         37.8004
 -15246099.73247 -11858783.84047  20622066.540    20622066.6704   20622068.6734
        50.0004         47.2004
  -3630778.39143  -2535860.88046  23293890.766    23293889.3304   23293891.7604
        40.4004         37.8004
 -11920744.17345  -9277685.25146  22944193.913    22944194.6484   22944197.3634
        43.9004         41.1004
   2206708.91043   1742861.89246  23603729.704    23603729.1354   23603732.7104
        38.5004         36.0004
 16  9 14  1 39 30.0000000  0 10G18G13G28G24G19G10G15G12G17G20
 -10617669.23744  -8262098.03546  22910460.173    22910459.1204   22910460.5664
        41.1004         38.5004
 -11667499.70945  -9076921.00747  21627898.664    21627899.5184   21627901.8564
        45.5004         42.8004
   -890095.04443   -675721.00246  23609194.165    23609193.7104   23609196.6964
        39.6004         37.3004
 -16336670.51846 -12719942.77547  20802269.846    20802270.3424   20802274.2734
        49.1004         46.3004
 -11346949.81144  -8831334.58846  23070650.220    23070649.4124   23070650.5934
        42.3004         39.7004
  -4492920.26543  -3486058.37146  23880182.021    23880182.1974   23880188.1324
        40.1004         37.4004
 -15210613.06747 -11831131.90347  20628819.067    20628819.4394   20628821.7874
        50.0004         47.2004
  -3742633.03943  -2623020.32446  23272605.547    23272605.4854   23272607.6214
        40.3004         37.6004
 -11955422.20845  -9304707.06446  22937595.584    22937594.7894   22937598.0394
        43.7004         41.1004
   2302562.08743   1817552.65046  23621971.456    23621970.9594   23621972.9514
        38.5004         36.4004
 16  9 14  1 40  0.0000000  0 10G18G13G28G24G19G10G15G12G17G20
 -10615550.77744  -8260447.27746  22910862.151    22910861.6614   22910864.3454
        40.8004         37.8004
 -11585025.77745  -9012655.62547  21643593.843    21643593.4174   21643596.0554
        45.5004         42.6004
   -801129.82543   -606397.43646  23626123.224    23626122.7094   23626126.1514
        39.6004         37.1004
 -16383317.06746 -12756290.73347  20793393.363    20793393.7334   20793397.8914
        49.1004         46.5004
 -11429972.60844  -8896027.64346  23054852.355    23054850.0694   23054851.4734
        42.3004         39.7004
  -4542489.36743  -3524683.63246  23870749.550    23870749.7954   23870755.1504
        39.6004         37.1004
 -15174617.39647 -11803083.34247  20635668.893    20635668.9644   20635671.7804
        50.0004         47.2004
  -3854282.31043  -2710019.73346  23251359.260    23251358.9764   23251362.8194
        40.3004         37.6004
 -11989588.88945  -9331330.44446  22931093.592    22931093.3714   22931096.9344
        43.7004         40.9004
   2398585.96943   1892376.44046  23640242.196    23640242.0174   23640246.2154
        38.5004         36.2004
 16  9 14  1 40 30.0000000  0 10G18G13G28G24G19G10G15G12G17G20
 -10612914.49443  -8258393.04746  22911363.472    22911362.5644   22911365.0294
        40.3004         37.6004
 -11502186.54445  -8948105.58447  21659357.579    21659357.5114   21659359.4414
        45.5004         42.5004
   -711998.40143   -536944.42746  23643084.648    23643084.2134   23643088.5894
        39.6004         37.3004
 -16429643.83746 -12792389.50747  20784578.218    20784578.2804   20784582.1394
        49.3004         46.6004
 -11512602.42544  -8960414.48146  23039125.818    23039125.6604   23039127.6314
        42.3004         39.9004
  -4591532.55843  -3562899.05546  23861417.723    23861417.7684   23861422.3744
        38.9004         36.4004
 -15138113.15547 -11774638.49547  20642615.224    20642615.7004   20642618.1394
        49.8004         47.0004
  -3965724.44443  -2796857.75246  23230151.485    23230151.7994   23230154.8924
        40.3004         37.8004
 -12023242.89245  -9357554.31146  22924689.389    22924689.7654   22924691.6414
        43.7004         41.1004
   2494777.79043   1967331.10946  23658547.747    23658547.3054   23658551.0064
        38.3004         36.0004
 16  9 14  1 41  0.0000000  0 10G18G13G28G24G19G10G15G12G17G20
 -10609760.53943  -8255935.43546  22911964.289    22911963.7054   22911965.2854
        39.9004         37.4004
 -11418983.18945  -8883271.82647  21675191.254    21675191.1424   21675193.2514
        45.3004         42.5004
   -622702.92043   -467363.52646  23660077.066    23660077.5534   23660080.9474
        39.7004         37.6004
 -16475649.85346 -12828238.34847  20775823.289    20775823.8574   20775827.5564
        49.3004         46.6004
 -11594836.32244  -9024492.82246  23023476.818    23023477.1384   23023479.2904
        42.3004         39.7004
  -4640048.18143  -3600703.42145  23852184.366    23852184.2284   23852190.9724
        38.2004         35.7004
 -15101100.99547 -11745797.86847  20649658.908    20649659.1744   20649661.3384
        49.8004         47.0004
  -4076957.41244  -2883532.76446  23208986.951    23208986.7754   23208988.4524
        40.6004         38.3004
 -12056382.81745  -9383377.61446  22918383.679    22918383.7544   22918385.8264
        44.1004         41.2004
   2591134.67743   2042414.39845  23676883.557    23676882.5394   23676884.7544
        38.0004         35.7004
 16  9 14  1 41 30.0000000  0 10G18G13G28G24G19G10G15G12G17G20
 -10606089.51043  -8253074.89246  22912662.669    22912661.8024   22912665.2464
        40.1004         37.6004
 -11335417.20745  -8818155.49547  21691093.120    21691093.0914   21691094.8024
        45.3004         42.5004
   -533245.18343   -397656.20946  23677101.895    23677100.8834   23677102.8714
        39.6004         37.3004
 -16521334.71646 -12863836.94547  20767129.268    20767129.7824   20767133.5544
        49.3004         46.5004
 -11676670.66444  -9088259.80746  23007904.382    23007903.1094   23007906.3114
        42.2004         39.5004
  -4688034.63342  -3638095.47245  23843053.690    23843055.0984   23843058.6674
        37.3004         35.2004
 -15063581.76047 -11716562.10847  20656798.279    20656798.9394   20656800.7654
        49.8004         47.0004
  -4187978.80044  -2970042.93146  23187858.782    23187858.3534   23187862.0614
        40.9004         38.5004
 -12089007.22145  -9408799.19646  22912176.095    22912175.3334   22912177.6334
        44.2004         41.6004
   2687653.08943   2117623.50145  23695250.581    23695249.1814   23695252.3084
        37.6004         35.5004
 16  9 14  1 42  0.0000000  0 10G18G13G28G24G19G10G15G12G17G20
 -10601901.70243  -8249811.69846  22913460.298    22913459.5314   22913461.7324
        40.4004         38.1004
 -11251490.00645  -8752757.69347  21707063.629    21707064.0614   21707065.8814
        45.3004         42.5004
   -443627.22743   -327824.03846  23694154.668    23694155.0834   23694156.9494
        39.7004         37.4004
 -16566698.31646 -12899185.19747  20758497.230    20758497.4154   20758501.6584
        49.3004         46.5004
 -11758102.37744  -9151713.06246  22992408.472    22992408.5054   22992409.7494
        42.2004         39.5004
  -4735490.32943  -3675073.88245  23834023.271    23834024.1974   23834029.0564
        37.8004         35.9004
 -15025556.06547 -11686931.70947  20664034.756    20664034.9014   20664036.7254
        49.6004         46.8004
  -4298786.79344  -3056386.81246  23166772.555    23166773.3244   23166775.5494
        41.1004         38.6004
 -12121114.45545  -9433817.80146  22906065.715    22906066.5914   22906068.1894
        44.4004         41.6004
   2784330.34143   2192956.42345  23713647.937    23713646.6244   23713651.4054
        37.8004         35.7004
 16  9 14  1 42 30.0000000  0 10G18G13G28G24G19G10G15G12G17G20
 -10597197.80444  -8246146.33346  22914355.383    22914354.8624   22914356.6644
        40.8004         38.3004
 -11167203.20645  -8687079.69447  21723103.281    21723102.9334   21723104.8804
        45.1004         42.5004
   -353851.53143   -257868.96246  23711239.685    23711238.9524   23711240.2834
        40.1004         37.8004
 -16611739.47046 -12934282.20447  20749926.191    20749926.4264   20749930.5364
        49.3004         46.5004
 -11839128.45644  -9214850.25846  22976991.009    22976989.6244   22976992.1544
        42.3004         39.9004
  -4782413.70242  -3711637.59345  23825092.367    23825092.9234   23825097.2504
        37.3004         35.3004
 -14987024.74147 -11656907.30847  20671366.814    20671366.9084   20671369.4554
        49.6004         46.8004
  -4409379.58244  -3142562.99046  23145728.563    23145728.9344   23145729.8074
        41.3004         38.8004
 -12152703.31245  -9458432.46946  22900055.400    22900054.5294   22900056.4584
        44.4004         41.6004
   2881163.37743   2268410.73345  23732075.254    23732074.4594   23732077.7494
        37.6004         35.5004
 16  9 14  1 43  0.0000000  0 10G18G13G28G24G19G10G15G12G17G20
 -10591978.01444  -8242078.99346  22915348.909    22915348.0444   22915349.3014
        40.8004         38.1004
 -11082558.31545  -8621122.64247  21739210.166    21739209.9314   21739212.7264
        45.1004         42.3004
   -263919.77043   -187792.27346  23728352.392    23728352.7704   23728354.2954
        40.1004         37.8004
 -16656457.11946 -12969127.11447  20741416.115    20741416.3954   20741421.1054
        49.3004         46.5004
 -11919745.41644  -9277668.64046  22961648.630    22961648.4194   22961651.0814
        42.5004         39.9004
  -4828803.21242  -3747785.25745  23816266.906    23816266.3424   23816270.7054
        37.3004         35.5004
 -14947988.44547 -11626489.42747  20678794.968    20678795.1254   20678797.6794
        49.6004         47.0004
  -4519754.55444  -3228569.45546  23124723.045    23124723.2354   23124726.7194
        41.6004         39.0004
 -12183772.28345  -9482642.05446  22894141.286    22894142.0664   22894144.6354
        44.2004         41.2004
   2978149.31642   2343984.14545  23750529.510    23750528.0744   23750532.4574
        37.3004         35.2004
 16  9 14  1 43 30.0000000  0 10G18G13G28G24G19G10G15G12G17G20
 -10586242.52244  -8237609.78746  22916439.881    22916440.5344   22916440.7534
        40.8004         38.3004
 -10997556.55945  -8554887.53347  21755384.550    21755384.8814   21755388.1194
        45.1004         42.3004
   -173833.51543   -117595.20646  23745496.069    23745495.2814   23745496.7604
        40.1004         37.6004
 -16700850.87446 -13003719.64747  20732968.205    20732968.7004   20732973.2414
        49.1004         46.3004
 -11999949.45244  -9340165.28246  22946386.787    22946386.2594   22946389.1484
        42.7004         40.2004
  -4874657.31443  -3783515.71246  23807541.609    23807541.6234   23807546.7524
        37.8004         36.0004
 -14908447.63947 -11595678.42547  20686319.899    20686320.0394   20686321.9924
        49.8004         47.0004
  -4629909.84144  -3314404.74246  23103762.063    23103762.1234   23103764.1354
        41.6004         39.0004
 -12214319.50045  -9506445.05446  22888328.374    22888329.2184   22888331.2784
        44.1004         41.4004
   3075284.86042   2419674.18345  23769013.406    23769012.2524   23769016.9614
        37.3004         35.3004
 16  9 14  1 44  0.0000000  0 10G18G13G28G24G19G10G15G12G17G20
 -10579991.83643  -8232739.11946  22917629.492    22917628.2134   22917630.5154
        40.4004         37.9004
 -10912199.64345  -8488375.67347  21771627.722    21771628.1174   21771631.4094
        45.1004         42.1004
    -83595.25543    -47279.70046  23762668.399    23762667.5104   23762669.1224
        40.1004         37.6004
 -16744920.68846 -13038059.76047  20724582.343    20724582.5644   20724586.6594
        49.1004         46.5004
 -12079737.62844  -9402337.86346  22931205.836    22931202.9534   22931205.4444
        43.0004         40.4004
  -4919974.56443  -3818827.84845  23798916.274    23798917.0114   23798920.8974
        37.6004         35.3004
 -14868403.17947 -11564474.95847  20693939.897    20693940.1524   20693942.3354
        49.8004         47.2004
  -4739843.56644  -3400067.36746  23082842.822    23082842.6394   23082844.7034
        41.8004         39.2004
 -12244344.11245  -9529840.83246  22882616.229    22882616.3794   22882617.2354
        44.1004         41.4004
   3172567.16042   2495478.52645  23787526.673    23787526.0094   23787530.4394
        37.5004         35.5004
 16  9 14  1 44 30.0000000  0 10G18G13G28G24G19G10G15G12G17G20
 -10573226.79143  -8227467.66246  22918916.035    22918916.1364   22918917.5564
        40.4004         37.9004
 -10826489.32345  -8421588.42647  21787937.930    21787938.2404   21787941.4214
        44.9004         42.1004
      6793.13743     23152.81246  23779868.970    23779869.1224   23779869.2994
        39.9004         37.3004
 -16788665.67246 -13072146.76247  20716257.634    20716258.1924   20716262.6324
        49.3004         46.5004
 -12159107.27744  -9464184.31746  22916100.107    22916100.3854   22916102.5904
        43.0004         40.4004
  -4964753.37443  -3853720.48145  23790396.304    23790395.8004   23790401.9944
        37.6004         35.7004
 -14827855.82247 -11532879.62647  20701656.064    20701656.4184   20701658.3364
        50.0004         47.2004
  -4849553.54644  -3485555.66046  23061965.834    23061965.7944   23061967.6464
        41.6004         39.2004
 -12273844.42345  -9552828.06346  22877001.406    22877000.8464   22877003.8034
        43.9004         41.1004
   3269993.24643   2571394.93645  23806066.395    23806065.2174   23806069.5644
        37.8004         35.7004
 16  9 14  1 45  0.0000000  0 10G18G13G28G24G19G10G15G12G17G20
 -10565947.89343  -8221795.81646  22920300.576    22920300.6994   22920302.8584
        40.4004         37.8004
 -10740426.63745  -8354526.61947  21804316.327    21804316.6554   21804318.1654
        44.9004         42.1004
     97329.68143     93700.75446  23797097.739    23797096.5064   23797097.4644
        40.1004         37.8004
 -16832084.74246 -13105979.79547  20707995.746    20707995.6304   20708000.1284
        49.3004         46.5004
 -12238055.03444  -9525702.03446  22901078.200    22901076.8084   22901078.7774
        43.2004         40.6004
  -5008992.38143  -3888192.45246  23781978.612    23781978.8024   23781982.7674
        38.2004         36.0004
 -14786806.32847 -11500893.01547  20709466.965    20709467.2754   20709469.7714
        49.8004         47.0004
  -4959037.63644  -3570867.93746  23041130.655    23041131.4024   23041134.5244
        41.6004         39.0004
 -12302819.11545  -9575405.73246  22871487.236    22871487.5654   22871490.6474
        44.1004         41.2004
   3367560.05043   2647420.98745  23824633.281    23824632.2274   23824635.9604
        38.0004         35.7004
 16  9 14  1 45 30.0000000  0 10G18G13G28G24G19G10G15G12G17G20
 -10558155.76643  -8215724.03946  22921784.603    22921783.2704   22921786.2094
        40.4004         37.9004
 -10654013.38145  -8287191.62246  21820758.965    21820759.6294   21820761.4104
        44.9004         41.9004
    188012.56343    164362.73446  23814353.280    23814353.5144   23814353.8394
        40.1004         37.6004
 -16875177.44546 -13139558.52447  20699795.042    20699795.4634   20699799.9634
        49.3004         46.5004
 -12316577.40444  -9586888.28046  22886135.924    22886134.7684   22886136.0114
        43.2004         40.6004
  -5052690.07442  -3922242.58445  23773659.406    23773662.0984   23773666.4704
        37.3004         34.6004
 -14745255.34247 -11468515.63147  20717374.395    20717374.3614   20717376.6364
        49.8004         47.0004
  -5068293.76644  -3656002.58246  23020341.715    23020340.6874   23020343.1894
        41.8004         39.3004
 -12331266.66845  -9597572.62146  22866074.851    22866074.2494   22866077.3954
        44.1004         41.4004
   3465264.45243   2723554.27945  23843226.516    23843224.3264   23843227.5174
        37.8004         35.9004
 16  9 14  1 46  0.0000000  0 10G18G13G28G24G19G10G15G12G17G20
 -10549850.86643  -8209252.70746  22923364.709    22923364.1104   22923366.4524
        40.3004         37.9004
 -10567250.87845  -8219584.48046  21837270.489    21837269.8204   21837272.3044
        44.8004         41.9004
    278839.67143    235137.11446  23831637.367    23831636.7224   23831637.9954
        40.1004         37.6004
 -16917943.25046 -13172882.52647  20691657.253    20691657.6934   20691662.1434
        49.3004         46.5004
 -12394670.77644  -9647740.23546  22871275.328    22871272.8584   22871275.1544
        43.0004         40.4004
  -5095844.94742  -3955869.81545  23765450.830    23765449.9744   23765456.5404
        37.1004         35.2004
 -14703203.76347 -11435748.18447  20725375.948    20725376.1924   20725378.4744
        49.6004         46.8004
  -5177319.94544  -3740958.03246  22999593.077    22999593.7084   22999595.3064
        41.6004         39.0004
 -12359185.87545  -9619327.82946  22860761.506    22860761.7334   22860763.7484
        44.2004         41.4004
   3563103.55743   2799792.52646  23861843.937    23861842.9034   23861846.3754
        38.0004         36.0004
 16  9 14  1 46 30.0000000  0 10G18G13G28G24G19G10G15G12G17G20
 -10541033.97543  -8202382.42146  22925043.307    22925042.3464   22925044.5784
        40.4004         38.1004
 -10480140.76845  -8151706.49646  21853846.468    21853846.1764   21853849.6054
        44.8004         41.8004
    369808.84743    306022.17346  23848947.883    23848947.0914   23848950.2714
        39.9004         37.4004
 -16960381.34846 -13205951.17547  20683581.706    20683581.9284   20683586.2814
        49.3004         46.6004
 -12472332.65844  -9708255.96646  22856496.351    22856495.2414   22856496.6274
        43.0004         40.4004
  -5138455.78743  -3989073.08846  23757341.612    23757342.3894   23757346.7194
        38.3004         36.4004
 -14660652.61747 -11402591.46447  20733473.512    20733473.6304   20733475.6394
        49.6004         46.8004
  -5286114.24644  -3825732.79646  22978890.833    22978890.3194   22978893.3654
        41.8004         39.2004
 -12386576.01445  -9640670.77046  22855548.997    22855549.6594   22855552.1834
        44.4004         41.8004
   3661074.33343   2876133.38845  23880486.267    23880485.9354   23880490.3764
        38.2004         35.9004
 16  9 14  1 47  0.0000000  0 10G18G13G28G24G19G10G15G12G17G20
 -10531705.00244  -8195113.10646  22926818.119    22926817.6274   22926819.7894
        40.8004         38.3004
 -10392684.87445  -8083559.06746  21870488.605    21870489.0894   21870491.2564
        44.8004         41.9004
    460918.19043    377016.45346  23866286.496    23866285.0394   23866287.3444
        39.7004         37.4004
 -17002491.40246 -13238764.20147  20675567.787    20675568.2354   20675573.3254
        49.3004         46.6004
 -12549559.81744  -9768432.92946  22841799.059    22841798.1584   22841800.3904
        43.0004         40.2004
  -5180521.02543  -4021851.20046  23749335.622    23749334.9504   23749340.7054
        38.3004         36.0004
 -14617602.54546 -11369045.95947  20741665.005    20741665.5824   20741667.9294
        49.5004         46.8004
  -5394674.54344  -3910325.24046  22958232.769    22958232.6384   22958235.2534
        42.0004         39.3004
 -12413435.37145  -9661600.11046  22850438.421    22850438.6004   22850440.7914
        44.4004         41.6004
   3759173.77143   2952574.51145  23899154.252    23899153.7474   23899156.8264
        38.0004         35.9004
 16  9 14  1 47 30.0000000  0 10G18G13G28G24G19G10G15G12G17G20
 -10521865.52744  -8187445.98846  22928690.912    22928690.1334   22928692.1724
        41.1004         38.6004
 -10304884.42945  -8015143.15546  21887198.101    21887197.3534   21887198.8224
        44.8004         41.9004
    552165.47143    448118.24046  23883649.505    23883648.7224   23883650.4744
        39.9004         37.4004
 -17044272.67446 -13271321.03247  20667617.447    20667617.8224   20667622.1624
        49.5004         46.6004
 -12626349.24144  -9828268.82446  22827187.024    22827186.2074   22827188.2704
        43.0004         40.4004
  -5222039.39643  -4054203.18346  23741437.032    23741436.6014   23741441.4824
        39.0004         37.1004
 -14574054.38247 -11335112.34447  20749952.784    20749952.7714   20749955.0514
        49.6004         46.8004
  -5502999.04044  -3994733.92446  22937617.902    22937618.4944   22937620.6644
        41.8004         39.3004
 -12439762.60545  -9682114.82946  22845428.090    22845428.2754   22845431.4274
        44.4004         41.4004
   3857398.87543   3029113.50345  23917845.427    23917845.6014   23917849.0074
        37.8004         35.7004
 16  9 14  1 48  0.0000000  0 10G18G13G28G24G19G10G15G12G17G20
 -10511515.88044  -8179381.33946  22930660.044    22930660.4274   22930660.9414
        40.9004         38.3004
 -10216740.95845  -7946459.94546  21903969.679    21903969.6124   21903972.5114
        44.8004         41.9004
    643548.71243    519325.95946  23901038.097    23901038.2184   23901039.7234
        39.7004         37.3004
 -17085724.41946 -13303621.09547  20659729.659    20659729.9714   20659734.4924
        49.5004         46.6004
 -12702697.52044  -9887760.96746  22812659.776    22812657.8294   22812659.7934
        43.0004         40.4004
  -5263009.52443  -4086127.93546  23733640.001    23733640.5074   23733644.7274
        39.7004         37.6004
 -14530009.17847 -11300791.41647  20758334.143    20758334.4944   20758336.7664
        49.6004         46.8004
  -5611085.61644  -4078957.21346  22917050.432    22917049.9844   22917053.5064
        42.0004         39.5004
 -12465556.68745  -9702214.09346  22840519.348    22840519.3844   22840522.7594
        44.4004         41.6004
   3955746.60043   3105748.09945  23936561.523    23936560.1874   23936564.8304
        37.8004         35.7004
 16  9 14  1 48 30.0000000  0 10G18G13G28G24G19G10G15G12G17G20
 -10500656.64644  -8170919.60646  22932726.752    22932726.0684   22932727.8444
        40.6004         37.8004
 -10128256.38145  -7877510.94346  21920807.973    21920808.4684   21920810.3514
        44.8004         41.9004
    735066.83843    590638.77546  23918453.576    23918454.7464   23918455.2634
        39.4004         36.9004
 -17126846.14546 -13335663.99447  20651904.436    20651904.7914   20651909.1754
        49.5004         46.6004
 -12778601.67844  -9946907.03846  22798214.611    22798214.0694   22798215.6654
        43.0004         40.6004
  -5303430.06243  -4117624.46546  23725947.069    23725947.8994   23725953.6634
        40.3004         38.1004
 -14485467.69946 -11266083.78247  20766810.154    20766810.2324   20766812.5214
        49.5004         46.6004
  -5718932.14044  -4162993.43146  22896528.868    22896528.8224   22896531.3354
        42.2004         39.5004
 -12490816.14045  -9721896.76046  22835712.492    22835713.2954   22835716.1054
        44.4004         41.6004
   4054213.85843   3182475.82545  23955297.509    23955298.1884   23955301.7884
        37.8004         35.7004
 16  9 14  1 49  0.0000000  0 10G18G13G28G24G19G10G15G12G17G20
 -10489288.57043  -8162061.39046  22934889.686    22934889.2524   22934891.0694
        40.1004         37.3004
 -10039431.81645  -7808297.01046  21937710.659    21937710.2034   21937713.3114
        44.6004         41.6004
    826717.38743    662054.78646  23935893.703    23935893.7774   23935896.0764
        39.0004         36.4004
 -17167637.06646 -13367449.12847  20644142.024    20644142.7034   20644146.6914
        49.5004         46.6004
 -12854058.33144 -10005704.40946  22783856.438    22783855.2224   22783856.6294
        43.2004         40.6004
  -5343299.67144  -4148691.74146  23718361.840    23718361.8244   23718365.5954
        40.8004         38.5004
 -14440431.23446 -11230990.44447  20775380.052    20775380.5454   20775382.5964
        49.5004         46.6004
  -5826536.84444  -4246841.24146  22876051.719    22876051.6364   22876054.0384
        42.2004         39.5004
 -12515539.71445  -9741161.86946  22831008.419    22831007.9044   22831010.8804
        44.4004         41.6004
   4152797.99243   3259294.62045  23974058.720    23974058.4644   23974061.1714
        37.6004         35.5004
 16  9 14  1 49 30.0000000  0 10G18G13G28G24G19G10G15G12G17G20
 -10477412.25943  -8152807.12346  22937149.457    22937149.0204   22937150.9474
        39.6004         37.3004
  -9950269.13945  -7738819.61446  21954676.549    21954676.7874   21954680.8664
        44.4004         41.6004
    918498.38743    733572.45346  23953359.570    23953360.2554   23953360.5044
        38.9004         36.4004
 -17208096.54846 -13398975.99947  20636442.697    20636443.1774   20636447.5854
        49.3004         46.5004
 -12929064.29044 -10064150.57946  22769582.859    22769581.4404   22769583.6214
        43.4004         40.7004
  -5382617.16944  -4179328.73646  23710879.651    23710879.2154   23710883.8204
        40.9004         38.5004
 -14394899.92246 -11195511.51147  20784044.007    20784044.5344   20784046.8654
        49.5004         46.5004
  -5933897.39744  -4330498.80646  22855621.167    22855621.0754   22855623.9384
        42.0004         39.3004
 -12539726.73245  -9760008.86946  22826406.703    22826406.4824   22826408.2764
        44.4004         41.8004
   4251495.59743   3336201.86845  23992839.276    23992839.0734   23992841.9544
        37.8004         35.7004
 16  9 14  1 50  0.0000000  0 10G18G13G28G24G19G10G15G12G17G20
 -10465028.48443  -8143157.42746  22939505.485    22939503.8654   22939506.8784
        39.4004         37.1004
  -9860769.81145  -7669079.89746  21971708.671    21971708.6724   21971711.5634
        44.2004         41.4004
   1010407.84543    805190.20546  23970848.701    23970848.2824   23970851.8024
        39.2004         36.9004
 -17248223.75846 -13430243.95547  20628806.483    20628806.8654   20628811.5324
        49.3004         46.5004
 -13003616.67445 -10122243.32746  22755395.372    22755395.2134   22755396.9444
        43.6004         40.9004
  -5421381.20544  -4209534.47446  23703502.558    23703502.3294   23703507.0614
        40.8004         38.3004
 -14348874.84246 -11159647.82247  20792802.708    20792803.0734   20792805.2034
        49.3004         46.5004
  -6041011.67544  -4413964.45246  22835237.674    22835238.4394   22835240.3864
        42.0004         39.3004
 -12563375.85145  -9778436.73246  22821905.996    22821906.6454   22821907.8764
        44.4004         41.8004
   4350303.83443   3413195.29245  24011642.405    24011642.2384   24011646.7224
        38.0004         35.9004
 16  9 14  1 50 30.0000000  0 10G18G13G28G24G19G10G15G12G17G20
 -10452137.95943  -8133112.87546  22941958.356    22941958.0584   22941960.3714
        39.7004         37.4004
  -9770935.50445  -7599079.16146  21988802.539    21988803.4414   21988806.9784
        44.2004         41.4004
   1102443.91043    876906.62446  23988360.865    23988362.0944   23988364.1504
        38.7004         36.0004
 -17288018.57446 -13461252.89947  20621233.823    20621234.4734   20621238.7944
        49.3004         46.6004
 -13077712.35745 -10179980.19546  22741296.352    22741293.9764   22741296.3154
        43.6004         40.7004
  -5459590.58444  -4239307.98346  23696231.460    23696231.8934   23696237.7874
        40.9004         38.5004
 -14302357.74746 -11123400.75047  20801654.678    20801654.6584   20801657.0844
        49.3004         46.5004
  -6147877.85544  -4497236.77546  22814902.452    22814902.2744   22814903.9364
        41.8004         39.0004
 -12586485.86945  -9796444.51446  22817507.847    22817508.0034   22817509.9654
        44.4004         41.6004
   4449220.04443   3490272.86645  24030466.253    24030465.7024   24030468.3104
        37.8004         35.9004
 16  9 14  1 51  0.0000000  0 10G18G13G28G24G19G10G15G12G17G20
 -10438741.54043  -8122674.13446  22944507.713    22944507.0404   22944509.7434
        40.1004         37.8004
  -9680767.98445  -7528818.76046  22005961.000    22005961.1414   22005964.4804
        44.1004         41.2004
   1194604.75443    948720.26546  24005899.957    24005898.1114   24005901.8714
        38.3004         36.0004
 -17327480.22346 -13492002.23347  20613724.744    20613725.1814   20613729.2834
        49.5004         46.6004
 -13151348.40945 -10237358.92146  22727283.046    22727282.2424   22727284.1734
        43.6004         40.7004
  -5497244.06444  -4268648.35746  23689066.928    23689066.5514   23689071.1114
        40.6004         37.8004
 -14255348.61446 -11086770.26447  20810600.437    20810600.6614   20810602.6634
        49.3004         46.5004
  -6254493.88544  -4580314.19146  22794612.440    22794613.2644   22794616.9224
        41.8004         39.0004
 -12609055.66545  -9814031.35846  22813212.252    22813212.0504   22813215.0214
        44.2004         41.2004
   4548240.73743   3567431.83546  24049309.389    24049308.2974   24049312.8014
        38.2004         36.0004
 16  9 14  1 51 30.0000000  0 10G18G13G28G24G19G10G15G12G17G20
 -10424839.97043  -8111841.77346  22947153.232    22947153.1824   22947155.4114
        40.4004         37.9004
  -9590268.65245  -7458299.82846  22023183.835    22023183.9694   22023186.6334
        44.1004         41.2004
   1286888.45143   1020629.61046  24023461.111    24023461.0234   24023464.4374
        38.5004         36.4004
 -17366607.63446 -13522491.11547  20606278.992    20606279.2634   20606283.7714
        49.5004         46.6004
 -13224521.80645 -10294377.12346  22713358.419    22713357.8684   22713359.6544
        43.6004         40.9004
  -5534340.37343  -4297554.56846  23682007.198    23682007.6144   23682011.4224
        40.1004         37.4004
 -14207848.87646 -11049757.49847  20819639.034    20819639.5914   20819641.9774
        49.3004         46.6004
  -6360857.99144  -4663195.30846  22774373.329    22774373.9364   22774376.5104
        42.0004         39.5004
 -12631084.19545  -9831196.44146  22809019.875    22809020.3414   22809022.0534
        43.9004         41.1004
   4647363.10643   3644670.03845  24068171.318    24068170.9504   24068174.3184
        38.2004         35.9004
 16  9 14  1 52  0.0000000  0 10G18G13G28G24G19G10G15G12G17G20
 -10410434.41844  -8100616.69146  22949895.799    22949895.1724   22949897.1374
        40.6004         37.9004
  -9499439.20345  -7387523.64746  22040466.879    22040467.7904   22040470.7244
        44.1004         41.4004
   1379293.04943   1092633.20546  24041044.206    24041043.9054   24041047.7724
        38.7004         36.2004
 -17405400.32346 -13552719.18247  20598896.808    20598897.4544   20598901.7754
        49.3004         46.5004
 -13297229.13245 -10351032.14946  22699525.153    22699522.5664   22699523.4564
        43.6004         40.9004
  -5570878.37843  -4326025.75146  23675054.397    23675054.8494   23675059.8094
        39.9004         37.6004
 -14159859.47746 -11012363.17247  20828771.127    20828771.5464   20828774.0664
        49.5004         46.6004
  -6466968.01044  -4745878.40046  22754181.366    22754181.1254   22754183.7214
        42.2004         39.5004
 -12652570.42445  -9847938.92046  22804931.661    22804931.8224   22804934.7174
        43.9004         41.4004
   4746584.23043   3721985.20646  24087052.120    24087051.0264   24087055.8034
        38.3004         36.0004
 16  9 14  1 52 30.0000000  0 10G18G13G28G24G19G10G15G12G17G20
 -10395525.42443  -8088999.28546  22952732.011    22952730.9544   22952734.1054
        40.1004         37.3004
  -9408281.46745  -7316491.66946  22057814.841    22057814.8744   22057817.6294
        44.1004         41.4004
   1471816.46843   1164729.33846  24058652.478    24058652.5104   24058653.6854
        38.7004         36.4004
 -17443857.83846 -13582686.06347  20591578.776    20591579.1604   20591583.6104
        49.3004         46.5004
 -13369467.53745 -10407321.80446  22685776.645    22685775.8284   22685776.5144
        43.6004         40.9004
  -5606856.99243  -4354061.01946  23668208.143    23668207.4364   23668213.2684
        39.7004         37.1004
 -14111381.56046 -10974588.18947  20837996.583    20837997.0084   20837999.2244
        49.5004         46.8004
  -6572822.04844  -4828362.02846  22734037.736    22734038.0434   22734040.1164
        42.2004         39.7004
 -12673513.16645  -9864257.92846  22800946.814    22800946.3984   22800948.5324
        44.1004         41.2004
   4845901.31843   3799375.13546  24105951.886    24105951.5384   24105956.6224
        38.2004         36.0004
 16  9 14  1 53  0.0000000  0 10G18G13G28G24G19G10G15G12G17G20
 -10380113.79643  -8076990.22546  22955664.811    22955663.7874   22955665.9174
        39.4004         36.7004
  -9316796.94945  -7245205.04746  22075223.998    22075224.1734   22075226.1004
        44.1004         41.2004
   1564456.73643   1236916.57746  24076281.185    24076280.8604   24076284.4254
        39.0004         36.7004
 -17481979.41646 -13612391.20147  20584324.619    20584324.9274   20584329.2104
        49.3004         46.6004
 -13441234.11245 -10463243.79446  22672119.264    22672118.8344   22672120.3544
        43.6004         40.9004
  -5642274.96643  -4381659.47246  23661467.518    23661468.2704   23661473.7704
        39.6004         37.1004
 -14062415.90247 -10936433.13847  20847314.434    20847314.7424   20847316.9784
        49.6004         47.0004
  -6678418.16844  -4910644.70346  22713944.544    22713943.8724   22713946.6834
        42.5004         39.9004
 -12693911.41845  -9880152.64146  22797065.012    22797064.6854   22797067.8084
        44.1004         41.4004
   4945311.08643   3876837.27945  24124869.397    24124868.1454   24124870.7714
        38.2004         35.9004
 16  9 14  1 53 30.0000000  0 10G18G13G28G24G19G10G15G12G17G20
 -10364200.63943  -8064590.36646  22958693.389    22958692.5934   22958694.0824
        39.2004         37.1004
  -9224987.29345  -7173665.05646  22092694.791    22092695.6984   22092697.4574
        44.1004         41.4004
   1657212.39243   1309193.69246  24093931.537    24093931.5044   24093933.5644
        38.5004         36.0004
 -17519764.76346 -13641834.31647  20577133.812    20577134.6664   20577138.8134
        49.3004         46.6004
 -13512525.75845 -10518795.69546  22658554.405    22658552.3784   22658554.7534
        43.6004         40.7004
  -5677131.24343  -4408820.18246  23654835.303    23654835.2474   23654839.5844
        38.9004         36.2004
 -14012963.38047 -10897898.71847  20856725.255    20856725.5904   20856727.3684
        49.6004         46.8004
  -6783754.54544  -4992724.96546  22693899.153    22693899.9444   22693902.1704
        42.7004         40.0004
 -12713764.38245  -9895622.46246  22793286.681    22793287.1774   22793289.9064
        44.2004         41.6004
   5044810.82843   3954369.53345  24143803.213    24143802.3774   24143806.3244
        38.0004         35.7004
 16  9 14  1 54  0.0000000  0 10G18G13G28G24G19G10G15G12G17G20
 -10347786.58643  -8051800.24646  22961817.386    22961815.8154   22961818.0124
        40.1004         38.1004
  -9132853.99045  -7101872.87246  22110228.363    22110227.7924   22110230.0874
        44.1004         41.1004
   1750081.55043   1381559.26246  24111604.161    24111603.1114   24111607.2684
        38.3004         36.0004
 -17557213.09246 -13671014.83247  20570008.494    20570008.5984   20570012.7114
        49.5004         46.8004
 -13583339.36544 -10573975.11146  22645078.115    22645076.0464   22645078.3874
        43.4004         40.6004
  -5711424.68543  -4435542.32945  23648308.425    23648308.1114   23648314.9074
        37.8004         35.3004
 -13963025.47346 -10858986.07647  20866227.966    20866227.8394   20866230.0394
        49.5004         46.5004
  -6888828.79844  -5074600.97246  22673903.358    22673902.9984   22673905.8554
        42.5004         39.5004
 -12733071.00545  -9910666.56446  22789613.962    22789613.3514   22789616.2584
        44.4004         41.6004
   5144397.34543   4031969.42545  24162755.306    24162753.0144   24162758.0994
        37.8004         35.5004
 16  9 14  1 54 30.0000000  0 10G18G13G28G24G19G10G15G12G17G20
 -10330872.54544  -8038620.48846  22965035.434    22965035.0734   22965036.9364
        41.1004         39.0004
  -9040398.94945  -7029829.99046  22127821.838    22127820.7834   22127822.0234
        43.9004         40.9004
   1843062.22943   1454011.74646  24129297.360    24129297.0834   24129300.0904
        38.3004         36.0004
 -17594323.92746 -13699932.36247  20562945.571    20562946.3694   20562950.9894
        49.5004         46.6004
 -13653672.22344 -10628779.89746  22631693.382    22631692.5744   22631694.8204
        43.4004         40.7004
  -5745154.29343  -4461825.16245  23641891.043    23641892.3114   23641895.0144
        37.8004         35.7004
 -13912603.22446 -10819696.02147  20875822.838    20875822.9584   20875825.1544
        49.5004         46.5004
  -6993639.03544  -5156271.28446  22653959.206    22653959.3264   22653960.5214
        42.2004         39.5004
 -12751830.19445  -9925284.08946  22786043.791    22786043.6024   22786046.0624
        44.4004         41.6004
   5244067.86642   4109634.76545  24181719.824    24181720.1634   24181722.8884
        37.5004         35.2004
 16  9 14  1 55  0.0000000  0 10G18G13G28G24G19G10G15G12G17G20
 -10313459.57744  -8025051.97146  22968349.092    22968348.2054   22968351.1924
        41.5004         38.8004
  -8947623.68245  -6957537.59446  22145474.439    22145475.7144   22145477.4814
        43.7004         40.9004
   1936152.21943   1526549.40145  24147011.699    24147012.0644   24147014.8534
        38.2004         35.9004
 -17631096.20046 -13728586.07647  20555948.818    20555949.0614   20555953.2104
        49.5004         46.6004
 -13723521.06745 -10683207.54746  22618400.902    22618401.3004   22618403.0824
        43.6004         40.9004
  -5778318.90442  -4487667.71745  23635580.690    23635580.3444   23635584.1074
        37.1004         34.8004
 -13861697.58846 -10780029.30947  20885509.819    20885510.1524   20885511.9594
        49.3004         46.5004
  -7098183.51444  -5237734.49246  22634064.655    22634064.0914   22634067.2864
        42.2004         39.5004
 -12770041.25545  -9939474.50046  22782578.519    22782578.8444   22782580.4694
        44.6004         41.8004
   5343819.20742   4187363.07545  24200703.369    24200702.1744   24200705.5404
        36.8004         34.8004
 16  9 14  1 55 30.0000000  0 10G18G13G28G24G19G10G15G12G17G20
 -10295548.54144  -8011095.33246  22971757.466    22971756.8424   22971759.0674
        41.3004         38.6004
  -8854529.89145  -6884997.00146  22163190.557    22163190.1234   22163192.2374
        43.6004         40.7004
   2029349.87943   1599170.93045  24164747.481    24164746.5344   24164750.6814
        38.0004         35.9004
 -17667529.68446 -13756975.81147  20549015.587    20549016.1524   20549020.4684
        49.5004         46.8004
 -13792883.25845 -10737255.97846  22605203.793    22605202.4894   22605204.4964
        43.6004         40.9004
  -5810917.59142  -4513069.32445  23629376.011    23629375.2204   23629380.8834
        36.4004         34.5004
 -13810309.56646 -10739986.70447  20895288.571    20895288.9984   20895291.4054
        49.3004         46.6004
  -7202459.89544  -5318988.80046  22614219.709    22614220.4324   22614223.8614
        42.0004         39.3004
 -12787703.02845  -9953236.89746  22779217.962    22779217.1344   22779220.7264
        44.6004         41.9004
   5443648.75342   4265152.33045  24219699.175    24219699.7754   24219702.2854
        36.6004         34.6004
 16  9 14  1 56  0.0000000  0 10G18G13G28G24G19G10G15G12G17G20
 -10277140.46844  -7996751.38746  22975260.707    22975259.4804   22975262.0944
        41.1004         38.3004
  -8761119.31444  -6812209.54546  22180964.150    22180965.6114   22180967.4884
        43.4004         40.6004
   2122653.56243   1671875.06945  24182503.041    24182502.1564   24182504.5924
        38.0004         35.9004
 -17703623.47547 -13785100.83747  20542146.733    20542147.3274   20542152.0134
        49.6004         46.8004
 -13861755.57345 -10790922.71946  22592097.244    22592096.9654   22592097.3954
        43.7004         41.2004
  -5842949.30042  -4538029.10245  23623281.678    23623282.2924   23623283.9334
        35.9004         34.1004
 -13758440.60046 -10699569.33647  20905159.366    20905159.4234   20905161.3224
        49.5004         46.5004
  -7306466.54344  -5400032.92646  22594429.729    22594429.9674   22594431.8554
        42.2004         39.7004
 -12804814.74945  -9966570.68646  22775959.578    22775960.5544   22775964.2104
        44.6004         41.8004
   5543553.13242   4342999.91245  24238709.590    24238709.5574   24238713.5044
        36.3004         34.3004
 16  9 14  1 56 30.0000000  0 10G18G13G28G24G19G10G15G12G17G20
 -10258236.75444  -7982021.21346  22978857.551    22978857.6764   22978860.2594
        40.6004         37.9004
  -8667393.67944  -6739176.60846  22198801.074    22198801.2584   22198803.8384
        43.4004         40.7004
   2216060.99743   1744660.06145  24200278.148    24200277.0444   24200278.5984
        37.8004         35.9004
 -17739377.20747 -13812960.88347  20535343.445    20535343.8934   20535348.3004
        49.6004         47.0004
 -13930135.10745 -10844205.44946  22579085.372    22579084.2214   22579085.0304
        43.7004         40.9004
  -5874413.04042  -4562546.31745  23617294.700    23617294.3054   23617298.4914
        36.6004         35.0004
 -13706091.44146 -10658777.79447  20915120.397    20915120.7824   20915122.8974
        49.3004         46.5004
  -7410201.39344  -5480865.25246  22574689.938    22574690.4374   22574692.4274
        42.5004         39.9004
 -12821375.56445  -9979475.19646  22772809.390    22772808.9374   22772812.4904
        44.6004         41.9004
   5643529.90742   4420903.89645  24257735.306    24257734.7474   24257738.0794
        36.1004         34.3004
 16  9 14  1 57  0.0000000  0 10G18G13G28G24G19G10G15G12G17G20
 -10238838.05743  -7966905.35546  22982548.996    22982547.9554   22982550.7104
        40.4004         38.1004
  -8573354.74144  -6665899.53946  22216696.255    22216695.8674   22216698.8574
        43.4004         40.7004
   2309570.62643   1817524.69145  24218071.382    24218071.3774   24218073.9054
        37.8004         35.7004
 -17774790.21547 -13840555.42747  20528604.466    20528604.8784   20528609.3604
        49.6004         47.0004
 -13998019.26745 -10897102.18346  22566167.269    22566165.7514   22566167.4614
        43.7004         40.9004
  -5905307.85642  -4586620.21145  23611414.582    23611414.7904   23611420.8574
        37.3004         35.5004
 -13653263.34846 -10617613.06347  20925173.406    20925173.3324   20925175.8264
        49.1004         46.1004
  -7513662.80944  -5561484.51446  22555001.487    22555001.3314   22555004.7094
        42.7004         40.2004
 -12837384.59445  -9991949.75146  22769764.175    22769762.8224   22769765.8604
        44.8004         41.9004
   5743576.04742   4498861.95045  24276772.457    24276772.7234   24276776.2424
        35.7004         34.1004
 16  9 14  1 57 30.0000000  0 10G18G13G28G24G19G10G15G12G17G20
 -10218945.56244  -7951404.74146  22986334.541    22986333.1404   22986336.1774
        40.6004         38.1004
  -8479004.18944  -6592379.63446  22234651.024    22234650.6874   22234652.9584
        43.4004         40.6004
   2403180.49543   1890467.45145  24235884.454    24235882.9034   24235886.8274
        37.6004         35.5004
 -17809861.92647 -13867884.04047  20521930.795    20521930.9914   20521935.3444
        49.6004         47.0004
 -14065404.80645 -10949610.36346  22553344.156    22553342.4604   22553344.4004
        43.7004         40.9004
  -5935632.89442  -4610250.11045  23605642.200    23605642.2044   23605649.5154
        37.0004         34.8004
 -13599957.21846 -10576075.82747  20935316.740    20935317.2634   20935319.6904
        49.1004         46.3004
  -7616848.55444  -5641888.96646  22535366.842    22535366.6094   22535368.0104
        42.9004         40.2004
 -12852841.15745 -10003993.80447  22766822.870    22766822.9834   22766824.4164
        44.9004         42.1004
   5843688.18542   4576871.38645  24295826.089    24295823.8234   24295826.7924
        35.6004         34.0004
 16  9 14  1 58  0.0000000  0 10G18G13G28G24G19G10G15G12G17G20
 -10198560.16443  -7935520.05846  22990213.538    22990212.6854   22990215.9694
        40.4004         37.9004
  -8384343.82144  -6518618.31246  22252662.725    22252663.6774   22252665.6074
        43.4004         40.7004
   2496888.84943   1963486.95745  24253716.409    24253714.8174   24253719.9334
        37.6004         35.5004
 -17844591.61147 -13894946.13247  20515321.678    20515322.2864   20515326.8204
        49.8004         47.2004
 -14132289.12445 -11001727.97446  22540617.507    22540615.2464   22540616.7694
        43.9004         41.2004
  -5965387.09942  -4633435.24845  23599982.395    23599983.0064   23599986.0104
        37.1004         35.3004
 -13546174.61746 -10534167.31847  20945552.070    20945551.9234   20945554.4904
        49.1004         46.3004
  -7719757.25744  -5722077.52746  22515782.889    22515783.0794   22515784.7554
        42.9004         40.2004
 -12867744.49845 -10015606.78547  22763986.541    22763986.2134   22763988.4934
        44.9004         42.1004
   5943863.77942   4654930.28545  24314885.227    24314886.5594   24314888.0424
        35.4004         33.8004
 16  9 14  1 58 30.0000000  0 10G18G13G28G24G19G10G15G12G17G20
 -10177682.71443  -7919251.95446  22994186.727    22994185.7234   22994188.2634
        40.3004         37.6004
  -8289375.24844  -6444616.84646  22270736.211    22270735.5044   22270738.0714
        43.2004         40.6004
   2590693.78742   2036581.70345  24271567.062    24271566.6294   24271569.6794
        37.5004         35.5004
 -17878979.13847 -13921741.60147  20508777.827    20508778.5974   20508783.3344
        49.8004         47.0004
 -14198669.09245 -11053452.61646  22527983.374    22527983.7424   22527986.2294
        44.1004         41.4004
  -5994569.68142  -4656174.88245  23594428.820    23594428.6334   23594432.4624
        37.3004         35.3004
 -13491916.43846 -10491888.22347  20955876.887    20955877.0604   20955879.5114
        49.1004         46.3004
  -7822386.30044  -5802048.19746  22496252.173    22496253.1304   22496257.2584
        43.0004         40.6004
 -12882093.54745 -10026787.83946  22761255.742    22761255.6174   22761256.5244
        44.8004         41.8004
   6044099.84842   4733036.34845  24333962.175    24333961.0204   24333964.8154
        35.4004         34.0004
 16  9 14  1 59  0.0000000  0 10G18G13G28G24G19G10G15G12G17G20
 -10156314.52443  -7902601.40346  22998252.372    22998251.6024   22998254.2414
        40.1004         37.6004
  -8194100.01644  -6370376.41546  22288866.264    22288866.1234   22288868.0154
        43.2004         40.6004
   2684593.54842   2109750.33545  24289435.232    24289435.0504   24289435.9984
        37.3004         35.0004
 -17913023.04047 -13948269.32047  20502299.835    20502300.4744   20502304.8334
        49.8004         47.2004
 -14264542.19045 -11104782.26946  22515450.685    22515447.8584   22515450.5514
        44.4004         41.6004
  -6023179.69443  -4678468.35746  23588984.552    23588984.8894   23588991.0084
        37.8004         36.2004
 -13437184.28646 -10449239.80847  20966292.658    20966292.4234   20966294.5474
        49.1004         46.3004
  -7924733.81744  -5881799.48846  22476776.799    22476777.9864   22476779.8874
        43.0004         40.4004
 -12895887.84645 -10037536.61846  22758629.940    22758630.4514   22758632.1204
        44.8004         41.9004
   6144393.37542   4811187.12745  24353047.411    24353046.7244   24353048.7344
        35.7004         34.0004
 16  9 14  1 59 30.0000000  0 10G18G13G28G24G19G10G15G12G17G20
 -10134456.86843  -7885569.47746  23002412.347    23002411.5684   23002413.5784
        40.1004         37.4004
  -8098519.95744  -6295898.45846  22307054.059    22307054.6214   22307057.1894
        43.0004         40.4004
   2778586.56642   2182991.63345  24307323.613    24307321.5974   24307321.6074
        37.0004         35.2004
 -17946723.17047 -13974529.16147  20495887.080    20495887.3604   20495891.8244
        50.0004         47.2004
 -14329905.20045 -11155714.46646  22503011.825    22503009.9574   22503011.7904
        44.4004         41.6004
  -6051216.34043  -4700315.12545  23583648.683    23583649.1064   23583653.1194
        38.2004         35.9004
 -13381979.15546 -10406222.83147  20976796.467    20976797.0474   20976799.7574
        48.9004         45.9004
  -8026798.05644  -5961330.02846  22457355.415    22457354.3494   22457357.2294
        43.2004         40.6004
 -12909126.72445 -10047852.61446  22756110.473    22756111.1504   22756113.3364
        44.8004         41.9004
   6244741.37142   4889380.38045  24372140.274    24372141.0774   24372144.3444
        35.2004         33.4004
 16  9 14  2  0  0.0000000  0 10G18G13G28G24G19G10G15G12G17G20
 -10112110.57543  -7868156.79846  23006665.018    23006664.6214   23006665.3284
        39.9004         37.6004
  -8002636.89744  -6221184.40346  22325301.442    22325300.2304   22325303.0764
        43.0004         40.0004
   2872670.55242   2256303.82445  24325226.161    24325224.9574   24325226.9244
        37.0004         35.0004
 -17980078.73747 -14000520.50747  20489539.560    20489540.0244   20489544.4074
        50.0004         47.2004
 -14394755.60745 -11206247.22546  22490669.790    22490670.1964   22490671.5414
        44.4004         41.8004
  -6078678.78143  -4721714.42545  23578422.796    23578423.3034   23578426.4644
        38.0004         35.7004
 -13326302.27846 -10362838.27147  20987391.548    20987391.7814   20987394.7094
        48.8004         45.9004
  -8128577.19044  -6040638.44146  22437986.959    22437987.2634   22437989.1444
        43.2004         40.6004
 -12921809.13445 -10057734.98546  22753698.049    22753697.7584   22753699.5964
        44.8004         41.9004
   6345141.06342   4967613.89145  24391247.104    24391246.6714   24391250.0784
        35.0004         33.8004
 16  9 14  2  0 30.0000000  0 10G18G13G28G24G19G10G15G12G17G20
 -10089276.94143  -7850364.37046  23011009.279    23011008.1454   23011010.7904
        39.9004         37.9004
  -7906452.83044  -6146235.79646  22343603.732    22343603.8554   22343606.4214
        42.7004         40.0004
   2966843.62942   2329685.45345  24343144.711    24343145.0954   24343146.8864
        37.0004         35.0004
 -18013089.43047 -14026243.12747  20483257.999    20483258.2694   20483262.7144
        50.0004         47.2004
 -14459090.59045 -11256378.35746  22478428.041    22478427.2594   22478429.3184
        44.4004         41.6004
  -6105566.25743  -4742665.65846  23573306.435    23573306.9104   23573311.5794
        38.5004         36.4004
 -13270154.98646 -10319087.15147  20998076.341    20998076.9734   20998078.9474
        48.8004         45.9004
  -8230069.41145  -6119723.26246  22418674.892    22418674.5444   22418676.7714
        43.6004         41.1004
 -12933934.43945 -10067183.27147  22751390.486    22751390.6764   22751392.8114
        44.9004         42.3004
   6445589.71342   5045885.58445  24410361.573    24410361.0114   24410363.8534
        35.0004         33.6004
 16  9 14  2  1  0.0000000  0 10G18G13G28G24G19G10G15G12G17G20
 -10065957.32243  -7832193.26546  23015447.436    23015446.0384   23015449.0434
        40.4004         38.1004
  -7809969.16144  -6071053.72746  22361961.924    22361962.9444   22361966.7304
        42.7004         39.9004
   3061104.35342   2403135.32145  24361083.993    24361083.2534   24361084.7164
        37.1004         35.0004
 -18045754.77347 -14051696.63447  20477041.690    20477042.1424   20477046.5964
        50.0004         47.2004
 -14522907.05345 -11306105.43946  22466284.949    22466282.8534   22466285.6984
        44.2004         41.6004
  -6131877.87543  -4763168.20846  23568299.892    23568299.1304   23568304.9814
        38.3004         36.0004
 -13213538.30846 -10274970.27147  21008850.309    21008850.9024   21008853.0104
        48.8004         46.1004
  -8331272.73345  -6198582.96946  22399416.381    22399416.1064   22399418.5204
        43.7004         40.7004
 -12945502.02745 -10076196.94447  22749188.987    22749188.4814   22749191.8774
        44.9004         42.1004
   6546084.38242   5124193.14345  24429486.551    24429485.9724   24429490.7994
        35.0004         33.4004
 16  9 14  2  1 30.0000000  0 10G18G13G28G24G19G10G15G12G17G20
 -10042153.02843  -7813644.49446  23019976.676    23019976.8464   23019977.7674
        40.4004         37.9004
  -7713187.85044  -5995639.74146  22380382.343    22380380.9774   22380382.8344
        42.5004         39.9004
   3155450.99742   2476652.19845  24379038.915    24379037.2424   24379038.3764
        37.1004         35.2004
 -18078073.78747 -14076880.28347  20470891.717    20470892.2664   20470896.1454
        50.0004         47.3004
 -14586202.45445 -11355426.51746  22454238.984    22454237.8694   22454239.8324
        44.2004         41.2004
  -6157612.97843  -4783221.55346  23563402.045    23563402.4064   23563407.5264
        38.3004         36.4004
 -13156453.60346 -10230488.69447  21019714.110    21019714.0324   21019715.8934
        48.9004         46.1004
  -8432185.48145  -6277216.25746  22380212.507    22380213.0184   22380214.2444
        43.6004         40.7004
 -12956511.60945 -10084775.81747  22747093.578    22747094.4234   22747097.3894
        44.9004         42.3004
   6646621.82042   5202533.98445  24448616.966    24448617.2504   24448617.7994
        34.7004         33.1004
 16  9 14  2  2  0.0000000  0 10G18G13G28G24G19G10G15G12G17G20
 -10017865.21343  -7794718.91746  23024598.912    23024597.9724   23024599.7154
        40.3004         37.8004
  -7616110.59944  -5919995.15246  22398853.700    22398854.4704   22398856.0544
        42.7004         40.0004
   3249881.86442   2550234.67745  24397007.113    24397006.6534   24397008.2584
        37.1004         35.2004
 -18110046.06947 -14101793.74847  20464808.015    20464808.1534   20464811.9454
        50.0004         47.3004
 -14648974.20045 -11404339.53246  22442294.535    22442292.7964   22442294.8354
        44.1004         41.4004
  -6182770.81843  -4802825.05746  23558614.656    23558614.5404   23558619.9294
        38.5004         36.2004
 -13098902.20246 -10185643.45447  21030665.151    21030665.1714   21030667.2234
        49.1004         46.3004
  -8532805.51445  -6355621.45746  22361065.085    22361065.5974   22361068.4414
        43.6004         40.9004
 -12966962.22445 -10092919.12746  22745105.104    22745104.4994   22745107.7914
        44.8004         41.9004
   6747199.31342   5280906.05445  24467756.890    24467756.6044   24467756.7194
        34.5004         33.3004
 16  9 14  2  2 30.0000000  0 10G18G13G28G24G19G10G15G12G17G20
  -9993094.98543  -7775417.43646  23029311.485    23029312.1264   23029312.5114
        39.9004         37.1004
  -7518739.08544  -5844121.25046  22417381.900    22417382.7104   22417385.6144
        42.7004         40.0004
   3344394.74742   2623881.08345  24414991.561    24414992.0184   24414993.3624
        37.0004         35.0004
 -18141671.00947 -14126436.55347  20458790.097    20458790.3074   20458794.2864
        50.2004         47.3004
 -14711219.48445 -11452842.33046  22430449.246    22430448.0414   22430449.8154
        44.1004         41.4004
  -6207350.69743  -4821978.19845  23553937.640    23553936.9424   23553941.8344
        37.8004         35.3004
 -13040885.54746 -10140435.68447  21041706.063    21041705.8674   21041707.6414
        49.1004         46.3004
  -8633130.93745  -6433797.09446  22341974.042    22341974.0554   22341976.2424
        43.6004         40.7004
 -12976853.28345 -10100626.44646  22743221.572    22743222.6634   22743224.3354
        44.2004         41.4004
   6847814.04542   5359307.17845  24486903.548    24486903.3214   24486909.3764
        34.7004         33.1004
 16  9 14  2  3  0.0000000  0 10G18G13G28G24G19G10G15G12G17G20
  -9967843.25543  -7755740.77446  23034117.629    23034118.1154   23034117.5384
        39.4004         36.9004
  -7421075.10844  -5768019.47246  22435968.617    22435968.2194   22435970.8244
        42.7004         40.0004
   3438988.19842   2697590.23045  24432993.314    24432993.1814   24432992.3544
        37.1004         35.0004
 -18172948.06347 -14150808.28047  20452837.787    20452837.8664   20452842.1564
        50.2004         47.3004
 -14772935.53245 -11500932.73746  22418704.922    22418704.1164   22418705.9954
        44.2004         41.6004
  -6231351.87142  -4840680.38745  23549369.412    23549369.1574   23549375.5224
        36.6004         34.5004
 -12982404.68046 -10094866.18747  21052833.763    21052834.1584   21052836.4294
        49.1004         46.3004
  -8733160.14545  -6511741.91046  22322939.163    22322938.6454   22322940.8844
        43.6004         40.9004
 -12986184.30145 -10107897.35546  22741447.305    22741447.0154   22741448.5524
        44.2004         41.4004
   6948463.19141   5437735.03845  24506055.993    24506057.0914   24506057.5804
        34.3004         32.9004
 16  9 14  2  3 30.0000000  0 10G18G13G28G24G19G10G15G12G17G20
  -9942111.66243  -7735690.18846  23039014.184    23039013.3784   23039016.3714
        39.6004         37.1004
  -7323120.55944  -5691691.25946  22454608.982    22454607.4354   22454610.5964
        42.5004         39.9004
   3533660.26242   2771360.68645  24451007.080    24451008.0054   24451007.1064
        36.8004         34.8004
 -18203876.47047 -14174908.33447  20446952.362    20446952.9584   20446956.9154
        50.2004         47.5004
 -14834119.67945 -11548608.66646  22407062.363    22407061.2984   22407063.5744
        44.4004         41.6004
  -6254773.74842  -4858931.14745  23544913.532    23544913.1564   23544918.2414
        36.6004         34.6004
 -12923461.20646 -10048936.21647  21064050.062    21064050.6054   21064053.0084
        49.1004         46.3004
  -8832890.84345  -6589454.12446  22303961.667    22303961.2674   22303962.2164
        43.6004         40.7004
 -12994954.73445 -10114731.44746  22739778.252    22739778.4134   22739780.7684
        44.6004         41.9004
   7049143.92342   5516187.58745  24525216.518    24525213.3414   24525217.6844
        34.5004         33.3004
 16  9 14  2  4  0.0000000  0 10G18G13G28G24G19G10G15G12G17G20
  -9915901.30843  -7715266.53946  23044001.393    23044001.0904   23044003.6824
        39.7004         37.4004
  -7224877.50544  -5615138.23546  22473302.373    22473302.9394   22473304.9694
        42.5004         39.5004
   3628409.34942   2845191.14645  24469037.355    24469036.5544   24469040.2554
        36.6004         34.5004
 -18234455.64947 -14198736.27447  20441134.102    20441134.1364   20441138.0374
        50.3004         47.5004
 -14894769.00245 -11595867.85746  22395521.297    22395519.9294   22395521.5454
        44.6004         41.8004
  -6277615.74042  -4876730.04545  23540566.488    23540566.6674   23540569.1424
        36.3004         34.1004
 -12864056.17946 -10002646.60447  21075355.415    21075355.6824   21075357.1514
        49.1004         46.3004
  -8932321.50545  -6666932.54346  22285039.949    22285039.7984   22285041.6034
        43.6004         40.7004
 -13003164.23845 -10121128.44946  22738216.556    22738216.3224   22738218.1704
        44.8004         41.9004
   7149853.16442   5594662.32745  24544378.602    24544380.1484   24544379.6984
        34.7004         33.3004
 16  9 14  2  4 30.0000000  0 10G18G13G28G24G19G10G15G12G17G20
  -9889213.63543  -7694470.98546  23049080.670    23049079.6024   23049081.8954
        39.7004         37.4004
  -7126347.16544  -5538361.35546  22492053.540    22492052.6434   22492055.5884
        42.3004         39.5004
   3723233.62142   2919080.18045  24487082.247    24487083.9374   24487082.3994
        36.4004         34.5004
 -18264685.31447 -14222291.84847  20435380.541    20435381.1914   20435385.1894
        50.2004         47.5004
 -14954881.25645 -11642708.55546  22384081.786    22384080.2754   22384082.8774
        44.6004         41.8004
  -6299877.08842  -4894076.51845  23536328.740    23536327.3774   23536334.6624
        34.9004         32.9004
 -12804191.13546  -9955998.52747  21086746.652    21086747.2364   21086749.1504
        49.1004         46.3004
  -9031450.31445  -6744175.74946  22266176.879    22266177.2484   22266178.6734
        43.7004         41.1004
 -13010812.08345 -10127087.80646  22736760.067    22736760.7224   22736763.2044
        44.6004         41.9004
   7250588.17042   5673157.14345  24563548.575    24563548.3984   24563552.4814
        34.7004         33.4004
 16  9 14  2  5  0.0000000  0 10G18G13G28G24G19G10G15G12G17G20
  -9862049.86643  -7673304.42046  23054249.615    23054248.7414   23054252.2074
        39.6004         37.3004
  -7027531.60244  -5461362.24946  22510857.490    22510856.8824   22510859.2654
        42.2004         39.5004
   3818131.46842   2993026.53645  24505140.700    24505138.7334   24505143.9314
        36.3004         34.5004
 -18294564.75247 -14245574.53047  20429695.333    20429695.3994   20429699.4064
        50.2004         47.5004
 -15014453.52645 -11689128.48146  22372744.900    22372743.9464   22372746.4124
        44.6004         41.8004
  -6321557.21442  -4910970.14945  23532206.015    23532205.2204   23532210.3994
        34.5004         33.3004
 -12743867.69346  -9908993.25947  21098225.817    21098226.1074   21098228.5224
        49.1004         46.1004
  -9130275.13345  -6821182.08946  22247370.914    22247370.4364   22247373.6514
        43.9004         41.1004
 -13017897.76245 -10132609.08647  22735412.816    22735412.4054   22735415.2054
        44.8004         42.1004
   7351346.07242   5751669.77045  24582722.319    24582723.3174   24582726.2184
        34.9004         33.3004
 16  9 14  2  5 30.0000000  0 10G18G13G28G24G19G10G15G12G17G20
  -9834411.41743  -7651767.98546  23059509.530    23059509.0354   23059510.9134
        39.7004         37.4004
  -6928432.86444  -5384142.46246  22529713.169    22529714.9224   22529716.6274
        42.2004         39.5004
   3913100.84242   3067028.63445  24523215.156    24523213.5694   24523211.4354
        36.6004         34.8004
 -18324093.20947 -14268583.72647  20424075.901    20424076.3694   20424080.6634
        50.3004         47.5004
 -15073483.48345 -11735125.82046  22361511.271    22361511.5184   22361513.9004
        44.4004         41.8004
  -6342655.63642  -4927410.46045  23528189.949    23528191.0654   23528198.2474
        35.2004         33.8004
 -12683086.81346  -9861631.54547  21109791.753    21109792.2724   21109794.6004
        48.9004         45.9004
  -9228794.85845  -6897950.67346  22228622.594    22228622.3024   22228625.0844
        43.9004         41.1004
 -13024420.91745 -10137692.04347  22734170.255    22734170.7144   22734174.4004
        44.8004         42.3004
   7452123.97242   5830198.01445  24601899.974    24601901.9244   24601901.2814
        34.9004         33.4004
 16  9 14  2  6  0.0000000  0 10G18G13G28G24G19G10G15G12G17G20
  -9806299.77843  -7629862.83646  23064858.305    23064857.6314   23064860.2164
        39.9004         37.6004
  -6829052.72644  -5306703.40046  22548626.712    22548626.8054   22548629.8254
        42.2004         39.7004
   4008140.23642   3141085.33045  24541298.433    24541297.8554   24541300.1804
        36.6004         34.8004
 -18353270.59047 -14291319.34547  20418523.485    20418524.0164   20418528.3624
        50.3004         47.5004
 -15131968.19945 -11780698.29947  22350383.480    22350382.3794   22350384.4224
        44.8004         42.1004
  -6363171.80742  -4943397.09545  23524285.893    23524285.9594   23524290.8134
        34.7004         33.1004
 -12621849.81146  -9813914.41047  21121444.576    21121445.2554   21121447.6444
        48.8004         45.9004
  -9327006.80445  -6974479.40846  22209932.895    22209933.1894   22209936.7414
        43.9004         41.2004
 -13030381.11545 -10142336.32447  22733036.800    22733036.5704   22733040.3214
        44.9004         42.3004
   7552918.71742   5908739.40745  24621081.049    24621080.7184   24621081.8934
        34.9004         33.3004
 16  9 14  2  6 30.0000000  0 10G18G13G28G24G19G10G15G12G17G20
  -9777716.01043  -7607589.79246  23070298.217    23070297.5584   23070299.8594
        39.9004         37.4004
  -6729392.63744  -5229046.20446  22567590.758    22567590.1814   22567593.8844
        42.3004         39.7004
   4103248.10942   3215195.34045  24559396.886    24559395.4414   24559398.6614
        36.4004         34.5004
 -18382095.71947 -14313780.47547  20413038.111    20413038.4934   20413042.9524
        50.2004         47.3004
 -15189905.28145 -11825844.05447  22339359.374    22339357.6474   22339359.6284
        44.9004         42.3004
  -6383105.23141  -4958929.70845  23520492.273    23520493.8954   23520499.2084
        33.7004         32.4004
 -12560158.44546  -9765843.23247  21133184.474    21133184.5264   21133187.2774
        48.8004         45.8004
  -9424909.54745  -7050767.24246  22191302.490    22191302.8684   22191305.6674
        43.9004         41.1004
 -13035777.94745 -10146541.63347  22732010.135    22732010.0864   22732012.5794
        45.1004         42.3004
   7653727.84042   5987291.96945  24640264.508    24640262.1844   24640269.2614
        34.7004         32.9004
 16  9 14  2  7  0.0000000  0 10G18G13G28G24G19G10G15G12G17G20
  -9748661.89843  -7584950.21946  23075826.042    23075825.3494   23075828.2214
        39.7004         37.1004
  -6629454.80144  -5151172.58046  22586607.039    22586607.3344   22586610.5474
        42.3004         39.7004
   4198422.40542   3289357.10045  24577510.203    24577509.1774   24577507.3494
        36.3004         34.3004
 -18410568.31147 -14335966.91147  20407619.887    20407620.1994   20407624.9544
        50.2004         47.3004
 -15247292.10545 -11870561.04147  22328438.204    22328436.7234   22328438.8974
        45.1004         42.3004
  -6402455.28841  -4974007.74545  23516810.386    23516808.2754   23516816.7624
        34.0004         32.9004
 -12498014.36746  -9717419.29247  21145010.340    21145010.3604   21145013.0894
        48.6004         45.8004
  -9522501.25145  -7126812.71446  22172731.928    22172731.6144   22172734.5064
        43.9004         41.1004
 -13040610.99645 -10150307.63147  22731090.316    22731089.9314   22731093.1224
        45.1004         42.3004
   7754548.78541   6065853.74145  24659451.444    24659452.8314   24659451.8074
        34.3004         33.1004
 16  9 14  2  7 30.0000000  0 10G18G13G28G24G19G10G15G12G17G20
  -9719138.91543  -7561945.29546  23081444.728    23081442.8514   23081446.1484
        39.2004         36.7004
  -6529240.84044  -5073083.79946  22605678.210    22605677.6374   22605680.6584
        42.3004         39.5004
   4293661.67242   3363569.50145  24595632.070    24595631.6884   24595631.1904
        36.4004         34.5004
 -18438687.91747 -14357878.29447  20402268.526    20402269.0674   20402273.8094
        50.2004         47.3004
 -15304125.97845 -11914847.16747  22317622.204    22317621.3104   22317623.6744
        44.9004         42.1004
  -6421221.63441  -4988630.90445  23513237.779    23513240.5224   23513245.1174
        34.2004         33.1004
 -12435418.33146  -9668643.17847  21156922.117    21156921.7024   21156924.5484
        48.6004         45.8004
  -9619780.27545  -7202614.50946  22154220.997    22154221.2434   22154222.9184
        43.9004         41.2004
 -13044879.82745 -10153633.98647  22730278.148    22730278.2164   22730280.8554
        45.1004         42.3004
   7855378.25341   6144422.15345  24678636.730    24678632.3534   24678637.3104
        34.0004         33.1004
 16  9 14  2  8  0.0000000  0 10G18G13G28G24G19G10G15G12G17G20
  -9689147.89343  -7538575.67446  23087151.331    23087150.7684   23087153.4354
        39.0004         36.9004
  -6428752.65344  -4994781.33146  22624801.618    22624800.5464   22624802.7504
        42.2004         39.3004
   4388964.19542   3437831.22045  24613766.102    24613765.2994   24613770.4624
        36.4004         34.5004
 -18466453.55647 -14379513.85547  20396985.138    20396985.5954   20396990.1324
        50.2004         47.3004
 -15360404.78445 -11958700.75847  22306913.061    22306912.5664   22306914.0304
        44.9004         42.3004
  -6439403.81041  -5002798.80045  23509781.083    23509780.8174   23509786.1814
        33.5004         32.4004
 -12372372.21046  -9619516.34347  21168918.734    21168919.4324   21168921.6474
        48.6004         45.8004
  -9716744.32145  -7278170.89546  22135769.079    22135769.0294   22135771.7064
        44.1004         41.6004
 -13048584.27045 -10156520.55746  22729573.565    22729573.0094   22729574.3274
        44.9004         41.8004
   7956213.77041   6222995.31545  24697827.995    24697827.0264   24697830.7194
        33.7004         32.2004
 16  9 14  2  8 30.0000000  0 10G18G13G28G24G19G10G15G12G17G20
  -9658690.73643  -7514842.87046  23092948.268    23092947.6514   23092948.5944
        39.4004         37.1004
  -6327992.10244  -4916266.63346  22643974.501    22643974.2704   22643976.9424
        42.0004         39.2004
   4484328.18742   3512140.79345  24631915.456    24631914.4804   24631916.9034
        36.6004         34.6004
 -18493865.03347 -14400873.44447  20391769.042    20391769.4254   20391773.9234
        50.2004         47.5004
 -15416125.93045 -12002119.81147  22296309.652    22296308.2614   22296311.0774
        44.9004         42.1004
  -6457001.32651  -5016511.17355  23506429.228    23506434.2134   23506436.4054
        32.1004         31.9004
 -12308877.29946  -9570039.80947  21181002.702    21181002.5634   21181004.0834
        48.6004         45.8004
  -9813392.19245  -7353480.91446  22117377.807    22117377.7904   22117380.0194
        44.2004         41.2004
 -13051724.06545 -10158967.14546  22728973.756    22728974.7554   22728976.6664
        44.6004         41.6004
   8057052.31841   6301570.80245  24717015.671    24717014.3574   24717015.8404
        33.3004         32.2004
 16  9 14  2  9  0.0000000  0 10G18G13G28G24G19G10G15G12G17G20
  -9627768.92243  -7490747.96346  23098832.605    23098832.0304   23098833.8444
        39.6004         37.3004
  -6226961.09344  -4837541.17846  22663199.470    22663199.0734   22663203.2684
        41.6004         38.8004
   4579751.80842   3586496.86445  24650073.564    24650071.8844   24650074.3244
        36.8004         35.0004
 -18520921.78547 -14421956.63047  20386620.241    20386620.6014   20386625.1394
        50.2004         47.3004
 -15471286.80745 -12045102.28947  22285812.568    22285811.3794   22285814.2374
        44.8004         42.1004
  -6474013.9365   -5029767.73955  23503194.743    23503196.4914
        31.2004         30.8004
 -12244935.24346  -9520214.84147  21193169.276    21193169.8654   21193172.1424
        48.6004         45.8004
  -9909722.06945  -7428543.12646  22099046.163    22099046.4894   22099048.1284
        44.1004         41.2004
 -13054298.85845 -10160973.45946  22728484.926    22728485.0784   22728487.0894
        44.4004         41.8004
   8157890.94241   6380146.31145  24736202.581    24736201.7234   24736204.1514
        32.8004         31.9004
 16  9 14  2  9 30.0000000  0 10G18G13G28G24G19G10G15G12G17G20
  -9596383.83243  -7466292.04146  23104803.989    23104804.1944   23104806.1704
        39.7004         37.4004
  -6125661.53344  -4758606.48146  22682477.488    22682475.6874   22682479.6644
        41.5004         38.6004
   4675233.87142   3660898.45045  24668241.705    24668242.3554   24668243.7754
        36.8004         34.8004
 -18547622.83347 -14442762.64247  20381539.068    20381539.8294   20381544.2384
        50.2004         47.5004
 -15525884.92345 -12087646.24746  22275423.751    22275421.7354   22275424.2364
        44.8004         41.9004
                  -5042568.09655  23500071.049
                        30.5004
 -12180547.58146  -9470042.64147  21205422.201    21205422.8864   21205424.4784
        48.6004         45.8004
 -10005731.72045  -7503355.80446  22080775.522    22080775.2764   22080779.8044
        44.2004         41.9004
 -13056308.04745 -10162539.04446  22728102.630    22728102.9574   22728105.4094
        44.6004         41.9004
   8258726.83441   6458719.79545  24755392.677    24755387.9924   24755392.7134
        32.8004         32.0004
 16  9 14  2 10  0.0000000  0 10G18G13G28G24G19G10G15G12G17G20
  -9564536.88643  -7441476.26846  23110865.192    23110864.0574   23110865.7034
        40.1004         37.8004
  -6024095.17144  -4679463.86846  22701802.680    22701803.0794   22701806.9294
        41.1004         38.5004
   4770772.19142   3735343.91245  24686423.181    24686422.1834   24686425.4214
        36.8004         34.8004
 -18573967.92547 -14463291.28647  20376526.030    20376526.1024   20376530.7314
        50.2004         47.5004
 -15579917.66345 -12129749.66947  22265141.311    22265140.9004   22265142.4684
        44.8004         42.3004
                  -5054912.10055  23497055.645
                        30.3004
 -12115715.56446  -9419524.19747  21217759.702    21217759.5484   21217761.8644
        48.6004         45.6004
 -10101419.70245  -7577917.87046  22062566.838    22062567.3054   22062571.2254
        44.6004         41.8004
 -13057751.72745 -10163663.96947  22727829.042    22727828.1894   22727830.7654
        44.8004         42.1004
   8359557.53041   6537289.21445  24774579.897    24774581.0974   24774581.4134
        32.8004         32.0004
 16  9 14  2 10 30.0000000  0 10G18G13G28G24G19G10G15G12G17G20
  -9532229.81943  -7416301.93346  23117012.810    23117012.4804   23117014.2784
        40.1004         37.6004
  -5922264.01444  -4600114.92946  22721181.408    22721181.7424   22721184.5684
        40.9004         38.5004
   4866365.28442   3809832.00645  24704613.921    24704614.0974   24704614.4274
        36.6004         34.6004
 -18599956.69547 -14483542.27547  20371581.037    20371581.0614   20371585.4644
        50.3004         47.7004
 -15633383.07945 -12171411.00547  22254967.069    22254966.3464   22254967.9254
        44.9004         42.3004
                     -7976.49053  23494152.736
                        23.4004
 -12050440.83546  -9368660.78447  21230180.234    21230180.8654   21230183.2264
        48.6004         45.8004
 -10196784.24945  -7652227.88546  22044420.269    22044419.6404   22044422.2714
        44.4004         41.4004
 -13058629.63045 -10164348.04746  22727661.177    22727661.2324   22727663.0704
        44.8004         41.9004
   8460380.07441   6615852.24145  24793767.403    24793765.0794   24793769.9784
        32.6004         31.7004
 16  9 14  2 11  0.0000000  0 10G18G13G28G24G19G10G15G12G17G20
  -9499463.81343  -7390770.01646  23123246.911    23123246.9784   23123249.1644
        39.7004         37.1004
  -5820170.04744  -4520561.19646  22740608.680    22740609.6754   22740613.0414
        41.3004         38.6004
   4962011.53442   3884361.52645  24722814.918    24722815.1374   24722816.8104
        36.6004         34.8004
 -18625588.40647 -14503515.03647  20366703.261    20366703.4034   20366707.5644
        50.3004         47.5004
 -15686278.39845 -12212628.12147  22244901.347    22244900.4724   22244901.9554
        44.9004         42.1004
                    -19505.92454  23491353.272
                        29.6004
 -11984724.96746  -9317453.62447  21242685.540    21242686.0064   21242688.5584
        48.6004         45.6004
 -10291823.33945  -7726284.29246  22026334.616    22026334.7204   22026337.1654
        44.2004         41.6004
 -13058941.60945 -10164591.13047  22727602.505    22727602.4944   22727604.7874
        44.8004         42.1004
   8561191.44941   6694406.57745  24812945.740    24812946.8354
        31.7004         31.0004
 16  9 14  2 11 30.0000000  0  9G18G13G28G24G19G15G12G17G20
  -9466240.78343  -7364881.95246  23129568.423    23129568.1164   23129571.6924
        39.4004         36.7004
  -5717814.91144  -4440803.94646  22760085.729    22760086.5284   22760090.4874
        41.3004         38.6004
   5057709.23742   3958931.15245  24741022.882    24741023.3074   24741026.4744
        36.4004         34.5004
 -18650862.51747 -14523209.14647  20361893.355    20361893.9374   20361898.1854
        50.2004         47.5004
 -15738601.31845 -12253399.20447  22234945.230    22234943.9114   22234945.7074
        44.9004         42.3004
 -11918569.39346  -9265903.85247  21255275.440    21255275.4584   21255277.8734
        48.6004         45.8004
 -10386535.71545  -7800086.13346  22008311.308    22008310.8164   22008314.6334
        44.4004         41.6004
 -13058687.45745 -10164393.08047  22727650.504    22727650.3194   22727652.9174
        44.9004         42.1004
                   6772950.39545  24832132.306
                        31.2004
 16  9 14  2 12  0.0000000  0  9G18G13G28G24G19G15G12G17G20
  -9432562.43543  -7338639.12046  23135977.669    23135976.9144   23135980.7674
        39.4004         36.7004
  -5615200.48844  -4360844.66846  22779614.692    22779614.2664   22779618.5724
        41.3004         38.8004
   5153456.83942   4033539.68945  24759245.864    24759244.8964   24759249.5084
        36.3004         34.5004
 -18675778.62047 -14542624.29247  20357152.521    20357152.5564   20357156.8854
        50.3004         47.7004
 -15790349.58145 -12293722.51147  22225098.514    22225096.7454   22225097.9554
        45.3004         42.6004
 -11851975.69046  -9214012.66047  21267947.592    21267947.4184   21267949.9834
        48.6004         45.8004
 -10480919.63545  -7873632.03646  21990350.497    21990351.4664   21990354.2204
        44.4004         41.8004
 -13057866.96345 -10163753.71647  22727806.243    22727806.5634   22727808.9424
        44.9004         42.1004
                   6851481.40755  24851307.918
                        31.2004
 16  9 14  2 12 30.0000000  0  9G18G13G28G24G19G15G12G17G20
  -9398430.06643  -7312042.51846  23142473.125    23142472.4204   23142475.4834
        39.4004         37.1004
  -5512328.69944  -4280684.83146  22799190.130    22799190.0954   22799193.0354
        41.3004         38.6004
   5249252.53442   4108185.62645  24777474.258    24777474.1884   24777475.6694
        35.7004         33.8004
 -18700335.70447 -14561759.67847  20352479.052    20352479.3144   20352484.0994
        50.3004         47.5004
 -15841520.60145 -12333596.02847  22215360.567    22215359.8014   22215360.5954
        45.5004         42.6004
 -11784945.62546  -9161781.45047  21280703.167    21280703.1634   21280705.2144
        48.8004         45.9004
 -10574972.60545  -7946920.04746  21972453.536    21972452.9404   21972455.2344
        44.6004         41.8004
 -13056480.01945 -10162672.94047  22728070.455    22728070.4124   22728073.0094
        44.9004         42.1004
                     68716.68154  24870483.201
                        25.6004
 16  9 14  2 13  0.0000000  0  9G18G13G28G24G19G15G12G17G20
  -9363845.15843  -7285093.27246  23149054.629    23149054.3524   23149057.9184
        39.4004         36.9004
  -5409201.33544  -4200325.85946  22818814.694    22818815.2544   22818817.3644
        41.1004         38.3004
   5345094.85042   4182867.92645  24795712.055    24795711.7194   24795713.9804
        35.6004         33.8004
 -18724533.65347 -14580615.22247  20347874.377    20347874.8684   20347879.2084
        50.2004         47.5004
 -15892112.55645 -12373018.31547  22205732.770    22205731.8264   22205732.7074
        45.3004         42.3004
 -11717480.49646  -9109211.23547  21293541.548    21293541.7404   21293543.5194
        48.8004         45.9004
 -10668693.55445  -8019949.34347  21954617.701    21954618.5334   21954622.1624
        44.8004         42.3004
 -13054526.66245 -10161150.84047  22728440.435    22728441.7474   22728444.4074
        44.8004         42.1004
                    147224.46454  24889652.042
                        29.1004
